lat,lon,nearest_station_1,nearest_station_1_dist,nearest_station_1_lat,nearest_station_1_long,nearest_station_2,nearest_station_2_dist,nearest_station_2_lat,nearest_station_2_long,nearest_station_3,nearest_station_3_dist,nearest_station_3_lat,nearest_station_3_long,nearest_station_4,nearest_station_4_dist,nearest_station_4_lat,nearest_station_4_long,nearest_station_5,nearest_station_5_dist,nearest_station_5_lat,nearest_station_5_long,harmonic_mean_adj_dist,harmonic_mean_adj_dist_norm,line_unique_count,line_unique_count_norm,connectivity_score
51.51451998392903,-0.4125120193108345,Hayes & Harlington,1771.5767303809268,51.50303723137112,-0.41935690170324563,Southall,3416.6599969378212,51.50614613228283,-0.3771035436303124,West Drayton,5384.926431507714,51.509889653988765,-0.4717298081442503,South Ruislip,6245.530727523655,51.55686140180025,-0.3988455279896942,Northolt,6282.379967714701,51.54826023603043,-0.3686291206057346,3670.6789722525573,0.07291481395991972,2,0.8,0.4364574069799599
51.34873148798412,-0.14540083210126703,Morden,8970.487487592822,51.40253724508803,-0.19473027219670863,Colliers Wood,10464.905963525276,51.418159079977876,-0.17803308894654438,South Wimbledon,10515.31895245909,51.41498850026229,-0.19328192113707632,Tooting Broadway,11603.373149613119,51.427675722454374,-0.16836472055651,Wimbledon,11877.846171330028,51.42143425544057,-0.20649073062441967,10581.883562691866,0.2748904735705339,2,0.8,0.537445236785267
51.45939112756656,-0.32805544142138876,Richmond,2445.611194847037,51.46311840473405,-0.3016467054337033,Hounslow East,3246.0995520306724,51.47326277254156,-0.3563132084539763,Osterley,3839.1726084536954,51.481243488531945,-0.35219948980178173,Hounslow Central,3858.77455300839,51.47131964602911,-0.36627277395717445,Kew Gardens,4646.523331964442,51.476997832844376,-0.2850185530874335,3444.0127480347887,0.0662906344050035,2,0.8,0.43314531720250177
51.4265035064725,0.04475055492925109,LEWISHAM - DLR,7765.056587639914,51.4656534958191,-0.014057517109202628,ELVERSON ROAD - DLR,8229.439820879994,51.46869622022829,-0.016358693464723607,GREENWICH - DLR,9130.388767890372,51.47812532354829,-0.013428987645855905,DEPTFORD BRIDGE - DLR,9199.936318558934,51.474302836694164,-0.02243708367150416,WOOLWICH ARSENAL - DLR,9435.968104964539,51.489985357998016,0.0688912148850038,8703.292162881136,0.21998980724667958,1,1.0,0.6099949036233397
51.487601858936856,0.14831571645291577,Abbey Wood,2554.6417459150753,51.491074357645864,0.12057216047674105,Woolwich,6901.871678700708,51.491668236437704,0.07214595050906773,WOOLWICH ARSENAL - DLR,7179.024192901403,51.489985357998016,0.0688912148850038,GALLIONS REACH - DLR,7568.450095434998,51.508981284149876,0.07178457988924161,Dagenham Heathway,7812.155319873561,51.5416184486541,0.1475466339518699,5343.248426109913,0.12179461693301201,3,0.6,0.360897308466506
51.462447210893515,0.046357013398317694,WOOLWICH ARSENAL - DLR,4472.29189775784,51.489985357998016,0.0688912148850038,Woolwich,4825.097188838455,51.491668236437704,0.07214595050906773,LEWISHAM - DLR,5476.9715966136255,51.4656534958191,-0.014057517109202628,ELVERSON ROAD - DLR,5736.625355235589,51.46869622022829,-0.016358693464723607,GREENWICH - DLR,5856.5195959435805,51.47812532354829,-0.013428987645855905,5216.485427976966,0.11809004708168112,2,0.8,0.4590450235408406
51.53676362627584,-0.09450819120883211,Angel,1194.4428535682778,51.53148959741432,-0.10470051077650719,Highbury & Islington,1751.0835019211117,51.54742661432923,-0.10371049499403494,Old Street,1799.5165987023854,51.525087015961375,-0.0876110910136405,Barbican,2424.514972652182,51.52021035825423,-0.09877416007418292,Farringdon,2534.865338770184,51.519915625753825,-0.1022644932001967,1804.4404413773852,0.018375152554772872,5,0.19999999999999996,0.10918757627738641
51.54357037963679,0.03557333722867819,Upton Park,1184.6869761480418,51.535381114708535,0.035237134317064586,Forest Gate,1350.3968434784904,51.54923382053423,0.023665990638303193,Manor Park,1529.8943726231937,51.5521985051404,0.04539047874751819,East Ham,1670.5201469403585,51.53940799877854,0.05285335494738618,Plaistow,2446.383945014835,51.531232747860415,0.017015994843462036,1540.523320937708,0.010662338705060252,3,0.6,0.30533116935253013
51.525598674704746,0.034771898439453906,Upton Park,1415.318357479055,51.535381114708535,0.035237134317064586,Plaistow,1796.9889715812888,51.531232747860415,0.017015994843462036,PRINCE REGENT - DLR,2347.483619270413,51.509369678637576,0.03421726118998984,Custom House,2347.8409487424155,51.50982669208105,0.028600872419654706,CUSTOM HOUSE - DLR,2410.8399842209055,51.5097363194669,0.026552314998290878,1976.4832199574364,0.023402995853322933,4,0.4,0.21170149792666149
51.58849877655632,0.037580460528042876,South Woodford,1041.1275248888899,51.59189362934642,0.027388706541122812,Snaresbrook,1843.650406453578,51.58067843566125,0.021420000139433203,Redbridge,1907.4536796767072,51.57625099831294,0.04543664415152093,Wanstead,2031.2794064093255,51.575602965168954,0.02864730241085162,Woodford,2674.818202461855,51.6068623985304,0.03403805532136056,1728.120840757845,0.016144759650810168,1,1.0,0.5080723798254051
51.44371458263071,0.08869121455140132,WOOLWICH ARSENAL - DLR,6926.4329626417475,51.489985357998016,0.0688912148850038,Woolwich,7094.122945999572,51.491668236437704,0.07214595050906773,Abbey Wood,7429.792491427929,51.491074357645864,0.12057216047674105,KING GEORGE V - DLR,8762.718110602982,51.50202586586268,0.06231897937750261,LONDON CITY AIRPORT - DLR,9410.940719682754,51.50366796473086,0.048170955147335826,7808.734548631505,0.19384691683829683,2,0.8,0.4969234584191484
51.572236672795235,-0.06416413280326518,Seven Sisters,1779.9254133440586,51.58339989538407,-0.07248488928732598,Tottenham Hale,2315.4872983497403,51.58805045886335,-0.060139591063478465,Manor House,2880.5093672834446,51.570753556351,-0.09603915207846561,Blackhorse Road,2921.1949911648717,51.58684229409946,-0.041768161396529516,Finsbury Park,3986.5140256004515,51.564572648553515,-0.10665342330316399,2585.277932402137,0.04119464302631693,2,0.8,0.4205973215131585
51.48016657949976,0.06155242407070272,WOOLWICH ARSENAL - DLR,1566.9572112049518,51.489985357998016,0.0688912148850038,Woolwich,1918.7282039762526,51.491668236437704,0.07214595050906773,KING GEORGE V - DLR,3161.972522595607,51.50202586586268,0.06231897937750261,LONDON CITY AIRPORT - DLR,3607.008037303048,51.50366796473086,0.048170955147335826,PONTOON DOCK - DLR,4093.424139914084,51.50228212418493,0.033252979941393666,2503.5692128159726,0.03880675646929268,2,0.8,0.41940337823464635
51.491595834409424,-0.08198746341072975,Borough,1722.3159487730002,51.501192691784105,-0.093287413867766,Bermondsey,1822.0072583199997,51.49770348003495,-0.06433321766482115,Elephant & Castle,1836.3218820704126,51.49583866247047,-0.10116094487967293,London Bridge,2066.300776912231,51.50506641773977,-0.08962285051859702,Kennington,2213.013525331498,51.48834108236874,-0.10594020447433074,1915.8153899588237,0.02163001621992222,3,0.6,0.3108150081099611
51.594000227891186,-0.30867928478965273,Kenton,1931.601166620044,51.58161346615873,-0.3167056317741808,Queensbury,2024.9967185030407,51.59419954633909,-0.28619819535279867,Canons Park,2350.0115820695246,51.607711419828995,-0.2946706986107864,Harrow & Wealdstone,2375.2872392168097,51.592045896748125,-0.3348639494005961,Northwick Park,2398.040539422753,51.57847686666111,-0.31804395596062013,2197.732799666999,0.02986887733832895,3,0.6,0.3149344386691645
51.478567028147715,-0.4137600592493692,Hatton Cross,1935.2609234494473,51.46662778937479,-0.42344368101612345,Hounslow West,2626.528479748291,51.47361871639353,-0.385772979713366,Hayes & Harlington,3574.23629027957,51.50303723137112,-0.41935690170324563,Heathrow Terminals 1-2-3,3644.3588699003403,51.4713042570714,-0.4524058201396179,Heathrow Terminals 1-2-3,3734.095833642389,51.47191531293728,-0.4537165537462638,2907.930174572312,0.050623954311257824,2,0.8,0.42531197715562896
51.475002650690875,-0.16908471647581974,Battersea Power Station,2409.99073286125,51.479476819200244,-0.14337610628255198,Fulham Broadway,2462.3396457833237,51.48076858389101,-0.19474266104252827,Sloane Square,2759.4135872986067,51.492337989718926,-0.1563109875356802,South Kensington,2784.3142152580963,51.49408964921556,-0.17314093551479268,Parsons Green,2948.895923777401,51.47498606823488,-0.2017397326871696,2657.1465102686784,0.043294957556138824,4,0.4,0.22164747877806942
51.45634695237521,-0.12664786149376744,Clapham Common,1273.63947283721,51.46221120939256,-0.13716717677773801,Clapham North,1378.4297711116255,51.46573033892738,-0.12933358122662442,Brixton,1402.737885928675,51.46266775315543,-0.11486935481082039,Clapham South,1909.3384555624089,51.45323750844449,-0.14718699803775498,Stockwell,2262.7761779832335,51.47182927610112,-0.123016885349951,1567.7997173944673,0.011459474442262382,2,0.8,0.4057297372211312
51.47991263806676,0.07594311590581823,WOOLWICH ARSENAL - DLR,1589.7687298154217,51.489985357998016,0.0688912148850038,Woolwich,1734.2897835385866,51.491668236437704,0.07214595050906773,KING GEORGE V - DLR,3426.327012736012,51.50202586586268,0.06231897937750261,GALLIONS REACH - DLR,4220.538716934137,51.508981284149876,0.07178457988924161,LONDON CITY AIRPORT - DLR,4253.027106864504,51.50366796473086,0.048170955147335826,2538.6533259721496,0.03983206787540775,2,0.8,0.4199160339377039
51.42062787317814,-0.14249143298793868,Tooting Broadway,2551.4776195250683,51.427675722454374,-0.16836472055651,Tooting Bec,2675.899130804288,51.435899341737425,-0.1592083111530278,Colliers Wood,3233.2402551045425,51.418159079977876,-0.17803308894654438,Balham,3450.7217563763584,51.44362772683046,-0.1526657783980393,South Wimbledon,4664.176035458696,51.41498850026229,-0.19328192113707632,3166.3249716855266,0.05817538169326432,1,1.0,0.5290876908466322
51.482843748949605,-0.0967574208915805,Kennington,1148.621415232005,51.48834108236874,-0.10594020447433074,Oval,1418.162818531194,51.481838396899654,-0.11238107063105886,Elephant & Castle,1920.781160050239,51.49583866247047,-0.10116094487967293,Vauxhall,2514.3073777032005,51.485698419511635,-0.12422721164969706,Borough,2671.85906058588,51.501192691784105,-0.093287413867766,1743.1544662964845,0.01658410801545071,3,0.6,0.30829205400772536
51.42085456957984,-0.1568654393808953,Tooting Broadway,1433.0672037246525,51.427675722454374,-0.16836472055651,Colliers Wood,1953.132283455624,51.418159079977876,-0.17803308894654438,Tooting Bec,2185.824026242253,51.435899341737425,-0.1592083111530278,Balham,3314.9042154173903,51.44362772683046,-0.1526657783980393,South Wimbledon,3400.1698312279837,51.41498850026229,-0.19328192113707632,2209.391802853096,0.03020960446166889,1,1.0,0.5151048022308344
51.4473600255863,-0.12701563852862385,Clapham South,2011.0111348948114,51.45323750844449,-0.14718699803775498,Clapham Common,2335.2261641098416,51.46221120939256,-0.13716717677773801,Balham,2379.8764056482196,51.44362772683046,-0.1526657783980393,Brixton,2470.702451004037,51.46266775315543,-0.11486935481082039,Clapham North,2664.7281547397783,51.46573033892738,-0.12933358122662442,2352.174954839908,0.034382353354635145,2,0.8,0.4171911766773176
51.534080875411924,0.06398795290664402,East Ham,1265.683994215559,51.53940799877854,0.05285335494738618,Barking,1686.7313141088755,51.539886123317935,0.0802089530468054,Upton Park,2599.935767540796,51.535381114708535,0.035237134317064586,BECKTON - DLR,2850.243813445441,51.514417517428555,0.06184131351015285,Manor Park,3110.862839995473,51.5521985051404,0.04539047874751819,2049.2848331757846,0.025530577761523687,4,0.4,0.21276528888076185
51.46579013082125,-0.15505592527360632,Clapham Common,1696.6901575982517,51.46221120939256,-0.13716717677773801,Clapham South,1949.423526588258,51.45323750844449,-0.14718699803775498,Battersea Power Station,2242.757780010938,51.479476819200244,-0.14337610628255198,Clapham North,2323.3547675725126,51.46573033892738,-0.12933358122662442,Stockwell,3022.619489079298,51.47182927610112,-0.123016885349951,2164.9843163381097,0.02891182326258219,2,0.8,0.41445591163129114
51.43498423082162,0.07390491438862362,WOOLWICH ARSENAL - DLR,7966.962325013843,51.489985357998016,0.0688912148850038,Woolwich,8198.992699544076,51.491668236437704,0.07214595050906773,LEWISHAM - DLR,9101.921977997146,51.4656534958191,-0.014057517109202628,Abbey Wood,9141.629481656966,51.491074357645864,0.12057216047674105,ELVERSON ROAD - DLR,9501.897067311196,51.46869622022829,-0.016358693464723607,8741.51407976088,0.22110681901681986,2,0.8,0.51055340950841
51.451011062465234,-0.3715385174549378,Hounslow Central,2974.9693706100743,51.47131964602911,-0.36627277395717445,Hounslow East,3499.2647234539318,51.47326277254156,-0.3563132084539763,Hounslow West,3512.872731099219,51.47361871639353,-0.385772979713366,Osterley,4707.734274002301,51.481243488531945,-0.35219948980178173,Hatton Cross,5204.223340114988,51.46662778937479,-0.42344368101612345,3813.4532667201374,0.0770873039973904,1,1.0,0.5385436519986952
51.47408974752466,-0.11152152590624305,Stockwell,1088.4014161315672,51.47182927610112,-0.123016885349951,Oval,1123.2142779068624,51.481838396899654,-0.11238107063105886,Brixton,1679.1744029753527,51.46266775315543,-0.11486935481082039,Nine Elms,1841.0878952744733,51.48014022289899,-0.12946035642401071,Clapham North,2012.2985615641585,51.46573033892738,-0.12933358122662442,1451.499832351094,0.008060682569313242,2,0.8,0.40403034128465665
51.41209231174245,-0.17159830124273176,Colliers Wood,1052.692106415394,51.418159079977876,-0.17803308894654438,South Wimbledon,2004.9802980141408,51.41498850026229,-0.19328192113707632,Tooting Broadway,2272.3014717749047,51.427675722454374,-0.16836472055651,Morden,2507.113409183049,51.40253724508803,-0.19473027219670863,Wimbledon,3431.994820110521,51.42143425544057,-0.20649073062441967,1938.7159024311252,0.022299269466803773,2,0.8,0.41114963473340194
51.48237286209453,-0.0679719989545798,Bermondsey,2241.1759927999683,51.49770348003495,-0.06433321766482115,Canada Water,2774.8689371301293,51.497921984959426,-0.04996098075543696,Kennington,3534.997882407655,51.48834108236874,-0.10594020447433074,Borough,3553.7970567730554,51.501192691784105,-0.093287413867766,Elephant & Castle,3573.456891848441,51.49583866247047,-0.10116094487967293,3029.0408539287223,0.05416333865863188,3,0.6,0.3270816693293159
51.484213538932565,-0.18311914661104656,Fulham Broadway,1161.7234549857765,51.48076858389101,-0.19474266104252827,West Brompton,1206.5905154172196,51.48728046887337,-0.1955480708404167,Earl's Court,1443.4192583837755,51.49198553743163,-0.1931516639864181,Gloucester Road,1486.9633878549582,51.49448969489053,-0.18371074399620252,South Kensington,1688.507571778233,51.49408964921556,-0.17314093551479268,1370.944166950446,0.005706493304365784,3,0.6,0.3028532466521829
51.50306618595295,-0.24000493056590771,Goldhawk Road,1217.7793664774867,51.501992951126496,-0.2266214631541082,Stamford Brook,1295.6112794982932,51.49491901447832,-0.24597832114672852,Shepherd's Bush Market,1314.245717682891,51.50609178517763,-0.2262724263347779,Ravenscourt Park,1342.6638030093368,51.494168694143745,-0.23575227913466715,Turnham Green,1758.5490969757302,51.494958689122086,-0.2545275752571731,1363.3879822941474,0.005485668503113804,4,0.4,0.20274283425155692
51.55402517237894,-0.050511317556280716,Bethnal Green,3891.744697558816,51.52723886838864,-0.05466345424549399,STRATFORD INTERNATIONAL - DLR,3934.797713597902,51.54484877107612,-0.009426193778977777,Leyton,4078.4525526404955,51.55660540139774,-0.005459613057395526,PUDDING MILL LANE - DLR,4369.851742961877,51.534196770231574,-0.013942896998014478,Mile End,4429.492979286385,51.52523624361827,-0.033740882967349194,4129.200857211769,0.08631483112749895,4,0.4,0.24315741556374948
51.56372303405055,-0.09338165968322928,Manor House,1044.5198172779656,51.570753556351,-0.09603915207846561,Finsbury Park,1202.4959451056038,51.564572648553515,-0.10665342330316399,Arsenal,1452.5091665405355,51.558618236881735,-0.10725918161736345,Holloway Road,2391.2605771400736,51.55275818790897,-0.11323739717918851,Highbury & Islington,2533.9830809109267,51.54742661432923,-0.10371049499403494,1519.6320040270534,0.010051802949976258,2,0.8,0.4050259014749881
51.47385706831062,-0.09713130111908407,Oval,1796.773956468981,51.481838396899654,-0.11238107063105886,Kennington,2240.4626496118835,51.48834108236874,-0.10594020447433074,Brixton,2277.0537596099107,51.46266775315543,-0.11486935481082039,Stockwell,2356.073204971627,51.47182927610112,-0.123016885349951,Vauxhall,2986.358861280598,51.485698419511635,-0.12422721164969706,2271.339306182987,0.03201998175300156,2,0.8,0.4160099908765008
51.551797593907644,0.07921423397649752,Ilford,1396.8794171238342,51.55901703762676,0.06892040799865062,Barking,1724.9595169122983,51.539886123317935,0.0802089530468054,Seven Kings,2324.8815460942797,51.56394849951275,0.096099334795915,Upney,2801.1852051423325,51.53835560347559,0.10158060702967472,East Ham,2976.6733364957136,51.53940799877854,0.05285335494738618,2067.250264746752,0.026055606335667635,3,0.6,0.3130278031678338
51.47477707589857,-0.15469362616981758,Battersea Power Station,1227.3400649474634,51.479476819200244,-0.14337610628255198,Nine Elms,2406.9639989994166,51.48014022289899,-0.12946035642401071,Clapham Common,2409.9032677914975,51.46221120939256,-0.13716717677773801,Sloane Square,2543.6463009454133,51.492337989718926,-0.1563109875356802,Clapham North,2637.663714581866,51.46573033892738,-0.12933358122662442,2068.2989814682114,0.026086254430191493,3,0.6,0.31304312721509575
51.457252134486254,-0.1841893112430222,East Putney,2441.0732461213233,51.45914982307664,-0.2110399264406896,Southfields,2684.932286298739,51.44507974989173,-0.20662949274631476,Putney Bridge,2726.7379332174232,51.468255977268214,-0.2087033152868412,Parsons Green,3014.8088858633573,51.47498606823488,-0.2017397326871696,Clapham South,3392.95088789882,51.45323750844449,-0.14718699803775498,2816.4761420462237,0.047951267039192405,2,0.8,0.4239756335195962
51.419702276519864,-0.08499838569992825,Brixton,6774.252956700015,51.46266775315543,-0.11486935481082039,Balham,7027.306978503524,51.44362772683046,-0.1526657783980393,Tooting Bec,7105.693076430515,51.435899341737425,-0.1592083111530278,Clapham South,7423.613428286698,51.45323750844449,-0.14718699803775498,Tooting Broadway,7624.66155138249,51.427675722454374,-0.16836472055651,7178.641088558265,0.17543282700066154,2,0.8,0.4877164135003308
51.55205214372502,0.0648010846125308,Ilford,1073.5363335438064,51.55901703762676,0.06892040799865062,Manor Park,1750.1657954896725,51.5521985051404,0.04539047874751819,East Ham,2122.340960272071,51.53940799877854,0.05285335494738618,Barking,2241.8406759691916,51.539886123317935,0.0802089530468054,Seven Kings,3304.656986258436,51.56394849951275,0.096099334795915,1836.3999714731185,0.01930914996252733,3,0.6,0.30965457498126364
51.483989653341844,-0.1687250563409037,South Kensington,1513.9645948648615,51.49408964921556,-0.17314093551479268,Sloane Square,1647.2526287683409,51.492337989718926,-0.1563109875356802,Gloucester Road,2033.650001689902,51.49448969489053,-0.18371074399620252,Battersea Power Station,2380.011871334677,51.479476819200244,-0.14337610628255198,Fulham Broadway,2394.873605101781,51.48076858389101,-0.19474266104252827,1925.2686988460398,0.021906283297971053,4,0.4,0.21095314164898554
51.49615027145011,-0.384337009729214,Southall,1586.007704058021,51.50614613228283,-0.3771035436303124,Hounslow West,3260.6507832754596,51.47361871639353,-0.385772979713366,Hayes & Harlington,3313.761562678539,51.50303723137112,-0.41935690170324563,Osterley,3614.3043790186903,51.481243488531945,-0.35219948980178173,Hounslow Central,3943.5501789154923,51.47131964602911,-0.36627277395717445,2826.0880297226263,0.04823216848381613,2,0.8,0.4241160842419081
51.45270020137537,0.08910152681056624,WOOLWICH ARSENAL - DLR,5692.66622692625,51.489985357998016,0.0688912148850038,Woolwich,5839.8147510151575,51.491668236437704,0.07214595050906773,Abbey Wood,6235.101194599546,51.491074357645864,0.12057216047674105,KING GEORGE V - DLR,7532.214970053745,51.50202586586268,0.06231897937750261,LONDON CITY AIRPORT - DLR,8245.656248146743,51.50366796473086,0.048170955147335826,6567.503599677117,0.15757271364208733,2,0.8,0.4787863568210437
51.556333009622485,-0.1946713637534102,West Hampstead,1437.1093141226154,51.546804104148165,-0.19014461999570487,Hampstead,1458.41143073138,51.55659225238286,-0.17849793364354744,Kilburn,1629.3592144596562,51.54695520739804,-0.20469009526410165,Finchley Road,1798.8908062915434,51.54723304699958,-0.18106642213608887,Golders Green,2308.1570646743216,51.572288875812,-0.19399749568271848,1675.3779326336075,0.014603380934730556,3,0.6,0.3073016904673653
51.503281304453736,-0.2544056160191497,Turnham Green,1203.5395207148124,51.494958689122086,-0.2545275752571731,Stamford Brook,1428.5651567260288,51.49491901447832,-0.24597832114672852,Chiswick Park,1783.448147233754,51.49466825400271,-0.2685489968417927,East Acton,2034.3224672177303,51.516598790970214,-0.24713925086544353,Ravenscourt Park,2137.9803178140323,51.494168694143745,-0.23575227913466715,1638.8646901741768,0.013536304112772802,3,0.6,0.3067681520563864
51.38422151491962,-0.11522351534424972,Colliers Wood,7507.4818246501545,51.418159079977876,-0.17803308894654438,Morden,7664.936605547268,51.40253724508803,-0.19473027219670863,Tooting Broadway,7911.186138069446,51.427675722454374,-0.16836472055651,South Wimbledon,8345.657661201316,51.41498850026229,-0.19328192113707632,Tooting Bec,8465.741292201017,51.435899341737425,-0.1592083111530278,7961.607056306984,0.19831452088185197,1,1.0,0.599157260440926
51.571515230850146,-0.02090099898019514,Walthamstow Central,1679.3045852538778,51.583121461554015,-0.02149009721696701,Leyton,2566.3670399396374,51.55660540139774,-0.005459613057395526,Leytonstone,2663.9255071275293,51.56832221916004,0.008210470401397503,Blackhorse Road,2906.510995687069,51.58684229409946,-0.041768161396529516,STRATFORD INTERNATIONAL - DLR,3992.7031207523937,51.54484877107612,-0.009426193778977777,2557.4945883279447,0.04038269206000688,3,0.6,0.32019134603000343
51.57340504146142,-0.13627007189386006,Highgate,1119.2369251613723,51.57784658975153,-0.14644230428628777,Archway,1286.764813167015,51.564540856812656,-0.1350261547508563,Tufnell Park,2402.4783876075808,51.55684688165748,-0.1384398274315375,Finsbury Park,2958.9498785145984,51.564572648553515,-0.10665342330316399,East Finchley,3265.5544278207017,51.58715662440678,-0.1650189133944944,1830.8111179353477,0.019145819190736848,3,0.6,0.30957290959536843
51.59966856078855,-0.09187745117312249,Wood Green,1648.0885335368978,51.59747402372348,-0.10983386762894175,Turnpike Lane,1687.4601911646719,51.590254789519385,-0.10294685906251815,Seven Sisters,2930.2471301286623,51.58339989538407,-0.07248488928732598,Bounds Green,3111.028202221462,51.60706647717479,-0.12431690931299394,Tottenham Hale,3315.8701381956134,51.58805045886335,-0.060139591063478465,2310.904102736214,0.03317623834714904,2,0.8,0.4165881191735745
51.53722838665624,-0.12332860434520765,King's Cross St. Pancras,1083.6880004943316,51.52978710018642,-0.12475052978005514,Mornington Crescent,1435.5407393313362,51.53470697367115,-0.13872430086651955,Euston,1666.1888283251358,51.52808646670192,-0.13457316781860326,Caledonian Road,1691.9799949424767,51.54852596233329,-0.11844747007964432,Camden Town,1761.6965360511879,51.53923273585449,-0.14259744968174543,1480.0752142024885,0.008895780347498636,6,0.0,0.004447890173749318
51.45541302197503,-0.06911047335871481,Brixton,4264.86367552518,51.46266775315543,-0.11486935481082039,DEPTFORD BRIDGE - DLR,5023.596068432824,51.474302836694164,-0.02243708367150416,ELVERSON ROAD - DLR,5137.926726095161,51.46869622022829,-0.016358693464723607,LEWISHAM - DLR,5189.1746818253,51.4656534958191,-0.014057517109202628,Stockwell,5417.195699791354,51.47182927610112,-0.123016885349951,4972.789211363653,0.11096817658125126,3,0.6,0.3554840882906256
51.60888887334227,-0.10593333368148754,Bounds Green,1676.2101269484665,51.60706647717479,-0.12431690931299394,Wood Green,1687.7243889461952,51.59747402372348,-0.10983386762894175,Arnos Grove,2672.9862785510586,51.616455185489194,-0.13301987853029287,Turnpike Lane,2708.1414481961206,51.590254789519385,-0.10294685906251815,Southgate,3908.553259387938,51.632261218475584,-0.12773657427020435,2284.860714359319,0.03241513650490356,1,1.0,0.5162075682524517
51.44546472614583,-0.011966620594408662,LEWISHAM - DLR,2925.6551576478473,51.4656534958191,-0.014057517109202628,ELVERSON ROAD - DLR,3382.9180069430063,51.46869622022829,-0.016358693464723607,DEPTFORD BRIDGE - DLR,4276.270964958768,51.474302836694164,-0.02243708367150416,GREENWICH - DLR,4724.975118350705,51.47812532354829,-0.013428987645855905,CUTTY SARK - DLR,5236.863945924759,51.48167337063602,-0.011056580657622243,3925.1074393580093,0.08035032781208232,1,1.0,0.5401751639060411
51.5821616084291,-0.12147811435648498,Turnpike Lane,2038.8752745634781,51.590254789519385,-0.10294685906251815,Highgate,2334.215372328957,51.57784658975153,-0.14644230428628777,Wood Green,2450.2893361481983,51.59747402372348,-0.10983386762894175,Manor House,2824.1519396160197,51.570753556351,-0.09603915207846561,Archway,2825.567391193902,51.564540856812656,-0.1350261547508563,2457.0134947745346,0.037446194538732394,2,0.8,0.41872309726936624
51.42773492671688,-0.027121434154307962,LEWISHAM - DLR,5609.108698046685,51.4656534958191,-0.014057517109202628,ELVERSON ROAD - DLR,6002.7913234377775,51.46869622022829,-0.016358693464723607,DEPTFORD BRIDGE - DLR,6747.5408203873485,51.474302836694164,-0.02243708367150416,GREENWICH - DLR,7391.310666591774,51.47812532354829,-0.013428987645855905,CUTTY SARK - DLR,7934.021979750359,51.48167337063602,-0.011056580657622243,6627.728907293534,0.15933276083384681,1,1.0,0.5796663804169234
51.47168340426612,0.03237051602982439,CUTTY SARK - DLR,4179.440296673234,51.48167337063602,-0.011056580657622243,WOOLWICH ARSENAL - DLR,4228.517505158424,51.489985357998016,0.0688912148850038,GREENWICH - DLR,4239.813949025401,51.47812532354829,-0.013428987645855905,LEWISHAM - DLR,4283.187563110627,51.4656534958191,-0.014057517109202628,ELVERSON ROAD - DLR,4422.344731361795,51.46869622022829,-0.016358693464723607,4269.086442676658,0.09040290043937732,1,1.0,0.5452014502196887
51.48260922816731,-0.08236454138105942,Kennington,2284.243986985028,51.48834108236874,-0.10594020447433074,Elephant & Castle,2557.2440656593117,51.49583866247047,-0.10116094487967293,Oval,2712.5582235988236,51.481838396899654,-0.11238107063105886,Bermondsey,2722.9370723822744,51.49770348003495,-0.06433321766482115,Borough,2862.5429569142657,51.501192691784105,-0.093287413867766,2612.2298891256964,0.041982297213919495,3,0.6,0.32099114860695976
51.54306652023788,0.06439441376391523,East Ham,1167.5373923066118,51.53940799877854,0.05285335494738618,Barking,1498.4845915843014,51.539886123317935,0.0802089530468054,Manor Park,2163.394083489622,51.5521985051404,0.04539047874751819,Ilford,2342.5568949774706,51.55901703762676,0.06892040799865062,Upton Park,2854.7932647667812,51.535381114708535,0.035237134317064586,1809.461430148831,0.018521887831632295,3,0.6,0.30926094391581616
51.43927757643288,-0.18490213274905812,Wimbledon Park,1485.9838687213019,51.43405489769917,-0.19906206857886732,Southfields,2135.227695484057,51.44507974989173,-0.20662949274631476,Tooting Broadway,2246.9782250230674,51.427675722454374,-0.16836472055651,Tooting Bec,2372.9828181089006,51.435899341737425,-0.1592083111530278,Balham,2980.34150975,51.44362772683046,-0.1526657783980393,2133.7670022933357,0.027999516657712296,2,0.8,0.41399975832885616
51.429386198171684,-0.12775060022595106,Tooting Bec,2995.3740197200714,51.435899341737425,-0.1592083111530278,Balham,3051.5872564469437,51.44362772683046,-0.1526657783980393,Tooting Broadway,3679.723586725898,51.427675722454374,-0.16836472055651,Clapham South,3870.5749803126196,51.45323750844449,-0.14718699803775498,Clapham Common,4822.398645807255,51.46221120939256,-0.13716717677773801,3573.901673378902,0.07008655753666464,1,1.0,0.5350432787683324
51.48864251081468,0.0907447118962356,Woolwich,1735.1830275376035,51.491668236437704,0.07214595050906773,WOOLWICH ARSENAL - DLR,1982.5109109578782,51.489985357998016,0.0688912148850038,Abbey Wood,2715.7261776140554,51.491074357645864,0.12057216047674105,KING GEORGE V - DLR,3214.09350081297,51.50202586586268,0.06231897937750261,GALLIONS REACH - DLR,3402.991041554986,51.508981284149876,0.07178457988924161,2434.3535065679994,0.036783970464058784,2,0.8,0.4183919852320294
51.58192966187099,-0.10705396859850325,Turnpike Lane,1259.5180267775818,51.590254789519385,-0.10294685906251815,Manor House,1896.6117891078438,51.570753556351,-0.09603915207846561,Wood Green,2261.83076895582,51.59747402372348,-0.10983386762894175,Finsbury Park,2510.315112068019,51.564572648553515,-0.10665342330316399,Seven Sisters,3121.7952640489034,51.58339989538407,-0.07248488928732598,2014.4921628797413,0.0245137835918967,2,0.8,0.4122568917959484
51.44712926639408,-0.1126338155756815,Brixton,2256.0402811001495,51.46266775315543,-0.11486935481082039,Clapham North,3084.0667981112488,51.46573033892738,-0.12933358122662442,Clapham Common,3109.5690023044167,51.46221120939256,-0.13716717677773801,Clapham South,3244.6155684796067,51.45323750844449,-0.14718699803775498,Balham,3652.766402154733,51.44362772683046,-0.1526657783980393,2992.1169122688643,0.05308425940774551,2,0.8,0.4265421297038728
51.525347698710995,0.049176818145967645,Upton Park,1919.975710672323,51.535381114708535,0.035237134317064586,BECKTON - DLR,1950.425315237322,51.514417517428555,0.06184131351015285,East Ham,2060.2221684670444,51.53940799877854,0.05285335494738618,BECKTON PARK - DLR,2452.9137657339047,51.50877403246807,0.05495716048801019,ROYAL ALBERT - DLR,2467.195422803709,51.508411071047796,0.045890633937065085,2144.1466104630886,0.028302854256701284,3,0.6,0.31415142712835065
51.437909937653465,-0.09862544288673775,Brixton,3869.3361088534966,51.46266775315543,-0.11486935481082039,Clapham North,4887.010067162095,51.46573033892738,-0.12933358122662442,Clapham South,4916.247251364701,51.45323750844449,-0.14718699803775498,Clapham Common,4947.391358425204,51.46221120939256,-0.13716717677773801,Balham,4953.360436111743,51.44362772683046,-0.1526657783980393,4670.786988970647,0.10214234929260758,2,0.8,0.4510711746463038
51.55655399483296,-0.20908846571040907,Kilburn,1443.5664145415953,51.54695520739804,-0.20469009526410165,Willesden Green,1606.8064686318053,51.54937464364035,-0.22269210604112535,West Hampstead,2214.614295579743,51.546804104148165,-0.19014461999570487,Golders Green,2650.9252589729326,51.572288875812,-0.19399749568271848,Hampstead,2757.5349903018464,51.55659225238286,-0.17849793364354744,1994.8161377813274,0.023938763984856743,2,0.8,0.4119693819924284
51.53581255553945,-0.03686958268252648,Mile End,1555.319066829807,51.52523624361827,-0.033740882967349194,Bow Road,1665.0083336324535,51.52690410757654,-0.025175873417555176,BOW CHURCH - DLR,1869.715124303855,51.52766649951704,-0.020772671454633313,Bethnal Green,2028.0636925602355,51.52723886838864,-0.05466345424549399,PUDDING MILL LANE - DLR,2080.92200372044,51.534196770231574,-0.013942896998014478,1816.8402000950775,0.018737527798226513,4,0.4,0.20936876389911327
51.385130965851275,-0.1726731251733246,Morden,3212.037816225495,51.40253724508803,-0.19473027219670863,South Wimbledon,4702.815004204543,51.41498850026229,-0.19328192113707632,Colliers Wood,4800.605797735895,51.418159079977876,-0.17803308894654438,Wimbledon,6075.7289219987,51.42143425544057,-0.20649073062441967,Tooting Broadway,6164.530832187147,51.427675722454374,-0.16836472055651,4721.069163794698,0.10361181460706131,2,0.8,0.45180590730353065
51.43837309723433,-0.1273832302497128,Balham,2407.90328811986,51.44362772683046,-0.1526657783980393,Clapham South,2796.9194181192142,51.45323750844449,-0.14718699803775498,Tooting Bec,2898.531592588895,51.435899341737425,-0.1592083111530278,Clapham Common,3558.7083286386014,51.46221120939256,-0.13716717677773801,Brixton,3690.6730586953036,51.46266775315543,-0.11486935481082039,2994.385485859393,0.053150557061262545,2,0.8,0.4265752785306313
51.38375619023311,-0.08649983682409676,Colliers Wood,9659.219275311723,51.418159079977876,-0.17803308894654438,Tooting Broadway,9754.977138685796,51.427675722454374,-0.16836472055651,Tooting Bec,10004.69862592459,51.435899341737425,-0.1592083111530278,Morden,10161.116389657174,51.40253724508803,-0.19473027219670863,Balham,10524.247694028385,51.44362772683046,-0.1526657783980393,10011.495284427689,0.25822123057113855,1,1.0,0.6291106152855692
51.42961493670345,-0.14212704737187518,Tooting Bec,1791.5512924461495,51.435899341737425,-0.1592083111530278,Balham,2239.0386555752775,51.44362772683046,-0.1526657783980393,Tooting Broadway,2388.3067730420626,51.427675722454374,-0.16836472055651,Clapham South,3446.4454552006005,51.45323750844449,-0.14718699803775498,Colliers Wood,3644.350526836188,51.418159079977876,-0.17803308894654438,2515.0225555150655,0.039141473292695045,1,1.0,0.5195707366463476
51.61764120918628,-0.09112383339619898,Bounds Green,3357.1611265246506,51.60706647717479,-0.12431690931299394,Wood Green,3368.1675440520917,51.59747402372348,-0.10983386762894175,Arnos Grove,3775.7079713736543,51.616455185489194,-0.13301987853029287,Southgate,3915.520464669287,51.632261218475584,-0.12773657427020435,Turnpike Lane,4101.132143591756,51.590254789519385,-0.10294685906251815,3679.587271558385,0.07317515347161532,1,1.0,0.5365875767358077
51.457473925694536,-0.19857527578778103,East Putney,1151.7999254993865,51.45914982307664,-0.2110399264406896,Putney Bridge,1807.7192591489602,51.468255977268214,-0.2087033152868412,Southfields,1934.3438028076591,51.44507974989173,-0.20662949274631476,Parsons Green,2548.4215965439207,51.47498606823488,-0.2017397326871696,Fulham Broadway,3386.277311097604,51.48076858389101,-0.19474266104252827,1903.9857624563726,0.021284302706960866,1,1.0,0.5106421513534805
51.392976565104235,-0.10048927247885774,Colliers Wood,7902.458376556299,51.418159079977876,-0.17803308894654438,Tooting Broadway,7928.252880863795,51.427675722454374,-0.16836472055651,Tooting Bec,8168.268175459133,51.435899341737425,-0.1592083111530278,Morden,8636.313640484412,51.40253724508803,-0.19473027219670863,Balham,8712.445827889045,51.44362772683046,-0.1526657783980393,8255.35406505992,0.20689909468156176,1,1.0,0.6034495473407808
51.612047872663936,0.2264046678846168,Harold Wood,2792.189452231559,51.59344147206972,0.23467882167608276,Gidea Park,4701.377858511674,51.58206113794098,0.2062522935798357,Romford,6705.708783479041,51.57469146078035,0.1823104268842422,Brentwood,6707.93088386902,51.61355628456177,0.3008636165143831,Upminster Bridge,7791.285541257236,51.558497591864246,0.235853642203452,5013.044213275933,0.1121446039981312,2,0.8,0.4560723019990656
51.48213468742346,-0.05357958367120713,Canada Water,2306.262190385732,51.497921984959426,-0.04996098075543696,Bermondsey,2451.8061426745066,51.49770348003495,-0.06433321766482115,DEPTFORD BRIDGE - DLR,3031.7230594121465,51.474302836694164,-0.02243708367150416,GREENWICH - DLR,3671.6068940276064,51.47812532354829,-0.013428987645855905,MUDCHUTE - DLR,3705.4766002566116,51.49088632239823,-0.015005815070749464,2917.93393588107,0.05091630801928126,2,0.8,0.42545815400964065
51.51661276122458,0.03437143638736605,PRINCE REGENT - DLR,1047.5447482147451,51.509369678637576,0.03421726118998984,Custom House,1110.9518078511535,51.50982669208105,0.028600872419654706,CUSTOM HOUSE - DLR,1219.3108768046818,51.5097363194669,0.026552314998290878,ROYAL ALBERT - DLR,1577.105372047056,51.508411071047796,0.045890633937065085,ROYAL VICTORIA - DLR,1840.642501988196,51.509231665082474,0.01775358236130825,1297.9464014849486,0.003573178968628897,2,0.8,0.40178658948431445
51.4641616179737,-0.05434457648987815,DEPTFORD BRIDGE - DLR,3233.5835685108095,51.474302836694164,-0.02243708367150416,ELVERSON ROAD - DLR,3493.2254345362844,51.46869622022829,-0.016358693464723607,LEWISHAM - DLR,3645.4921585799793,51.4656534958191,-0.014057517109202628,GREENWICH - DLR,4211.090811397427,51.47812532354829,-0.013428987645855905,CUTTY SARK - DLR,4658.00395437109,51.48167337063602,-0.011056580657622243,3782.1866554541343,0.07617355671186282,1,1.0,0.5380867783559314
51.4482648657167,-0.1845458045662406,Southfields,2047.9329448948258,51.44507974989173,-0.20662949274631476,Wimbledon Park,2437.860425315207,51.43405489769917,-0.19906206857886732,East Putney,2864.79378449999,51.45914982307664,-0.2110399264406896,Tooting Bec,2905.213818337613,51.435899341737425,-0.1592083111530278,Balham,2957.7438996579326,51.44362772683046,-0.1526657783980393,2590.858109744778,0.04135772024169603,2,0.8,0.42067886012084804
51.45588354427002,-0.09787875028810313,Brixton,1821.6387879360193,51.46266775315543,-0.11486935481082039,Clapham North,3178.2782110724706,51.46573033892738,-0.12933358122662442,Stockwell,3236.21424518438,51.47182927610112,-0.123016885349951,Clapham Common,3665.301323474361,51.46221120939256,-0.13716717677773801,Oval,3975.2758888154085,51.481838396899654,-0.11238107063105886,2946.4128048447283,0.051748585268294595,2,0.8,0.42587429263414733
51.411640759075325,-0.14285565471333095,Tooting Broadway,3270.484191021939,51.427675722454374,-0.16836472055651,Colliers Wood,3317.5886321251596,51.418159079977876,-0.17803308894654438,Tooting Bec,3806.7330196676817,51.435899341737425,-0.1592083111530278,South Wimbledon,4585.489331851327,51.41498850026229,-0.19328192113707632,Balham,4709.741731636656,51.44362772683046,-0.1526657783980393,3845.306647798434,0.07801819926607007,1,1.0,0.539009099633035
51.520823925539716,-0.22490547425454097,Latimer Road,1241.5399983347427,51.513460099025096,-0.21783010222149793,White City,1245.3757034986058,51.51221664617867,-0.22443847145144272,Ladbroke Grove,1363.0938315899677,51.517322062930354,-0.21087783236229768,Kensal Green,1410.4417042470257,51.5305735728437,-0.22445465030672695,Wood Lane,1549.3917183667056,51.510141982020784,-0.2235661927939285,1352.645732416365,0.005171732925549139,4,0.4,0.20258586646277457
51.60013458476637,-0.12073692861383675,Bounds Green,1053.009947682973,51.60706647717479,-0.12431690931299394,Wood Green,1054.644310313777,51.59747402372348,-0.10983386762894175,Turnpike Lane,2146.8058476880237,51.590254789519385,-0.10294685906251815,Arnos Grove,2606.4805016633,51.616455185489194,-0.13301987853029287,Highgate,3968.7190249326977,51.57784658975153,-0.14644230428628777,1667.0648093735656,0.014360435073137334,2,0.8,0.4071802175365687
51.36737958794997,-0.18774603406270196,Morden,5123.122410394641,51.40253724508803,-0.19473027219670863,South Wimbledon,6902.712104730362,51.41498850026229,-0.19328192113707632,Colliers Wood,7395.390643115209,51.418159079977876,-0.17803308894654438,Wimbledon,7998.414387654074,51.42143425544057,-0.20649073062441967,Tooting Broadway,8893.65737759302,51.427675722454374,-0.16836472055651,7015.103309141477,0.1706535370177468,2,0.8,0.4853267685088734
51.40196318808742,-0.10011666427725503,Tooting Broadway,7204.94031496084,51.427675722454374,-0.16836472055651,Tooting Bec,7254.641608063535,51.435899341737425,-0.1592083111530278,Colliers Wood,7425.3819166712865,51.418159079977876,-0.17803308894654438,Balham,7672.843395061214,51.44362772683046,-0.1526657783980393,Clapham South,8548.909686250021,51.45323750844449,-0.14718699803775498,7591.7069560297805,0.18750442030302197,1,1.0,0.593752210151511
51.45702855311891,-0.16980354883708335,Clapham South,2115.5330605412423,51.45323750844449,-0.14718699803775498,Balham,2480.514688474925,51.44362772683046,-0.1526657783980393,Clapham Common,3041.996561325378,51.46221120939256,-0.13716717677773801,Tooting Bec,3201.8895499431264,51.435899341737425,-0.1592083111530278,East Putney,3737.784653705892,51.45914982307664,-0.2110399264406896,2802.0286408557326,0.04752904779441541,2,0.8,0.42376452389720776
51.4636803276482,-0.025571886006557045,LEWISHAM - DLR,1078.524198785655,51.4656534958191,-0.014057517109202628,ELVERSON ROAD - DLR,1103.9449141999594,51.46869622022829,-0.016358693464723607,DEPTFORD BRIDGE - DLR,1562.0086912814306,51.474302836694164,-0.02243708367150416,GREENWICH - DLR,2359.2999162738934,51.47812532354829,-0.013428987645855905,CUTTY SARK - DLR,2913.570321792576,51.48167337063602,-0.011056580657622243,1543.0610099862777,0.010736501090613205,1,1.0,0.5053682505453067
51.55102312373258,0.12245245973784909,Becontree,1606.5684192031445,51.540345614496864,0.12736893625437312,Goodmayes,2339.03022777206,51.5657880265678,0.11186181352036285,Chadwell Heath,2514.104388717288,51.568020571271155,0.1283016945365458,Upney,2626.523772051908,51.53835560347559,0.10158060702967472,Dagenham Heathway,2640.073131429981,51.5416184486541,0.1475466339518699,2265.275518452268,0.03184277132454095,2,0.8,0.4159213856622705
51.42915555811377,-0.11337444852263064,Balham,4122.023224858145,51.44362772683046,-0.1526657783980393,Tooting Bec,4256.157304725452,51.435899341737425,-0.1592083111530278,Clapham South,4633.002814675426,51.45323750844449,-0.14718699803775498,Brixton,4848.000804405914,51.46266775315543,-0.11486935481082039,Tooting Broadway,4975.612736865082,51.427675722454374,-0.16836472055651,4542.784073121427,0.09840154361648959,2,0.8,0.4492007718082448
51.598472648630384,-0.019730316845524856,Walthamstow Central,2225.759875126199,51.583121461554015,-0.02149009721696701,Blackhorse Road,2601.818427505846,51.58684229409946,-0.041768161396529516,Tottenham Hale,3939.511075771073,51.58805045886335,-0.060139591063478465,South Woodford,4349.465034472436,51.59189362934642,0.027388706541122812,Snaresbrook,4512.593997938225,51.58067843566125,0.021420000139433203,3248.893911575603,0.06058840765413914,2,0.8,0.4302942038270696
51.5507616722932,0.13686491087429223,Dagenham Heathway,1635.9076501588754,51.5416184486541,0.1475466339518699,Becontree,1732.7323325115474,51.540345614496864,0.12736893625437312,Chadwell Heath,2612.6557109419105,51.568020571271155,0.1283016945365458,Dagenham East,2795.4097523943838,51.54416174314231,0.16600377979561015,Goodmayes,3130.9531342677733,51.5657880265678,0.11186181352036285,2223.9244560568036,0.030634312221119626,2,0.8,0.41531715611055986
51.46623935232899,-0.18383268050227242,Parsons Green,2053.1000709914783,51.47498606823488,-0.2017397326871696,Putney Bridge,2265.1419473560168,51.468255977268214,-0.2087033152868412,Fulham Broadway,2320.5592600558434,51.48076858389101,-0.19474266104252827,East Putney,2662.8243949135644,51.45914982307664,-0.2110399264406896,West Brompton,3221.350752940606,51.48728046887337,-0.1955480708404167,2444.459147941637,0.0370793015536712,1,1.0,0.5185396507768356
51.66209897676391,-0.060335528793933516,Oakwood,6726.073189388654,51.64733639621023,-0.13124277946983365,Southgate,7442.4317468445,51.632261218475584,-0.12773657427020435,Cockfosters,8132.387238549975,51.65153150516335,-0.14913729316227967,Arnos Grove,9292.24517478461,51.616455185489194,-0.13301987853029287,Bounds Green,9822.94676971367,51.60706647717479,-0.12431690931299394,8124.479626135551,0.20307437052790472,1,1.0,0.6015371852639524
51.5567731573455,-0.22350563308802113,Willesden Green,1072.3725160081094,51.54937464364035,-0.22269210604112535,Dollis Hill,1561.6318928826702,51.551964185681975,-0.23901638523553653,Kilburn,2212.0028337788726,51.54695520739804,-0.20469009526410165,Neasden,2514.6559989848583,51.55442856977583,-0.25114679891952135,Brent Cross,3008.555357063001,51.576671975889624,-0.2137597702763802,1814.8815806700918,0.018680288362595436,2,0.8,0.4093401441812977
51.43814239611074,-0.11300424593380899,Brixton,3550.5513339088625,51.46266775315543,-0.11486935481082039,Balham,3671.088248392635,51.44362772683046,-0.1526657783980393,Clapham South,3782.343537279213,51.45323750844449,-0.14718699803775498,Clapham Common,4108.593811861286,51.46221120939256,-0.13716717677773801,Tooting Bec,4188.567162859596,51.435899341737425,-0.1592083111530278,3844.471318203449,0.07799378727772106,2,0.8,0.4389968936388606
51.5515412322254,0.09362714192841665,Seven Kings,1808.1456274110092,51.56394849951275,0.096099334795915,Upney,2037.310664589578,51.53835560347559,0.10158060702967472,Barking,2074.878563562015,51.539886123317935,0.0802089530468054,Ilford,2475.8965956875827,51.55901703762676,0.06892040799865062,Goodmayes,2635.8019958519194,51.5657880265678,0.11186181352036285,2165.3109867795556,0.0289213700032441,3,0.6,0.31446068500162205
51.39320841919721,-0.1148538839213161,Colliers Wood,6757.938410689214,51.418159079977876,-0.17803308894654438,Tooting Broadway,6947.002037598264,51.427675722454374,-0.16836472055651,Morden,7350.333103898926,51.40253724508803,-0.19473027219670863,Tooting Bec,7361.928789501597,51.435899341737425,-0.1592083111530278,South Wimbledon,7761.303207270325,51.41498850026229,-0.19328192113707632,7218.677258109471,0.17660285917776905,1,1.0,0.5883014295888845
51.55886604138723,-0.3676892326685176,Northolt,1535.9788099026034,51.54826023603043,-0.3686291206057346,South Harrow,1630.0915951722748,51.56455092187521,-0.35207122891969983,Rayners Lane,2385.3558274169013,51.57519704851259,-0.37142479120741934,Sudbury Hill,2815.5455523689125,51.55696668797242,-0.3366020054180998,South Ruislip,2823.260822560076,51.55686140180025,-0.3988455279896942,2089.3322515570553,0.026700938678699958,3,0.6,0.31335046933934996
51.436962428382564,-0.041112253175114515,LEWISHAM - DLR,4815.659686601587,51.4656534958191,-0.014057517109202628,ELVERSON ROAD - DLR,5105.072588063025,51.46869622022829,-0.016358693464723607,DEPTFORD BRIDGE - DLR,5657.300054040291,51.474302836694164,-0.02243708367150416,GREENWICH - DLR,6456.676692751954,51.47812532354829,-0.013428987645855905,CUTTY SARK - DLR,7012.688927638012,51.48167337063602,-0.011056580657622243,5696.192479345305,0.13210918757334242,1,1.0,0.5660545937866712
51.40172929218829,-0.08574946644628771,Tooting Bec,8278.43187723416,51.435899341737425,-0.1592083111530278,Tooting Broadway,8359.875679380999,51.427675722454374,-0.16836472055651,Balham,8562.208619725225,51.44362772683046,-0.1526657783980393,Colliers Wood,8677.292978745423,51.418159079977876,-0.17803308894654438,Brixton,9196.950427774986,51.46266775315543,-0.11486935481082039,8603.155069258115,0.217063362909613,2,0.8,0.5085316814548065
51.5250952133044,0.06358168988973827,BECKTON - DLR,1552.1367957972452,51.514417517428555,0.06184131351015285,East Ham,2284.9000818399654,51.53940799877854,0.05285335494738618,CYPRUS - DLR,2400.3760004161013,51.508498741918984,0.06396610683495485,GALLIONS REACH - DLR,2445.0600550237746,51.508981284149876,0.07178457988924161,BECKTON PARK - DLR,2485.279285045444,51.50877403246807,0.05495716048801019,2164.607506378809,0.028900811225667105,3,0.6,0.31445040561283355
51.45420625299663,0.0028067701905214975,LEWISHAM - DLR,2249.7860567712796,51.4656534958191,-0.014057517109202628,ELVERSON ROAD - DLR,2718.173492525164,51.46869622022829,-0.016358693464723607,DEPTFORD BRIDGE - DLR,3694.0544935770245,51.474302836694164,-0.02243708367150416,GREENWICH - DLR,3757.0734204701253,51.47812532354829,-0.013428987645855905,CUTTY SARK - DLR,4164.821291472171,51.48167337063602,-0.011056580657622243,3145.92624384124,0.057579241547555615,1,1.0,0.5287896207737778
51.59114810356267,-0.12110760615789368,Wood Green,1366.7831671705333,51.59747402372348,-0.10983386762894175,Turnpike Lane,1641.0039203021433,51.590254789519385,-0.10294685906251815,Bounds Green,2320.0889579289387,51.60706647717479,-0.12431690931299394,Highgate,2984.9030221498306,51.57784658975153,-0.14644230428628777,Manor House,3714.7735520831725,51.570753556351,-0.09603915207846561,2104.1462836933097,0.027133869562608666,2,0.8,0.41356693478130435
51.41186732126477,-0.15722686314817644,Colliers Wood,2089.8032207504493,51.418159079977876,-0.17803308894654438,Tooting Broadway,2497.941234532914,51.427675722454374,-0.16836472055651,South Wimbledon,3291.4023157272377,51.41498850026229,-0.19328192113707632,Tooting Bec,3479.74234656614,51.435899341737425,-0.1592083111530278,Morden,3650.223856841516,51.40253724508803,-0.19473027219670863,2866.9742942818334,0.04942704415929299,1,1.0,0.5247135220796465
51.61787526982209,-0.10555917936377472,Bounds Green,2301.2382681728263,51.60706647717479,-0.12431690931299394,Arnos Grove,2480.7382341849443,51.616455185489194,-0.13301987853029287,Southgate,2883.275434066663,51.632261218475584,-0.12773657427020435,Wood Green,2975.3305712580027,51.59747402372348,-0.10983386762894175,Turnpike Lane,4001.2387562678678,51.590254789519385,-0.10294685906251815,2824.0578849447606,0.04817283876419219,1,1.0,0.5240864193820961
51.56597788268997,-0.2375751828439378,Dollis Hill,2030.6064437841508,51.551964185681975,-0.23901638523553653,Neasden,2070.126253129916,51.55442856977583,-0.25114679891952135,Brent Cross,2645.2276981746727,51.576671975889624,-0.2137597702763802,Hendon Central,2685.542591060724,51.58317462862065,-0.22632123704930582,Willesden Green,2750.3327303718042,51.54937464364035,-0.22269210604112535,2392.891846334949,0.035572279207558274,2,0.8,0.41778613960377914
51.616444285200856,-0.018948250457963264,Blackhorse Road,4748.743107828313,51.58684229409946,-0.041768161396529516,Walthamstow Central,4824.5865912187855,51.583121461554015,-0.02149009721696701,Woodford,4968.047451231497,51.6068623985304,0.03403805532136056,South Woodford,5478.9156518906575,51.59189362934642,0.027388706541122812,Tottenham Hale,5533.7169976933155,51.58805045886335,-0.060139591063478465,5089.741124412577,0.11438602356749974,2,0.8,0.4571930117837499
51.47965696185598,0.0903335914939069,Woolwich,2390.3983320434572,51.491668236437704,0.07214595050906773,WOOLWICH ARSENAL - DLR,2445.275920391943,51.489985357998016,0.0688912148850038,Abbey Wood,3190.6893033570695,51.491074357645864,0.12057216047674105,KING GEORGE V - DLR,4106.259047205179,51.50202586586268,0.06231897937750261,GALLIONS REACH - DLR,4559.409969029953,51.508981284149876,0.07178457988924161,3118.0597546611743,0.05676486071719185,2,0.8,0.42838243035859597
51.471433016254906,0.046759093442231704,WOOLWICH ARSENAL - DLR,3345.499963231462,51.489985357998016,0.0688912148850038,Woolwich,3717.3133893941144,51.491668236437704,0.07214595050906773,PONTOON DOCK - DLR,4624.941329084498,51.50228212418493,0.033252979941393666,KING GEORGE V - DLR,4641.916630002275,51.50202586586268,0.06231897937750261,LONDON CITY AIRPORT - DLR,4663.446435567228,51.50366796473086,0.048170955147335826,4118.611496547024,0.08600536364218166,2,0.8,0.44300268182109087
51.56000831989883,0.12287063421724391,Chadwell Heath,1257.8999151707947,51.568020571271155,0.1283016945365458,Goodmayes,1297.4427993751078,51.5657880265678,0.11186181352036285,Seven Kings,2479.5197999283496,51.56394849951275,0.096099334795915,Becontree,2872.421986895722,51.540345614496864,0.12736893625437312,Dagenham Heathway,3467.4513854587776,51.5416184486541,0.1475466339518699,1918.9724535421262,0.021722279441380353,2,0.8,0.4108611397206902
51.594351302655774,0.21110081573489534,Gidea Park,1830.341466372416,51.58206113794098,0.2062522935798357,Harold Wood,2128.0162913291774,51.59344147206972,0.23467882167608276,Romford,3848.823196750951,51.57469146078035,0.1823104268842422,Upminster Bridge,5644.6591791195215,51.558497591864246,0.235853642203452,Hornchurch,5873.199795374612,51.554050484644705,0.2191338382742129,3079.7458545217164,0.055645160793443775,2,0.8,0.4278225803967219
51.4386019750259,-0.1417624712711355,Balham,1224.3804810552517,51.44362772683046,-0.1526657783980393,Tooting Bec,1624.4617289080506,51.435899341737425,-0.1592083111530278,Clapham South,2172.416587329189,51.45323750844449,-0.14718699803775498,Tooting Broadway,2877.1479700169034,51.427675722454374,-0.16836472055651,Clapham Common,3439.224741969101,51.46221120939256,-0.13716717677773801,1975.523587366733,0.023374951187164546,1,1.0,0.5116874755935823
51.46858330045748,-0.34211749946097353,Hounslow East,1449.62175355208,51.47326277254156,-0.3563132084539763,Osterley,2044.562000570512,51.481243488531945,-0.35219948980178173,Hounslow Central,2217.0933204571543,51.47131964602911,-0.36627277395717445,Richmond,3739.756388193324,51.46311840473405,-0.3016467054337033,Hounslow West,4009.1727950359996,51.47361871639353,-0.385772979713366,2329.044036466744,0.03370636663847252,2,0.8,0.41685318331923626
51.402195233972215,-0.11448404572057154,Tooting Broadway,6108.58482052876,51.427675722454374,-0.16836472055651,Colliers Wood,6193.317348390754,51.418159079977876,-0.17803308894654438,Tooting Bec,6333.025767900418,51.435899341737425,-0.1592083111530278,Balham,6914.740420476818,51.44362772683046,-0.1526657783980393,Morden,7258.342807382968,51.40253724508803,-0.19473027219670863,6532.003892667929,0.15653525676386337,1,1.0,0.5782676283819317
51.55378499899125,-0.036095880754489204,STRATFORD INTERNATIONAL - DLR,2729.8720481875393,51.54484877107612,-0.009426193778977777,Leyton,2791.815557427235,51.55660540139774,-0.005459613057395526,Stratford,3396.556751619656,51.54143892219933,-0.004050193323242832,Stratford,3416.0830954051803,51.541458210643015,-0.003776950428858115,PUDDING MILL LANE - DLR,3466.26618712351,51.534196770231574,-0.013942896998014478,3124.705131730749,0.056959067732687434,3,0.6,0.3284795338663437
51.420399301927404,-0.12811776447239961,Tooting Bec,3594.863786403577,51.435899341737425,-0.1592083111530278,Tooting Broadway,3787.66345858357,51.427675722454374,-0.16836472055651,Balham,4025.713765593708,51.44362772683046,-0.1526657783980393,Colliers Wood,4524.705446520817,51.418159079977876,-0.17803308894654438,Clapham South,5051.7267468668715,51.45323750844449,-0.14718699803775498,4133.755777099302,0.08644794583083598,1,1.0,0.543223972915418
51.59489172705669,0.1822510705908154,Gidea Park,2849.348474024367,51.58206113794098,0.2062522935798357,Romford,2921.400227759196,51.57469146078035,0.1823104268842422,Harold Wood,4727.437513396074,51.59344147206972,0.23467882167608276,Chadwell Heath,6223.31691460989,51.568020571271155,0.1283016945365458,Elm Park,6698.5335750474605,51.54972145979434,0.19869376414095105,4116.0307672189065,0.08592994343120365,2,0.8,0.44296497171560184
51.50433041305936,-0.3264112710793983,Boston Manor,1319.5457633681904,51.495220105268935,-0.3255735048107276,Northfields,1388.503801411148,51.49965529858576,-0.31297296041616224,West Ealing,1404.872171587764,51.51347124137933,-0.3211365656440236,Hanwell,1520.0262153005583,51.511782580692746,-0.3382911620071243,South Ealing,1778.7874576373063,51.500900326006715,-0.3074832071773945,1466.3148486830928,0.008493642215731012,2,0.8,0.40424682110786553
51.49986760506431,-0.038415460560421805,Canada Water,1079.4152888427654,51.497921984959426,-0.04996098075543696,HERON QUAYS - DLR,1613.3625063846468,51.50333329307983,-0.021424319605413522,WESTFERRY - DLR,1738.8631646835217,51.50950472196647,-0.02689269973073619,CANARY WHARF - DLR,1751.719371261024,51.50512355965997,-0.02092884206284268,SOUTH QUAY - DLR,1755.1480326602587,51.5006124753315,-0.01900629922288873,1532.8209542863217,0.01043724182583769,2,0.8,0.4052186209129189
51.4279759680387,-0.041496502840161195,LEWISHAM - DLR,5986.25924112412,51.4656534958191,-0.014057517109202628,ELVERSON ROAD - DLR,6311.5345562058255,51.46869622022829,-0.016358693464723607,DEPTFORD BRIDGE - DLR,6917.181716149445,51.474302836694164,-0.02243708367150416,GREENWICH - DLR,7682.770869517805,51.47812532354829,-0.013428987645855905,CUTTY SARK - DLR,8237.88560157269,51.48167337063602,-0.011056580657622243,6928.964014014258,0.16813616964364517,1,1.0,0.5840680848218226
51.436233939397255,0.002020818211068417,LEWISHAM - DLR,4495.662383988471,51.4656534958191,-0.014057517109202628,ELVERSON ROAD - DLR,4979.545339189196,51.46869622022829,-0.016358693464723607,DEPTFORD BRIDGE - DLR,5932.179750065999,51.474302836694164,-0.02243708367150416,GREENWICH - DLR,6216.766790251543,51.47812532354829,-0.013428987645855905,CUTTY SARK - DLR,6676.499289857357,51.48167337063602,-0.011056580657622243,5540.382971964493,0.12755575153841756,1,1.0,0.5637778757692088
51.446896748118554,-0.09825219325222986,Brixton,2730.396472767292,51.46266775315543,-0.11486935481082039,Clapham North,3911.797526939139,51.46573033892738,-0.12933358122662442,Clapham Common,4155.184414998538,51.46221120939256,-0.13716717677773801,Stockwell,4243.121903448396,51.47182927610112,-0.123016885349951,Clapham South,4515.627817897792,51.45323750844449,-0.14718699803775498,3788.8087300815737,0.07636708272796687,2,0.8,0.43818354136398346
51.36601617512738,-0.10160503753473735,Morden,9944.721342660598,51.40253724508803,-0.19473027219670863,Colliers Wood,10230.664873191245,51.418159079977876,-0.17803308894654438,Tooting Broadway,10769.181962678544,51.427675722454374,-0.16836472055651,South Wimbledon,10906.316227400865,51.41498850026229,-0.19328192113707632,Tooting Bec,11369.826091922656,51.435899341737425,-0.1592083111530278,10620.201469518977,0.276010290587239,1,1.0,0.6380051452936195
51.63561385335183,-0.09036826066005647,Southgate,3397.687125631497,51.632261218475584,-0.12773657427020435,Oakwood,4049.7324405773206,51.64733639621023,-0.13124277946983365,Arnos Grove,4734.383145409915,51.616455185489194,-0.13301987853029287,Bounds Green,5136.396128014567,51.60706647717479,-0.12431690931299394,Cockfosters,5766.9977209100225,51.65153150516335,-0.14913729316227967,4462.062670965103,0.09604251079784445,1,1.0,0.5480212553989222
51.53279113447295,0.13602363120150604,Becontree,1342.7097101354782,51.540345614496864,0.12736893625437312,Dagenham Heathway,1646.125115965034,51.5416184486541,0.1475466339518699,Dagenham East,3164.589567914359,51.54416174314231,0.16600377979561015,Upney,3208.9994872654734,51.53835560347559,0.10158060702967472,Barking,5137.435266623054,51.539886123317935,0.0802089530468054,2299.358163080118,0.032838815435216974,2,0.8,0.4164194077176085
51.48487455244063,-0.22630250440810848,Hammersmith (Dist&Picc Line),1072.2388112469928,51.49200046267627,-0.2230186338960408,Hammersmith (H&C Line),1294.6426957832844,51.49378497307084,-0.22490610415709966,Barons Court,1311.4786186876534,51.49029929831061,-0.2146606707385376,Ravenscourt Park,1591.8683381572357,51.494168694143745,-0.23575227913466715,West Kensington,2069.2126933041454,51.49079150477593,-0.20543346956943115,1397.0350253191411,0.0064689824276243,3,0.6,0.30323449121381213
51.44642637604302,-0.06948956605555,Brixton,4725.014200570156,51.46266775315543,-0.11486935481082039,LEWISHAM - DLR,5728.198265010916,51.4656534958191,-0.014057517109202628,ELVERSON ROAD - DLR,5780.3108365816315,51.46869622022829,-0.016358693464723607,DEPTFORD BRIDGE - DLR,5858.231512287009,51.474302836694164,-0.02243708367150416,Stockwell,6072.644407225571,51.47182927610112,-0.123016885349951,5589.161938567395,0.12898128652668492,3,0.6,0.36449064326334246
51.44522011001963,0.0024137050517059537,LEWISHAM - DLR,3308.513077805462,51.4656534958191,-0.014057517109202628,ELVERSON ROAD - DLR,3795.019032921394,51.46869622022829,-0.016358693464723607,DEPTFORD BRIDGE - DLR,4767.430921815536,51.474302836694164,-0.02243708367150416,GREENWICH - DLR,4969.093982363828,51.47812532354829,-0.013428987645855905,CUTTY SARK - DLR,5410.239327299312,51.48167337063602,-0.011056580657622243,4304.448156063877,0.09143632453974691,1,1.0,0.5457181622698735
51.58416807942873,-0.25130548682479037,Colindale,1636.0431829962863,51.59544842589615,-0.2499130800880574,Hendon Central,2255.3814383130366,51.58317462862065,-0.22632123704930582,Kingsbury,2461.6564999807642,51.58464322697491,-0.2786209852413163,Burnt Oak,2930.7658665707977,51.602836824142564,-0.2639696317085301,Queensbury,3461.6364189391415,51.59419954633909,-0.28619819535279867,2391.276128834425,0.03552506086759418,2,0.8,0.41776253043379713
51.43647847355187,-0.012356683838255314,LEWISHAM - DLR,4221.869205252476,51.4656534958191,-0.014057517109202628,ELVERSON ROAD - DLR,4673.097106469263,51.46869622022829,-0.016358693464723607,DEPTFORD BRIDGE - DLR,5545.164772893903,51.474302836694164,-0.02243708367150416,GREENWICH - DLR,6023.427943274916,51.47812532354829,-0.013428987645855905,CUTTY SARK - DLR,6536.7956352417905,51.48167337063602,-0.011056580657622243,5262.113105949735,0.11942348761790823,1,1.0,0.5597117438089542
51.45445096013062,-0.011576350121277945,LEWISHAM - DLR,1635.462202772838,51.4656534958191,-0.014057517109202628,ELVERSON ROAD - DLR,2104.8591204459362,51.46869622022829,-0.016358693464723607,DEPTFORD BRIDGE - DLR,3033.831632272517,51.474302836694164,-0.02243708367150416,GREENWICH - DLR,3427.6953701089174,51.47812532354829,-0.013428987645855905,CUTTY SARK - DLR,3936.9773684089855,51.48167337063602,-0.011056580657622243,2548.55184519103,0.04012134594875078,1,1.0,0.5200606729743754
51.59822819913655,-0.005301736547744736,Walthamstow Central,2626.7699115605637,51.583121461554015,-0.02149009721696701,South Woodford,3083.7404275736603,51.59189362934642,0.027388706541122812,Snaresbrook,3498.001556716074,51.58067843566125,0.021420000139433203,Blackhorse Road,3674.3617759094554,51.58684229409946,-0.041768161396529516,Woodford,3756.482962265942,51.6068623985304,0.03403805532136056,3269.646543157338,0.06119489041666297,2,0.8,0.4305974452083315
51.42724773696235,0.001628128227025329,LEWISHAM - DLR,5731.989336660782,51.4656534958191,-0.014057517109202628,ELVERSON ROAD - DLR,6210.440733943808,51.46869622022829,-0.016358693464723607,DEPTFORD BRIDGE - DLR,7143.746606640052,51.474302836694164,-0.02243708367150416,GREENWICH - DLR,7482.277971524401,51.47812532354829,-0.013428987645855905,CUTTY SARK - DLR,7953.652994457789,51.48167337063602,-0.011056580657622243,6804.213688031628,0.1644904188852554,1,1.0,0.5822452094426277
51.405051530603544,-0.30128279090882026,Richmond,8396.78210900646,51.46311840473405,-0.3016467054337033,Wimbledon,8892.874435473283,51.42143425544057,-0.20649073062441967,Morden,9643.797231814162,51.40253724508803,-0.19473027219670863,South Wimbledon,9871.7613140338,51.41498850026229,-0.19328192113707632,Wimbledon Park,10149.110389034915,51.43405489769917,-0.19906206857886732,9344.6369563769,0.2387327103121358,2,0.8,0.5193663551560679
51.60865484547255,-0.09150076711993893,Wood Green,2310.9249684033834,51.59747402372348,-0.10983386762894175,Turnpike Lane,2853.6649028892316,51.590254789519385,-0.10294685906251815,Bounds Green,2963.868022067369,51.60706647717479,-0.12431690931299394,Arnos Grove,3904.7105070509397,51.616455185489194,-0.13301987853029287,Seven Sisters,4033.859134481814,51.58339989538407,-0.07248488928732598,3077.769382560796,0.05558739962854338,2,0.8,0.42779369981427173
51.53357043510304,0.09280271863806783,Upney,1051.5175403309565,51.53835560347559,0.10158060702967472,Barking,1457.5095070344894,51.539886123317935,0.0802089530468054,Becontree,3267.8695833901506,51.540345614496864,0.12736893625437312,East Ham,3700.602920378431,51.53940799877854,0.05285335494738618,BECKTON - DLR,3933.6788431666196,51.514417517428555,0.06184131351015285,2026.2937434395933,0.024858677450388653,3,0.6,0.3124293387251943
51.55974685256878,0.137285905604162,Chadwell Heath,1444.8395008222017,51.568020571271155,0.1283016945365458,Goodmayes,2452.5829119929263,51.5657880265678,0.11186181352036285,Dagenham Heathway,2780.1846721161223,51.5416184486541,0.1475466339518699,Becontree,2944.8441930519166,51.540345614496864,0.12736893625437312,Dagenham East,3432.8064260892465,51.54416174314231,0.16600377979561015,2391.859799115811,0.03554211826888152,2,0.8,0.4177710591344408
51.480669286804535,0.03276996463483484,PONTOON DOCK - DLR,3125.8712379323356,51.50228212418493,0.033252979941393666,WEST SILVERTOWN - DLR,3349.0036241228254,51.50289355637468,0.022343645286838854,WOOLWICH ARSENAL - DLR,3528.6449915864264,51.489985357998016,0.0688912148850038,LONDON CITY AIRPORT - DLR,3604.8636312722933,51.50366796473086,0.048170955147335826,North Greenwich,3854.026094761486,51.50053493338787,0.004314244126489594,3475.1811666031635,0.06720151206995874,2,0.8,0.4336007560349794
51.625914539808285,-0.047432733274375055,Tottenham Hale,5594.037974548683,51.58805045886335,-0.060139591063478465,Blackhorse Road,5673.4611508566995,51.58684229409946,-0.041768161396529516,Seven Sisters,6549.164995855865,51.58339989538407,-0.07248488928732598,Walthamstow Central,6614.841181790046,51.583121461554015,-0.02149009721696701,Wood Green,6963.08931363654,51.59747402372348,-0.10983386762894175,6230.515301279066,0.1477244400221512,2,0.8,0.47386222001107564
51.46689972368162,-0.22699935776265082,Putney Bridge,1664.0659638435693,51.468255977268214,-0.2087033152868412,East Putney,1825.9373440788756,51.45914982307664,-0.2110399264406896,Parsons Green,2563.4663929631865,51.47498606823488,-0.2017397326871696,Fulham Broadway,3536.600158877752,51.48076858389101,-0.19474266104252827,Barons Court,3562.396908379598,51.49029929831061,-0.2146606707385376,2378.4994282827747,0.03515166973327054,2,0.8,0.4175758348666353
51.55049853180357,0.1512771701462635,Dagenham Heathway,1327.5547221858958,51.5416184486541,0.1475466339518699,Dagenham East,1613.4056577103925,51.54416174314231,0.16600377979561015,Becontree,2608.38275310206,51.540345614496864,0.12736893625437312,Chadwell Heath,3272.799848824639,51.568020571271155,0.1283016945365458,Goodmayes,4185.053482517264,51.5657880265678,0.11186181352036285,2173.0200148687118,0.029146661558846144,2,0.8,0.4145733307794231
51.411412368269524,-0.12848476713022866,Tooting Broadway,4304.930112821178,51.427675722454374,-0.16836472055651,Tooting Bec,4500.425065210849,51.435899341737425,-0.1592083111530278,Colliers Wood,4585.358346144469,51.418159079977876,-0.17803308894654438,Balham,5145.926336556898,51.44362772683046,-0.1526657783980393,South Wimbledon,5882.1845959705715,51.41498850026229,-0.19328192113707632,4822.010703345409,0.10656176837649092,1,1.0,0.5532808841882455
51.51686195679029,0.01996917481611036,ROYAL VICTORIA - DLR,1121.393152100833,51.509231665082474,0.01775358236130825,CANNING TOWN - DLR,1146.456421648911,51.51390927525563,0.00817753622360907,Canning Town,1152.5442207417075,51.51412284811822,0.007973974228592676,CUSTOM HOUSE - DLR,1189.4097039066235,51.5097363194669,0.026552314998290878,Custom House,1281.294665102755,51.50982669208105,0.028600872419654706,1175.6793375324987,0.0,3,0.6,0.3
51.595216498848245,-0.3952614801601155,Pinner,1317.8866541247367,51.592828064261916,-0.3811403328062982,Northwood Hills,1410.1326284686695,51.600195133223075,-0.4087251386191395,Eastcote,2710.9057754982337,51.576513893436875,-0.3973470771478147,North Harrow,3296.7020950296173,51.58494912254143,-0.36258290453469627,Northwood,3446.37011146152,51.61101732875408,-0.4239142682401325,2057.3439757683323,0.025766101195930126,2,0.8,0.4128830505979651
51.39274281699472,-0.08612481815010214,Tooting Broadway,8990.748032031632,51.427675722454374,-0.16836472055651,Colliers Wood,9088.892409075917,51.418159079977876,-0.17803308894654438,Tooting Bec,9089.731265047192,51.435899341737425,-0.1592083111530278,Balham,9505.030404289182,51.44362772683046,-0.1526657783980393,Morden,9925.947302669168,51.40253724508803,-0.19473027219670863,9307.21534451899,0.23763908695895805,1,1.0,0.618819543479479
51.38535404155366,-0.18703616415910218,Morden,2580.439957509794,51.40253724508803,-0.19473027219670863,South Wimbledon,4322.393521559741,51.41498850026229,-0.19328192113707632,Colliers Wood,4813.1797384583315,51.418159079977876,-0.17803308894654438,Wimbledon,5506.121174752874,51.42143425544057,-0.20649073062441967,Tooting Broadway,6348.628509248006,51.427675722454374,-0.16836472055651,4288.983598033633,0.09098438244081586,2,0.8,0.44549219122040795
51.41383000924479,-0.28657658377822837,Richmond,7256.304465629383,51.46311840473405,-0.3016467054337033,Wimbledon,7324.04916046221,51.42143425544057,-0.20649073062441967,Wimbledon Park,8434.892570898124,51.43405489769917,-0.19906206857886732,South Wimbledon,8437.587352260489,51.41498850026229,-0.19328192113707632,Morden,8465.074434292474,51.40253724508803,-0.19473027219670863,7942.148245064558,0.197745849214779,2,0.8,0.4988729246073895
51.35771873578787,-0.1450379151344518,Morden,7888.332481348728,51.40253724508803,-0.19473027219670863,Colliers Wood,9235.892216818009,51.418159079977876,-0.17803308894654438,South Wimbledon,9361.610884308126,51.41498850026229,-0.19328192113707632,Tooting Broadway,10334.033077575103,51.427675722454374,-0.16836472055651,Wimbledon,10761.254504333283,51.42143425544057,-0.20649073062441967,9406.354088439612,0.2405363551463353,2,0.8,0.5202681775731677
51.428923137012845,-0.09899849217204214,Brixton,5086.104496375581,51.46266775315543,-0.11486935481082039,Balham,5296.221874960679,51.44362772683046,-0.1526657783980393,Tooting Bec,5535.1137736376895,51.435899341737425,-0.1592083111530278,Clapham South,5597.149228252484,51.45323750844449,-0.14718699803775498,Clapham Common,5921.80757743711,51.46221120939256,-0.13716717677773801,5472.720056550044,0.12557834488040662,2,0.8,0.46278917244020334
51.383520502475356,-0.07213795394394572,Tooting Broadway,10794.254740778408,51.427675722454374,-0.16836472055651,Colliers Wood,10809.23835610497,51.418159079977876,-0.17803308894654438,Tooting Bec,10925.960098778953,51.435899341737425,-0.1592083111530278,Balham,11339.253952875051,51.44362772683046,-0.1526657783980393,Morden,11426.583165701852,51.40253724508803,-0.19473027219670863,11052.534701776736,0.2886449606529532,1,1.0,0.6443224803264767
51.3747694146908,-0.08687437334256051,Colliers Wood,10362.097702364059,51.418159079977876,-0.17803308894654438,Morden,10552.352472929764,51.40253724508803,-0.19473027219670863,Tooting Broadway,10623.822653690686,51.427675722454374,-0.16836472055651,Tooting Bec,10997.489473528194,51.435899341737425,-0.1592083111530278,South Wimbledon,11246.730304308656,51.41498850026229,-0.19328192113707632,10747.053322244821,0.279717457158834,1,1.0,0.6398587285794171
51.454693976759145,-0.025959652319053585,LEWISHAM - DLR,1915.185612974948,51.4656534958191,-0.014057517109202628,ELVERSON ROAD - DLR,2202.8156296820493,51.46869622022829,-0.016358693464723607,DEPTFORD BRIDGE - DLR,2853.4593293794505,51.474302836694164,-0.02243708367150416,GREENWICH - DLR,3572.476789807153,51.47812532354829,-0.013428987645855905,CUTTY SARK - DLR,4127.2079192606825,51.48167337063602,-0.011056580657622243,2704.498971312136,0.04467880380584597,1,1.0,0.5223394019029229
51.4599988373669,-0.3712187205954391,Hounslow Central,1696.876140235369,51.47131964602911,-0.36627277395717445,Hounslow East,2343.3120735509,51.47326277254156,-0.3563132084539763,Hounslow West,2367.833520781676,51.47361871639353,-0.385772979713366,Osterley,3519.605612545082,51.481243488531945,-0.35219948980178173,Hatton Cross,4813.589124035436,51.46662778937479,-0.42344368101612345,2590.3252476813936,0.04134214767900813,1,1.0,0.5206710738395041
51.53210210172534,-0.38306439507650064,Northolt,2674.6477125548313,51.54826023603043,-0.3686291206057346,Greenford,3630.9459144831785,51.54259233758515,-0.34648182369057073,Southall,3791.640088696171,51.50614613228283,-0.3771035436303124,South Ruislip,3852.6492485027425,51.55686140180025,-0.3988455279896942,Ruislip Gardens,4837.298389133951,51.56077685707859,-0.41069628925608653,3624.979706762239,0.0715792813229759,2,0.8,0.43578964066148795
51.441822516285214,-0.35747615142133343,Hounslow Central,4338.787966174377,51.47131964602911,-0.36627277395717445,Hounslow East,4547.594163748073,51.47326277254156,-0.3563132084539763,Hounslow West,5260.6225057735,51.47361871639353,-0.385772979713366,Osterley,5720.29496949002,51.481243488531945,-0.35219948980178173,Richmond,5909.738123878747,51.46311840473405,-0.3016467054337033,5078.743010744447,0.11406461052965307,2,0.8,0.4570323052648266
51.33030000248124,-0.1174348196341266,Morden,12572.763886264,51.40253724508803,-0.19473027219670863,Colliers Wood,13838.265572538752,51.418159079977876,-0.17803308894654438,South Wimbledon,14039.339291242628,51.41498850026229,-0.19328192113707632,Tooting Broadway,14816.309895377348,51.427675722454374,-0.16836472055651,Wimbledon,15447.806157524938,51.42143425544057,-0.20649073062441967,14074.352870200995,0.3769557189012533,2,0.8,0.5884778594506267
51.37405758334425,-0.043797845569434175,LEWISHAM - DLR,13516.050777153609,51.4656534958191,-0.014057517109202628,Tooting Broadway,13677.524522905873,51.427675722454374,-0.16836472055651,Colliers Wood,13716.064278245583,51.418159079977876,-0.17803308894654438,Tooting Bec,13745.275667442205,51.435899341737425,-0.1592083111530278,ELVERSON ROAD - DLR,13908.906585452722,51.46869622022829,-0.016358693464723607,13711.604973976657,0.3663546370415689,2,0.8,0.5831773185207845
51.376143895884354,-0.17303107407739307,Morden,4291.974296478837,51.40253724508803,-0.19473027219670863,South Wimbledon,5908.35368664863,51.41498850026229,-0.19328192113707632,Colliers Wood,6092.484535065913,51.418159079977876,-0.17803308894654438,Wimbledon,7214.784341639822,51.42143425544057,-0.20649073062441967,Tooting Broadway,7463.743643892571,51.427675722454374,-0.16836472055651,5959.711071369807,0.1398103546777626,2,0.8,0.4699051773388813
51.42868897859437,-0.08462270843085841,Brixton,5622.615592108229,51.46266775315543,-0.11486935481082039,Balham,6518.347707154677,51.44362772683046,-0.1526657783980393,Clapham South,6676.184830117353,51.45323750844449,-0.14718699803775498,Clapham North,6709.267231068223,51.46573033892738,-0.12933358122662442,Clapham Common,6785.568740110003,51.46221120939256,-0.13716717677773801,6431.103228928092,0.15358649756460677,2,0.8,0.4767932487823034
51.52291476515547,-0.36897467520488986,Southall,2533.271010677348,51.50614613228283,-0.3771035436303124,Hanwell,3202.2286564182073,51.511782580692746,-0.3382911620071243,Greenford,3494.504198771535,51.54259233758515,-0.34648182369057073,Northolt,3665.2001576464295,51.54826023603043,-0.3686291206057346,West Ealing,4526.677817703426,51.51347124137933,-0.3211365656440236,3362.6067314929683,0.06391159415635395,2,0.8,0.431955797078177
51.39434121621792,-0.18668094345295644,Morden,1390.975896817447,51.40253724508803,-0.19473027219670863,South Wimbledon,3044.8171426931453,51.41498850026229,-0.19328192113707632,Colliers Wood,3531.8759052268583,51.418159079977876,-0.17803308894654438,Wimbledon,4307.985518578031,51.42143425544057,-0.20649073062441967,Tooting Broadway,5096.965288056101,51.427675722454374,-0.16836472055651,2842.840034787319,0.048721735422323824,2,0.8,0.42436086771116194
51.661859286094504,-0.04588654417590197,Oakwood,7960.101981982262,51.64733639621023,-0.13124277946983365,Southgate,8517.500430700296,51.632261218475584,-0.12773657427020435,Cockfosters,9406.548595753737,51.65153150516335,-0.14913729316227967,Loughton,9580.952732702188,51.64131401335984,0.05536440533205223,Buckhurst Hill,9825.464688957503,51.625984504267606,0.04685030246017093,9001.047618303317,0.22869152540949422,2,0.8,0.5143457627047472
51.46989404068253,0.1330842057342611,Abbey Wood,3264.8272730699023,51.491074357645864,0.12057216047674105,Woolwich,6340.021895092964,51.491668236437704,0.07214595050906773,WOOLWICH ARSENAL - DLR,6484.167508575816,51.489985357998016,0.0688912148850038,KING GEORGE V - DLR,7900.460074399253,51.50202586586268,0.06231897937750261,GALLIONS REACH - DLR,7910.872715200969,51.508981284149876,0.07178457988924161,5739.025226055449,0.1333609479801582,2,0.8,0.4666804739900791
51.35839230619759,-0.18810074835342291,Morden,6411.726730036582,51.40253724508803,-0.19473027219670863,South Wimbledon,8197.536747313985,51.41498850026229,-0.19328192113707632,Colliers Wood,8690.474932306483,51.418159079977876,-0.17803308894654438,Wimbledon,9266.782822501158,51.42143425544057,-0.20649073062441967,Tooting Broadway,10176.599154471376,51.427675722454374,-0.16836472055651,8344.493098628756,0.20950412754761583,2,0.8,0.5047520637738079
51.539015739835115,-0.2386176001194263,Willesden Junction,1095.3737391544103,51.53240548064696,-0.24454944180503846,Kensal Green,1766.878756724798,51.5305735728437,-0.22445465030672695,Harlesden,1829.8604725668065,51.53670018373658,-0.25856671093683925,Dollis Hill,1872.7655079784067,51.551964185681975,-0.23901638523553653,Willesden Green,2075.0314552074656,51.54937464364035,-0.22269210604112535,1644.0445891724,0.013687683442264769,2,0.8,0.4068438417211324
51.609579775743384,-0.14923187532625806,Arnos Grove,1766.105928216005,51.616455185489194,-0.13301987853029287,Bounds Green,2272.7033686862133,51.60706647717479,-0.12431690931299394,Woodside Park,3488.303282138766,51.61808932413762,-0.18548627796346517,West Finchley,3519.3025996800707,51.60948993574266,-0.18831738595327135,East Finchley,3540.678794719434,51.58715662440678,-0.1650189133944944,2688.93343420968,0.044223910656276774,2,0.8,0.4221119553281384
51.54843214815613,-0.26710048843196593,Stonebridge Park,1041.6967868016447,51.5441943356176,-0.2764435319759384,Neasden,1679.3880434137702,51.55442856977583,-0.25114679891952135,Harlesden,1862.8753965816177,51.53670018373658,-0.25856671093683925,Wembley Park,2504.494222826459,51.56376286096008,-0.28002685530487065,Dollis Hill,2582.8698654781288,51.551964185681975,-0.23901638523553653,1736.9070470756683,0.01640153107079855,3,0.6,0.30820076553539927
51.5697684390433,0.08003383464205464,Newbury Park,1239.219832322302,51.57570671131438,0.08994710104866553,Gants Hill,1583.5085233407328,51.57653618620388,0.06622053509738708,Seven Kings,1674.832598740695,51.56394849951275,0.096099334795915,Ilford,1849.618072043591,51.55901703762676,0.06892040799865062,Barkingside,2432.027962978532,51.58570492710439,0.0886515841287507,1673.7104010253738,0.014554648359665353,2,0.8,0.4072773241798327
51.56252916270825,-0.021291074964635226,Leyton,1664.471804046286,51.55660540139774,-0.005459613057395526,STRATFORD INTERNATIONAL - DLR,2771.5923187315334,51.54484877107612,-0.009426193778977777,Leytonstone,2787.8927874481137,51.56832221916004,0.008210470401397503,Walthamstow Central,2978.044578717138,51.583121461554015,-0.02149009721696701,Stratford,3423.2339424525226,51.54143892219933,-0.004050193323242832,2566.470680632316,0.040645012779959105,4,0.4,0.22032250638997958
51.36760087278616,-0.2021035342817844,Morden,5095.867607514947,51.40253724508803,-0.19473027219670863,South Wimbledon,6898.84419248736,51.41498850026229,-0.19328192113707632,Colliers Wood,7628.413067847031,51.418159079977876,-0.17803308894654438,Wimbledon,7794.71110266792,51.42143425544057,-0.20649073062441967,Tooting Broadway,9207.648186015418,51.427675722454374,-0.16836472055651,7050.439955425683,0.17168622854760726,2,0.8,0.48584311427380367
51.598715148042686,-0.03415980462473276,Blackhorse Road,1848.7790022496156,51.58684229409946,-0.041768161396529516,Walthamstow Central,2527.467878168125,51.583121461554015,-0.02149009721696701,Tottenham Hale,2802.6410700574756,51.58805045886335,-0.060139591063478465,Seven Sisters,4101.700665555987,51.58339989538407,-0.07248488928732598,South Woodford,5630.829170517295,51.59189362934642,0.027388706541122812,2915.8739122648935,0.050856105109174064,2,0.8,0.42542805255458704
51.654965190537474,-0.17629739728363722,High Barnet,1728.7783107327286,51.650524904528254,-0.19414095643752166,Cockfosters,2493.0672409944227,51.65153150516335,-0.14913729316227967,Totteridge & Whetstone,3534.388933864611,51.63059064856316,-0.17918013547319112,Oakwood,4200.431232552344,51.64733639621023,-0.13124277946983365,Woodside Park,5396.444769399032,51.61808932413762,-0.18548627796346517,2965.83157919753,0.05231608688214676,2,0.8,0.4261580434410734
51.46090867625164,0.13266479315164428,Abbey Wood,4497.157622516836,51.491074357645864,0.12057216047674105,Woolwich,7046.915756345966,51.491668236437704,0.07214595050906773,WOOLWICH ARSENAL - DLR,7131.160711556637,51.489985357998016,0.0688912148850038,KING GEORGE V - DLR,8701.047966650875,51.50202586586268,0.06231897937750261,GALLIONS REACH - DLR,8862.831283111202,51.508981284149876,0.07178457988924161,6828.196296409835,0.16519129571258478,2,0.8,0.4825956478562924
51.602568358635104,-0.2794803094306031,Queensbury,1352.9868507383424,51.59419954633909,-0.28619819535279867,Burnt Oak,1397.2655016142533,51.602836824142564,-0.2639696317085301,Canons Park,1556.94871404815,51.607711419828995,-0.2946706986107864,Edgware,1652.5396751006951,51.613610696577986,-0.27475467325337816,Kingsbury,2593.270833763505,51.58464322697491,-0.2786209852413163,1619.2687313282804,0.012963624392210401,2,0.8,0.40648181219610524
51.45564917651539,-0.08349448872428986,Brixton,3010.600442148344,51.46266775315543,-0.11486935481082039,Stockwell,4268.436006933619,51.47182927610112,-0.123016885349951,Clapham North,4390.0050414014095,51.46573033892738,-0.12933358122662442,Oval,4598.869940404191,51.481838396899654,-0.11238107063105886,Clapham Common,4940.7056109845,51.46221120939256,-0.13716717677773801,4118.369738292065,0.08599829840740635,2,0.8,0.4429991492037032
51.43905415292084,-0.17052198033121582,Tooting Bec,1119.668227462687,51.435899341737425,-0.1592083111530278,Tooting Broadway,1656.8849013366128,51.427675722454374,-0.16836472055651,Balham,1743.939849102785,51.44362772683046,-0.1526657783980393,Wimbledon Park,2678.8250515197165,51.43405489769917,-0.19906206857886732,Clapham South,2941.541266717145,51.45323750844449,-0.14718699803775498,1796.406737301087,0.01814037254519662,2,0.8,0.40907018627259834
51.46319237605222,0.0032000364806081057,LEWISHAM - DLR,1599.0046330340513,51.4656534958191,-0.014057517109202628,ELVERSON ROAD - DLR,1937.7215513805645,51.46869622022829,-0.016358693464723607,GREENWICH - DLR,2630.4574446328065,51.47812532354829,-0.013428987645855905,DEPTFORD BRIDGE - DLR,2818.4534072314123,51.474302836694164,-0.02243708367150416,CUTTY SARK - DLR,2966.6114004237697,51.48167337063602,-0.011056580657622243,2258.855293547758,0.03165514424116234,1,1.0,0.5158275721205812
51.40242540343374,-0.1288517571370281,Colliers Wood,4995.804534541029,51.418159079977876,-0.17803308894654438,Tooting Broadway,5108.664412257404,51.427675722454374,-0.16836472055651,Tooting Bec,5564.584970361078,51.435899341737425,-0.1592083111530278,Morden,5958.609212806139,51.40253724508803,-0.19473027219670863,South Wimbledon,6103.463766080366,51.41498850026229,-0.19328192113707632,5510.932017500071,0.12669506569468744,1,1.0,0.5633475328473437
51.565541195060995,-0.2087354028823975,Golders Green,1648.0911345795926,51.572288875812,-0.19399749568271848,Brent Cross,1672.0670166850036,51.576671975889624,-0.2137597702763802,Willesden Green,2654.8104559191565,51.54937464364035,-0.22269210604112535,Kilburn,2712.2764376835325,51.54695520739804,-0.20469009526410165,Hendon Central,3002.2302758940323,51.58317462862065,-0.22632123704930582,2189.833003691626,0.02963801070979323,2,0.8,0.41481900535489663
51.367156673044654,-0.1733887552500227,Morden,5468.537262415637,51.40253724508803,-0.19473027219670863,South Wimbledon,7147.0845531117475,51.41498850026229,-0.19328192113707632,Colliers Wood,7387.213249582828,51.418159079977876,-0.17803308894654438,Wimbledon,8400.699033959474,51.42143425544057,-0.20649073062441967,Tooting Broadway,8763.189943311041,51.427675722454374,-0.16836472055651,7232.729986819746,0.17701354144211892,2,0.8,0.48850677072105947
51.458128810414095,-0.2417337469738989,East Putney,2776.698848404679,51.45914982307664,-0.2110399264406896,Putney Bridge,3323.5668204885746,51.468255977268214,-0.2087033152868412,Southfields,3690.5500462408536,51.44507974989173,-0.20662949274631476,Parsons Green,4357.819716336023,51.47498606823488,-0.2017397326871696,Kew Gardens,4767.417894604657,51.476997832844376,-0.2850185530874335,3646.4052440626015,0.07220542933699056,1,1.0,0.5361027146684952
51.63490072533576,-0.04704631441281341,Tottenham Hale,6877.092336728743,51.58805045886335,-0.060139591063478465,Blackhorse Road,6966.255265024365,51.58684229409946,-0.041768161396529516,Southgate,7271.749971315793,51.632261218475584,-0.12773657427020435,Oakwood,7786.515387766109,51.64733639621023,-0.13124277946983365,Seven Sisters,7792.126373214331,51.58339989538407,-0.07248488928732598,7318.075447722493,0.17950770950429004,2,0.8,0.48975385475214506
51.57797879680996,0.1237076622250576,Chadwell Heath,1498.4975258674995,51.568020571271155,0.1283016945365458,Goodmayes,2061.0552249018533,51.5657880265678,0.11186181352036285,Newbury Park,3059.8865141851556,51.57570671131438,0.08994710104866553,Seven Kings,3210.6087380238737,51.56394849951275,0.096099334795915,Barkingside,3350.4001339498377,51.58570492710439,0.0886515841287507,2393.1778819456526,0.035580638420541766,2,0.8,0.4177903192102709
51.483764013045615,-0.1543311437370615,Battersea Power Station,1167.3751797277898,51.479476819200244,-0.14337610628255198,Sloane Square,1252.682873488613,51.492337989718926,-0.1563109875356802,Pimlico,2016.5406674005042,51.48908299791676,-0.1336839727580515,Victoria,2091.5257273630564,51.49640213408183,-0.14306463520033438,South Kensington,2261.220858087776,51.49408964921556,-0.17314093551479268,1628.0456965609096,0.01322012574722629,5,0.19999999999999996,0.10661006287361312
51.396063491070535,-0.30161521690803983,Wimbledon,9352.103874951526,51.42143425544057,-0.20649073062441967,Richmond,9696.36867940431,51.46311840473405,-0.3016467054337033,Morden,9713.221992579627,51.40253724508803,-0.19473027219670863,South Wimbledon,10172.701006322828,51.41498850026229,-0.19328192113707632,Wimbledon Park,10778.192162585065,51.43405489769917,-0.19906206857886732,9918.786945088037,0.25551188696185895,2,0.8,0.5277559434809295
51.6029878856964,-0.3083451392852342,Canons Park,1408.0896282116018,51.607711419828995,-0.2946706986107864,Queensbury,2364.983689832218,51.59419954633909,-0.28619819535279867,Stanmore,2461.931502009429,51.61971381105704,-0.3032388442070318,Harrow & Wealdstone,2864.8425921877333,51.592045896748125,-0.3348639494005961,Kenton,3181.246237580584,51.58161346615873,-0.3167056317741808,2270.0397092529406,0.0319820018402759,2,0.8,0.41599100092013797
51.488384995044285,0.10513783319496398,Abbey Wood,1446.6945483848592,51.491074357645864,0.12057216047674105,Woolwich,3016.1404595284334,51.491668236437704,0.07214595050906773,WOOLWICH ARSENAL - DLR,3280.603484820554,51.489985357998016,0.0688912148850038,GALLIONS REACH - DLR,4235.046662488284,51.508981284149876,0.07178457988924161,KING GEORGE V - DLR,4339.590256754441,51.50202586586268,0.06231897937750261,2786.8134977040404,0.047084394690326416,2,0.8,0.42354219734516324
51.410949732582765,-0.09974400345997872,Tooting Bec,6474.491851618037,51.435899341737425,-0.1592083111530278,Tooting Broadway,6659.214378691158,51.427675722454374,-0.16836472055651,Balham,6724.45828497425,51.44362772683046,-0.1526657783980393,Colliers Wood,7155.679200722475,51.418159079977876,-0.17803308894654438,Clapham South,7468.95336555796,51.45323750844449,-0.14718699803775498,6877.8845828426365,0.16664340500783983,1,1.0,0.5833217025039199
51.4480413760203,-0.17016284609943524,Balham,1705.0336238653729,51.44362772683046,-0.1526657783980393,Tooting Bec,2015.6579111558933,51.435899341737425,-0.1592083111530278,Clapham South,2207.730186645048,51.45323750844449,-0.14718699803775498,Tooting Broadway,2949.447198287486,51.427675722454374,-0.16836472055651,Wimbledon Park,3303.1983064697038,51.43405489769917,-0.19906206857886732,2296.3673208386467,0.03275140992918577,2,0.8,0.4163757049645929
51.43242808303953,-0.32904044283586165,Richmond,5081.521569245478,51.46311840473405,-0.3016467054337033,Hounslow East,6398.311393956632,51.47326277254156,-0.3563132084539763,Hounslow Central,6553.1140241343455,51.47131964602911,-0.36627277395717445,Osterley,7362.381496354051,51.481243488531945,-0.35219948980178173,Kew Gardens,7573.254503239803,51.476997832844376,-0.2850185530874335,6463.696786892779,0.15453902404285358,2,0.8,0.4772695120214268
51.58480406335599,-0.29458630098205885,Kingsbury,1438.4033315623028,51.58464322697491,-0.2786209852413163,Queensbury,1554.6023122571696,51.59419954633909,-0.28619819535279867,Preston Road,1849.8407333103512,51.57201611739948,-0.29510647739843454,Kenton,2045.3907988984577,51.58161346615873,-0.3167056317741808,Northwick Park,2302.8657277494194,51.57847686666111,-0.31804395596062013,1784.312716414567,0.017786932299876924,3,0.6,0.30889346614993846
51.6057105122879,0.08167649631053464,Hainault,1109.0275660981877,51.603641709370464,0.0935348459767853,Grange Hill,1447.9470575696982,51.61319983847113,0.0923485553652509,Fairlop,1694.7974200285075,51.59555945125294,0.09107962810176558,Chigwell,1811.331468223531,51.617654496899874,0.07562151591004014,Barkingside,2960.60937132582,51.58570492710439,0.0886515841287507,1627.4912070519295,0.013203921135879903,1,1.0,0.5066019605679399
51.51392684560887,-0.36929583884104794,Southall,1327.4725919282114,51.50614613228283,-0.3771035436303124,Hanwell,2814.5779201812006,51.511782580692746,-0.3382911620071243,West Ealing,4345.677245501987,51.51347124137933,-0.3211365656440236,Greenford,4627.765816461858,51.54259233758515,-0.34648182369057073,Hayes & Harlington,4783.802961585334,51.50303723137112,-0.41935690170324563,2834.718269066882,0.04848438186591813,2,0.8,0.42424219093295906
51.60059314865657,-0.14959723130082928,East Finchley,2388.514176673565,51.58715662440678,-0.1650189133944944,Bounds Green,2461.5368014350997,51.60706647717479,-0.12431690931299394,Arnos Grove,2736.7724802124276,51.616455185489194,-0.13301987853029287,Highgate,3301.6904418450235,51.57784658975153,-0.14644230428628777,Wood Green,3609.4810469344966,51.59747402372348,-0.10983386762894175,2824.4792906785624,0.04818515408490576,2,0.8,0.4240925770424529
51.410715724910126,-0.08537395673297,Tooting Bec,7604.055116924266,51.435899341737425,-0.1592083111530278,Balham,7723.809287451066,51.44362772683046,-0.1526657783980393,Tooting Broadway,7894.396276721752,51.427675722454374,-0.16836472055651,Brixton,7971.649775684158,51.46266775315543,-0.11486935481082039,Clapham South,8308.346934224579,51.45323750844449,-0.14718699803775498,7893.206335656094,0.19631555232426992,2,0.8,0.49815777616213497
51.45791226140802,-0.22734748417886214,East Putney,1483.998658786832,51.45914982307664,-0.2110399264406896,Putney Bridge,2252.4092094464504,51.468255977268214,-0.2087033152868412,Southfields,2635.779785634838,51.44507974989173,-0.20662949274631476,Parsons Green,3383.0773956018334,51.47498606823488,-0.2017397326871696,Wimbledon Park,4293.5197743681665,51.43405489769917,-0.19906206857886732,2468.262481696729,0.03777493919153929,1,1.0,0.5188874695957697
51.41118197197979,-0.11411424457544746,Tooting Bec,5421.847955459922,51.435899341737425,-0.1592083111530278,Tooting Broadway,5454.244192261745,51.427675722454374,-0.16836472055651,Balham,5844.608502185365,51.44362772683046,-0.1526657783980393,Colliers Wood,5867.25046278944,51.418159079977876,-0.17803308894654438,Clapham South,6776.569926912958,51.45323750844449,-0.14718699803775498,5835.087734855424,0.13616831510767255,1,1.0,0.5680841575538362
51.51412625816822,-0.3837010656086938,Southall,1298.4519628285593,51.50614613228283,-0.3771035436303124,Hayes & Harlington,3594.8122650183254,51.50303723137112,-0.41935690170324563,Hanwell,4111.1432424840905,51.511782580692746,-0.3382911620071243,Northolt,5119.66512887721,51.54826023603043,-0.3686291206057346,Greenford,5311.598812735755,51.54259233758515,-0.34648182369057073,2984.7888864792585,0.05287010240759727,2,0.8,0.42643505120379865
51.603400582863024,-0.3372109112685477,Harrow & Wealdstone,1655.4535018865793,51.592045896748125,-0.3348639494005961,Harrow-on-the-Hill,3468.450151080599,51.57941628030986,-0.3367300744303407,North Harrow,3512.929818939394,51.58494912254143,-0.36258290453469627,Kenton,3651.9525740362974,51.58161346615873,-0.3167056317741808,West Harrow,3737.3708323461688,51.57956835045778,-0.3532684142764812,2909.6260895383334,0.050673516372317276,2,0.8,0.4253367581861587
51.58351543828934,-0.20802805564334376,Brent Cross,1116.2594316397733,51.576671975889624,-0.2137597702763802,Hendon Central,1648.8228722133167,51.58317462862065,-0.22632123704930582,Golders Green,2057.620884983315,51.572288875812,-0.19399749568271848,Finchley Central,2879.998340415758,51.600934833101746,-0.19252942794168978,Mill Hill East,3579.4847918789433,51.608236493077726,-0.2100361778725491,1912.0950317165536,0.021521291062080738,1,1.0,0.5107606455310404
51.646643461374914,-0.21999446044729373,High Barnet,2392.588617541606,51.650524904528254,-0.19414095643752166,Totteridge & Whetstone,4344.704339187734,51.63059064856316,-0.17918013547319112,Woodside Park,5166.736746952127,51.61808932413762,-0.18548627796346517,Mill Hill East,5625.982844916663,51.608236493077726,-0.2100361778725491,West Finchley,6082.414350588327,51.60948993574266,-0.18831738595327135,4223.602624126797,0.08907366410539205,1,1.0,0.544536832052696
51.41403931901875,-0.3009496948051764,Richmond,7097.346969492421,51.46311840473405,-0.3016467054337033,Wimbledon,8607.240240769412,51.42143425544057,-0.20649073062441967,Kew Gardens,9217.169757441658,51.476997832844376,-0.2850185530874335,Southfields,9635.211348460409,51.44507974989173,-0.20662949274631476,Wimbledon Park,9655.02237615457,51.43405489769917,-0.19906206857886732,8727.051583533806,0.22068416155141649,1,1.0,0.6103420807757083
51.45517506599447,-0.054726689833145534,LEWISHAM - DLR,3974.208671301806,51.4656534958191,-0.014057517109202628,ELVERSON ROAD - DLR,3979.4881908704215,51.46869622022829,-0.016358693464723607,DEPTFORD BRIDGE - DLR,4019.7539336791942,51.474302836694164,-0.02243708367150416,GREENWICH - DLR,4992.953048108808,51.47812532354829,-0.013428987645855905,CUTTY SARK - DLR,5499.268499329404,51.48167337063602,-0.011056580657622243,4409.921212832857,0.09451870908404651,1,1.0,0.5472593545420232
51.41993638296953,-0.09937131075143471,Tooting Bec,5881.178845426277,51.435899341737425,-0.1592083111530278,Balham,5911.357939389465,51.44362772683046,-0.1526657783980393,Brixton,6336.02051549881,51.46266775315543,-0.11486935481082039,Tooting Broadway,6337.1213765072725,51.427675722454374,-0.16836472055651,Clapham South,6470.446037955926,51.45323750844449,-0.14718699803775498,6177.592561823952,0.1461778058471719,2,0.8,0.47308890292358596
51.56766780183642,0.19537688611114856,Romford,1555.1590734212136,51.57469146078035,0.1823104268842422,Gidea Park,2300.8226453420602,51.58206113794098,0.2062522935798357,Elm Park,2612.5864990283885,51.54972145979434,0.19869376414095105,Hornchurch,2909.3965457064282,51.554050484644705,0.2191338382742129,Upminster Bridge,3882.142655827854,51.558497591864246,0.235853642203452,2425.166355009517,0.03651548166855501,2,0.8,0.4182577408342775
51.62639164393647,-0.07630828836024406,Southgate,4705.933747622221,51.632261218475584,-0.12773657427020435,Bounds Green,5146.977877280894,51.60706647717479,-0.12431690931299394,Wood Green,5157.585830267871,51.59747402372348,-0.10983386762894175,Arnos Grove,5303.497499279983,51.616455185489194,-0.13301987853029287,Tottenham Hale,5732.657303868312,51.58805045886335,-0.060139591063478465,5188.500279373341,0.11727219850339747,2,0.8,0.45863609925169874
51.60104479121951,-0.17845848971000547,Finchley Central,1267.2969803189833,51.600934833101746,-0.19252942794168978,West Finchley,1509.8373150095676,51.60948993574266,-0.18831738595327135,East Finchley,2344.9670238774356,51.58715662440678,-0.1650189133944944,Woodside Park,2544.7719139156334,51.61808932413762,-0.18548627796346517,Mill Hill East,3027.75642528123,51.608236493077726,-0.2100361778725491,1922.2715267314072,0.021818692805330032,1,1.0,0.510909346402665
51.36909974204277,-0.30261206004011826,Morden,10893.03680171277,51.40253724508803,-0.19473027219670863,Wimbledon,11527.260749033045,51.42143425544057,-0.20649073062441967,South Wimbledon,11910.515048996001,51.41498850026229,-0.19328192113707632,Wimbledon Park,13264.402742223903,51.43405489769917,-0.19906206857886732,Colliers Wood,13316.86404976199,51.418159079977876,-0.17803308894654438,12106.696629924176,0.31945218795866975,2,0.8,0.5597260939793349
51.45979801853402,-0.35683090297922626,Hounslow Central,1871.623031981373,51.47131964602911,-0.36627277395717445,Hounslow East,1947.5955474870038,51.47326277254156,-0.3563132084539763,Osterley,3129.136923241971,51.481243488531945,-0.35219948980178173,Hounslow West,3290.421046413296,51.47361871639353,-0.385772979713366,Richmond,5007.77127385638,51.46311840473405,-0.3016467054337033,2672.4701333476373,0.04374278091869398,2,0.8,0.421871390459347
51.44497372395692,0.016793819405990184,LEWISHAM - DLR,4088.1608909852844,51.4656534958191,-0.014057517109202628,ELVERSON ROAD - DLR,4554.141486472554,51.46869622022829,-0.016358693464723607,GREENWICH - DLR,5517.100700743938,51.47812532354829,-0.013428987645855905,DEPTFORD BRIDGE - DLR,5527.232745494257,51.474302836694164,-0.02243708367150416,CUTTY SARK - DLR,5873.38362183546,51.48167337063602,-0.011056580657622243,5016.92854945735,0.1122581213093502,1,1.0,0.5561290606546752
51.514714132487306,-0.4269173123226744,Hayes & Harlington,1821.0954277790318,51.50303723137112,-0.41935690170324563,West Drayton,4103.106264551584,51.509889653988765,-0.4717298081442503,Southall,4662.334131325709,51.50614613228283,-0.3771035436303124,Hillingdon,6024.0200955313585,51.553950922962464,-0.44936323351561647,Uxbridge,6479.593783823587,51.546463984227124,-0.4776140379083946,3766.0373629236424,0.07570160367264835,3,0.6,0.33785080183632415
51.55948369584194,0.15170096866179644,Chadwell Heath,2443.9333398612994,51.568020571271155,0.1283016945365458,Dagenham East,2563.7710684749327,51.54416174314231,0.16600377979561015,Dagenham Heathway,2610.677021697411,51.5416184486541,0.1475466339518699,Romford,3528.228835092717,51.57469146078035,0.1823104268842422,Becontree,3531.771024840259,51.540345614496864,0.12736893625437312,2859.0352362883095,0.0491950301226738,2,0.8,0.4245975150613369
51.36360321066308,0.04194903710936772,LEWISHAM - DLR,15602.857244835077,51.4656534958191,-0.014057517109202628,ELVERSON ROAD - DLR,16086.627864128655,51.46869622022829,-0.016358693464723607,DEPTFORD BRIDGE - DLR,17034.533783318304,51.474302836694164,-0.02243708367150416,GREENWICH - DLR,17301.96691952296,51.47812532354829,-0.013428987645855905,CUTTY SARK - DLR,17734.517333418786,51.48167337063602,-0.011056580657622243,16714.434020374087,0.4541104499982623,1,1.0,0.7270552249991311
51.564646391845244,-0.15105667112171658,Archway,1444.8862538750222,51.564540856812656,-0.1350261547508563,Tufnell Park,1601.7102044879143,51.55684688165748,-0.1384398274315375,Highgate,1953.6686476644757,51.57784658975153,-0.14644230428628777,Kentish Town,2274.6915102109188,51.550296304938385,-0.140722210399805,Belsize Park,2403.482978854403,51.55032802178578,-0.16459558981350675,1862.9126516769693,0.020083966566802915,1,1.0,0.5100419832834014
51.46733113705219,-0.25577773393737324,Kew Gardens,2987.8514184040373,51.476997832844376,-0.2850185530874335,Gunnersbury,3938.141007371657,51.49174257627245,-0.2751137924217151,Turnham Green,3996.629778830459,51.494958689122086,-0.2545275752571731,Stamford Brook,4086.2428946555915,51.49491901447832,-0.24597832114672852,Chiswick Park,4117.791803499837,51.49466825400271,-0.2685489968417927,3769.605951235559,0.07580589344858338,2,0.8,0.4379029467242917
51.462945826811264,0.017585766340160684,LEWISHAM - DLR,2885.0678503313766,51.4656534958191,-0.014057517109202628,ELVERSON ROAD - DLR,3176.9167488679027,51.46869622022829,-0.016358693464723607,GREENWICH - DLR,3558.9059420813182,51.47812532354829,-0.013428987645855905,CUTTY SARK - DLR,3745.2274686170863,51.48167337063602,-0.011056580657622243,DEPTFORD BRIDGE - DLR,3970.589860120318,51.474302836694164,-0.02243708367150416,3421.7833340620127,0.06564099359475752,1,1.0,0.5328204967973788
51.55128300993367,0.10803986481394957,Upney,1958.2213701723556,51.53835560347559,0.10158060702967472,Seven Kings,2124.5486618278633,51.56394849951275,0.096099334795915,Goodmayes,2125.8544832339658,51.5657880265678,0.11186181352036285,Becontree,2353.670077778308,51.540345614496864,0.12736893625437312,Barking,3002.4584546798537,51.539886123317935,0.0802089530468054,2262.767431858185,0.03176947405232573,3,0.6,0.3158847370261629
