lat,lon,nearest_station_1,nearest_station_1_dist,nearest_station_1_lat,nearest_station_1_long,nearest_station_2,nearest_station_2_dist,nearest_station_2_lat,nearest_station_2_long,nearest_station_3,nearest_station_3_dist,nearest_station_3_lat,nearest_station_3_long,nearest_station_4,nearest_station_4_dist,nearest_station_4_lat,nearest_station_4_long,nearest_station_5,nearest_station_5_dist,nearest_station_5_lat,nearest_station_5_long,harmonic_mean_adj_dist,harmonic_mean_adj_dist_norm,line_unique_count,line_unique_count_norm,connectivity_score
51.51451998392903,-0.4125120193108345,Hayes & Harlington,1771.5767303809268,51.50303723137112,-0.41935690170324563,Southall,3416.6599969378212,51.50614613228283,-0.3771035436303124,West Drayton,5384.926431507714,51.509889653988765,-0.4717298081442503,South Ruislip,6245.530727523655,51.55686140180025,-0.3988455279896942,Northolt,6282.379967714701,51.54826023603043,-0.3686291206057346,3670.6789722525573,0.07291481395992058,2,0.8,0.4364574069799603
51.34873148798412,-0.145400832101267,Morden,8970.487487592822,51.40253724508803,-0.19473027219670863,Colliers Wood,10464.905963525276,51.418159079977876,-0.17803308894654438,South Wimbledon,10515.31895245909,51.41498850026229,-0.19328192113707632,Tooting Broadway,11603.373149613119,51.427675722454374,-0.16836472055651,Wimbledon,11877.846171330028,51.42143425544057,-0.20649073062441967,10581.883562691866,0.2748904735705346,2,0.8,0.5374452367852673
51.45939112756656,-0.3280554414213887,Richmond,2445.611194847037,51.46311840473405,-0.3016467054337033,Hounslow East,3246.0995520306724,51.47326277254156,-0.3563132084539763,Osterley,3839.1726084536954,51.481243488531945,-0.35219948980178173,Hounslow Central,3858.77455300839,51.47131964602911,-0.36627277395717445,Kew Gardens,4646.523331964442,51.476997832844376,-0.2850185530874335,3444.0127480347887,0.06629063440500436,2,0.8,0.4331453172025022
51.4265035064725,0.044750554929251,LEWISHAM - DLR,7765.056587639914,51.4656534958191,-0.014057517109202628,ELVERSON ROAD - DLR,8229.439820879994,51.46869622022829,-0.016358693464723607,GREENWICH - DLR,9130.388767890372,51.47812532354829,-0.013428987645855905,DEPTFORD BRIDGE - DLR,9199.936318558934,51.474302836694164,-0.02243708367150416,WOOLWICH ARSENAL - DLR,9435.968104964539,51.489985357998016,0.0688912148850038,8703.292162881136,0.21998980724668027,1,1.0,0.6099949036233401
51.487601858936856,0.1483157164529157,Abbey Wood,2554.6417459150753,51.491074357645864,0.12057216047674105,Woolwich,6901.871678700708,51.491668236437704,0.07214595050906773,WOOLWICH ARSENAL - DLR,7179.024192901403,51.489985357998016,0.0688912148850038,GALLIONS REACH - DLR,7568.450095434998,51.508981284149876,0.07178457988924161,Dagenham Heathway,7812.155319873561,51.5416184486541,0.1475466339518699,5343.248426109913,0.12179461693301281,3,0.6,0.3608973084665064
51.46244721089352,0.0463570133983176,WOOLWICH ARSENAL - DLR,4472.291897756132,51.489985357998016,0.0688912148850038,Woolwich,4825.097188836773,51.491668236437704,0.07214595050906773,LEWISHAM - DLR,5476.971596613516,51.4656534958191,-0.014057517109202628,ELVERSON ROAD - DLR,5736.625355235344,51.46869622022829,-0.016358693464723607,GREENWICH - DLR,5856.519595942896,51.47812532354829,-0.013428987645855905,5216.485427975939,0.11809004708165191,2,0.8,0.459045023540826
51.53676362627584,-0.0945081912088321,Angel,1194.4428535682778,51.53148959741432,-0.10470051077650719,Highbury & Islington,1751.0835019211117,51.54742661432923,-0.10371049499403494,Old Street,1799.5165987023854,51.525087015961375,-0.0876110910136405,Barbican,2424.514972652182,51.52021035825423,-0.09877416007418292,Farringdon,2534.865338770184,51.519915625753825,-0.1022644932001967,1804.4404413773852,0.018375152554773785,5,0.19999999999999996,0.10918757627738687
51.54357037963679,0.0355733372286781,Upton Park,1184.6869761480418,51.535381114708535,0.035237134317064586,Forest Gate,1350.3968434784904,51.54923382053423,0.023665990638303193,Manor Park,1529.8943726231937,51.5521985051404,0.04539047874751819,East Ham,1670.5201469403585,51.53940799877854,0.05285335494738618,Plaistow,2446.383945014835,51.531232747860415,0.017015994843462036,1540.523320937708,0.01066233870506117,3,0.6,0.3053311693525306
51.525598674704746,0.0347718984394539,Upton Park,1415.318357479055,51.535381114708535,0.035237134317064586,Plaistow,1796.9889715812888,51.531232747860415,0.017015994843462036,PRINCE REGENT - DLR,2347.483619270413,51.509369678637576,0.03421726118998984,Custom House,2347.8409487424155,51.50982669208105,0.028600872419654706,CUSTOM HOUSE - DLR,2410.8399842209055,51.5097363194669,0.026552314998290878,1976.4832199574364,0.023402995853323838,4,0.4,0.21170149792666193
51.58849877655632,0.0375804605280428,South Woodford,1041.1275248888899,51.59189362934642,0.027388706541122812,Snaresbrook,1843.650406453578,51.58067843566125,0.021420000139433203,Redbridge,1907.4536796767072,51.57625099831294,0.04543664415152093,Wanstead,2031.2794064093255,51.575602965168954,0.02864730241085162,Woodford,2674.818202461855,51.6068623985304,0.03403805532136056,1728.120840757845,0.016144759650811084,1,1.0,0.5080723798254055
51.44371458263071,0.0886912145514013,WOOLWICH ARSENAL - DLR,6926.4329626417475,51.489985357998016,0.0688912148850038,Woolwich,7094.122945999572,51.491668236437704,0.07214595050906773,Abbey Wood,7429.792491427929,51.491074357645864,0.12057216047674105,KING GEORGE V - DLR,8762.718110602982,51.50202586586268,0.06231897937750261,LONDON CITY AIRPORT - DLR,9410.940719682754,51.50366796473086,0.048170955147335826,7808.734548631505,0.19384691683829755,2,0.8,0.4969234584191488
51.57223667279524,-0.0641641328032651,Seven Sisters,1779.9254133423642,51.58339989538407,-0.07248488928732598,Tottenham Hale,2315.4872983478645,51.58805045886335,-0.060139591063478465,Manor House,2880.5093672836347,51.570753556351,-0.09603915207846561,Blackhorse Road,2921.194991163469,51.58684229409946,-0.041768161396529516,Finsbury Park,3986.514025601025,51.564572648553515,-0.10665342330316399,2585.2779324008134,0.04119464302627913,2,0.8,0.4205973215131396
51.48016657949976,0.0615524240707027,WOOLWICH ARSENAL - DLR,1566.9572112049518,51.489985357998016,0.0688912148850038,Woolwich,1918.7282039762526,51.491668236437704,0.07214595050906773,KING GEORGE V - DLR,3161.972522595607,51.50202586586268,0.06231897937750261,LONDON CITY AIRPORT - DLR,3607.008037303048,51.50366796473086,0.048170955147335826,PONTOON DOCK - DLR,4093.424139914084,51.50228212418493,0.033252979941393666,2503.5692128159726,0.03880675646929357,2,0.8,0.4194033782346468
51.491595834409424,-0.0819874634107297,Borough,1722.3159487730002,51.501192691784105,-0.093287413867766,Bermondsey,1822.0072583199997,51.49770348003495,-0.06433321766482115,Elephant & Castle,1836.3218820704126,51.49583866247047,-0.10116094487967293,London Bridge,2066.300776912231,51.50506641773977,-0.08962285051859702,Kennington,2213.013525331498,51.48834108236874,-0.10594020447433074,1915.8153899588237,0.021630016219923127,3,0.6,0.31081500810996154
51.59400022789119,-0.3086792847896527,Kenton,1931.6011666218144,51.58161346615873,-0.3167056317741808,Queensbury,2024.9967185029698,51.59419954633909,-0.28619819535279867,Canons Park,2350.0115820679052,51.607711419828995,-0.2946706986107864,Harrow & Wealdstone,2375.2872392170775,51.592045896748125,-0.3348639494005961,Northwick Park,2398.040539424539,51.57847686666111,-0.31804395596062013,2197.732799667504,0.0298688773383446,3,0.6,0.3149344386691723
51.47856702814772,-0.4137600592493692,Hatton Cross,1935.2609234502333,51.46662778937479,-0.42344368101612345,Hounslow West,2626.5284797485924,51.47361871639353,-0.385772979713366,Hayes & Harlington,3574.2362902786617,51.50303723137112,-0.41935690170324563,Heathrow Terminals 1-2-3,3644.358869900548,51.4713042570714,-0.4524058201396179,Heathrow Terminals 1-2-3,3734.0958336425692,51.47191531293728,-0.4537165537462638,2907.930174572669,0.050623954311269134,2,0.8,0.42531197715563457
51.47500265069088,-0.1690847164758197,Battersea Power Station,2409.9907328609843,51.479476819200244,-0.14337610628255198,Fulham Broadway,2462.3396457830377,51.48076858389101,-0.19474266104252827,Sloane Square,2759.4135872977727,51.492337989718926,-0.1563109875356802,South Kensington,2784.3142152571995,51.49408964921556,-0.17314093551479268,Parsons Green,2948.8959237774247,51.47498606823488,-0.2017397326871696,2657.146510268233,0.043294957556126695,4,0.4,0.22164747877806334
51.45634695237521,-0.1266478614937674,Clapham Common,1273.63947283721,51.46221120939256,-0.13716717677773801,Clapham North,1378.4297711116255,51.46573033892738,-0.12933358122662442,Brixton,1402.737885928675,51.46266775315543,-0.11486935481082039,Clapham South,1909.3384555624089,51.45323750844449,-0.14718699803775498,Stockwell,2262.7761779832335,51.47182927610112,-0.123016885349951,1567.7997173944673,0.011459474442263301,2,0.8,0.40572973722113165
51.47991263806676,0.0759431159058182,WOOLWICH ARSENAL - DLR,1589.7687298154217,51.489985357998016,0.0688912148850038,Woolwich,1734.2897835385866,51.491668236437704,0.07214595050906773,KING GEORGE V - DLR,3426.327012736012,51.50202586586268,0.06231897937750261,GALLIONS REACH - DLR,4220.538716934137,51.508981284149876,0.07178457988924161,LONDON CITY AIRPORT - DLR,4253.027106864504,51.50366796473086,0.048170955147335826,2538.6533259721496,0.03983206787540864,2,0.8,0.4199160339377043
51.42062787317814,-0.1424914329879386,Tooting Broadway,2551.4776195250683,51.427675722454374,-0.16836472055651,Tooting Bec,2675.899130804288,51.435899341737425,-0.1592083111530278,Colliers Wood,3233.2402551045425,51.418159079977876,-0.17803308894654438,Balham,3450.7217563763584,51.44362772683046,-0.1526657783980393,South Wimbledon,4664.176035458696,51.41498850026229,-0.19328192113707632,3166.3249716855266,0.05817538169326519,1,1.0,0.5290876908466325
51.482843748949605,-0.0967574208915805,Kennington,1148.621415232005,51.48834108236874,-0.10594020447433074,Oval,1418.162818531194,51.481838396899654,-0.11238107063105886,Elephant & Castle,1920.781160050239,51.49583866247047,-0.10116094487967293,Vauxhall,2514.3073777032005,51.485698419511635,-0.12422721164969706,Borough,2671.85906058588,51.501192691784105,-0.093287413867766,1743.1544662964845,0.016584108015451623,3,0.6,0.3082920540077258
51.42085456957984,-0.1568654393808953,Tooting Broadway,1433.0672037246525,51.427675722454374,-0.16836472055651,Colliers Wood,1953.132283455624,51.418159079977876,-0.17803308894654438,Tooting Bec,2185.824026242253,51.435899341737425,-0.1592083111530278,Balham,3314.9042154173903,51.44362772683046,-0.1526657783980393,South Wimbledon,3400.1698312279837,51.41498850026229,-0.19328192113707632,2209.391802853096,0.03020960446166979,1,1.0,0.5151048022308349
51.4473600255863,-0.1270156385286238,Clapham South,2011.0111348948114,51.45323750844449,-0.14718699803775498,Clapham Common,2335.2261641098416,51.46221120939256,-0.13716717677773801,Balham,2379.8764056482196,51.44362772683046,-0.1526657783980393,Brixton,2470.702451004037,51.46266775315543,-0.11486935481082039,Clapham North,2664.7281547397783,51.46573033892738,-0.12933358122662442,2352.174954839908,0.03438235335463603,2,0.8,0.41719117667731803
51.53408087541192,0.063987952906644,East Ham,1265.683994216668,51.53940799877854,0.05285335494738618,Barking,1686.7313141098632,51.539886123317935,0.0802089530468054,Upton Park,2599.9357675408796,51.535381114708535,0.035237134317064586,BECKTON - DLR,2850.243813443551,51.514417517428555,0.06184131351015285,Manor Park,3110.8628399970376,51.5521985051404,0.04539047874751819,2049.284833176608,0.02553057776154866,4,0.4,0.21276528888077434
51.46579013082125,-0.1550559252736063,Clapham Common,1696.6901575982517,51.46221120939256,-0.13716717677773801,Clapham South,1949.423526588258,51.45323750844449,-0.14718699803775498,Battersea Power Station,2242.757780010938,51.479476819200244,-0.14337610628255198,Clapham North,2323.3547675725126,51.46573033892738,-0.12933358122662442,Stockwell,3022.619489079298,51.47182927610112,-0.123016885349951,2164.9843163381097,0.02891182326258309,2,0.8,0.4144559116312916
51.43498423082162,0.0739049143886236,WOOLWICH ARSENAL - DLR,7966.962325013843,51.489985357998016,0.0688912148850038,Woolwich,8198.992699544076,51.491668236437704,0.07214595050906773,LEWISHAM - DLR,9101.921977997146,51.4656534958191,-0.014057517109202628,Abbey Wood,9141.629481656966,51.491074357645864,0.12057216047674105,ELVERSON ROAD - DLR,9501.897067311196,51.46869622022829,-0.016358693464723607,8741.51407976088,0.22110681901682055,2,0.8,0.5105534095084103
51.451011062465234,-0.3715385174549378,Hounslow Central,2974.9693706100743,51.47131964602911,-0.36627277395717445,Hounslow East,3499.2647234539318,51.47326277254156,-0.3563132084539763,Hounslow West,3512.872731099219,51.47361871639353,-0.385772979713366,Osterley,4707.734274002301,51.481243488531945,-0.35219948980178173,Hatton Cross,5204.223340114988,51.46662778937479,-0.42344368101612345,3813.4532667201374,0.07708730399739125,1,1.0,0.5385436519986956
51.47408974752466,-0.111521525906243,Stockwell,1088.4014161315672,51.47182927610112,-0.123016885349951,Oval,1123.2142779068624,51.481838396899654,-0.11238107063105886,Brixton,1679.1744029753527,51.46266775315543,-0.11486935481082039,Nine Elms,1841.0878952744733,51.48014022289899,-0.12946035642401071,Clapham North,2012.2985615641585,51.46573033892738,-0.12933358122662442,1451.499832351094,0.008060682569314163,2,0.8,0.4040303412846571
51.41209231174245,-0.1715983012427317,Colliers Wood,1052.6921064154806,51.418159079977876,-0.17803308894654438,South Wimbledon,2004.9802980142895,51.41498850026229,-0.19328192113707632,Tooting Broadway,2272.3014717748893,51.427675722454374,-0.16836472055651,Morden,2507.113409183173,51.40253724508803,-0.19473027219670863,Wimbledon,3431.9948201106617,51.42143425544057,-0.20649073062441967,1938.715902431233,0.02229926946680783,2,0.8,0.41114963473340393
51.48237286209453,-0.0679719989545798,Bermondsey,2241.1759927999683,51.49770348003495,-0.06433321766482115,Canada Water,2774.8689371301293,51.497921984959426,-0.04996098075543696,Kennington,3534.997882407655,51.48834108236874,-0.10594020447433074,Borough,3553.7970567730554,51.501192691784105,-0.093287413867766,Elephant & Castle,3573.456891848441,51.49583866247047,-0.10116094487967293,3029.0408539287223,0.05416333865863275,3,0.6,0.32708166932931637
51.484213538932565,-0.1831191466110465,Fulham Broadway,1161.7234549857765,51.48076858389101,-0.19474266104252827,West Brompton,1206.5905154172196,51.48728046887337,-0.1955480708404167,Earl's Court,1443.4192583837755,51.49198553743163,-0.1931516639864181,Gloucester Road,1486.9633878549582,51.49448969489053,-0.18371074399620252,South Kensington,1688.507571778233,51.49408964921556,-0.17314093551479268,1370.944166950446,0.005706493304366708,3,0.6,0.3028532466521833
51.50306618595295,-0.2400049305659077,Goldhawk Road,1217.7793664774867,51.501992951126496,-0.2266214631541082,Stamford Brook,1295.6112794982932,51.49491901447832,-0.24597832114672852,Shepherd's Bush Market,1314.245717682891,51.50609178517763,-0.2262724263347779,Ravenscourt Park,1342.6638030093368,51.494168694143745,-0.23575227913466715,Turnham Green,1758.5490969757302,51.494958689122086,-0.2545275752571731,1363.3879822941474,0.005485668503114729,4,0.4,0.20274283425155737
51.55402517237894,-0.0505113175562807,Bethnal Green,3891.744697558816,51.52723886838864,-0.05466345424549399,STRATFORD INTERNATIONAL - DLR,3934.797713597902,51.54484877107612,-0.009426193778977777,Leyton,4078.4525526404955,51.55660540139774,-0.005459613057395526,PUDDING MILL LANE - DLR,4369.851742961877,51.534196770231574,-0.013942896998014478,Mile End,4429.492979286385,51.52523624361827,-0.033740882967349194,4129.200857211769,0.08631483112749978,4,0.4,0.2431574155637499
51.56372303405055,-0.0933816596832292,Manor House,1044.5198172779656,51.570753556351,-0.09603915207846561,Finsbury Park,1202.4959451056038,51.564572648553515,-0.10665342330316399,Arsenal,1452.5091665405355,51.558618236881735,-0.10725918161736345,Holloway Road,2391.2605771400736,51.55275818790897,-0.11323739717918851,Highbury & Islington,2533.9830809109267,51.54742661432923,-0.10371049499403494,1519.6320040270534,0.010051802949977179,2,0.8,0.4050259014749886
51.47385706831062,-0.097131301119084,Oval,1796.773956468981,51.481838396899654,-0.11238107063105886,Kennington,2240.4626496118835,51.48834108236874,-0.10594020447433074,Brixton,2277.0537596099107,51.46266775315543,-0.11486935481082039,Stockwell,2356.073204971627,51.47182927610112,-0.123016885349951,Vauxhall,2986.358861280598,51.485698419511635,-0.12422721164969706,2271.339306182987,0.032019981753002455,2,0.8,0.41600999087650126
51.55179759390765,0.0792142339764975,Ilford,1396.879417123173,51.55901703762676,0.06892040799865062,Barking,1724.9595169132035,51.539886123317935,0.0802089530468054,Seven Kings,2324.8815460935766,51.56394849951275,0.096099334795915,Upney,2801.1852051429437,51.53835560347559,0.10158060702967472,East Ham,2976.6733364962806,51.53940799877854,0.05285335494738618,2067.2502647467327,0.02605560633566798,3,0.6,0.31302780316783396
51.47477707589857,-0.1546936261698175,Battersea Power Station,1227.3400649474634,51.479476819200244,-0.14337610628255198,Nine Elms,2406.9639989994166,51.48014022289899,-0.12946035642401071,Clapham Common,2409.9032677914975,51.46221120939256,-0.13716717677773801,Sloane Square,2543.6463009454133,51.492337989718926,-0.1563109875356802,Clapham North,2637.663714581866,51.46573033892738,-0.12933358122662442,2068.2989814682114,0.026086254430192395,3,0.6,0.3130431272150962
51.457252134486254,-0.1841893112430222,East Putney,2441.0732461213233,51.45914982307664,-0.2110399264406896,Southfields,2684.932286298739,51.44507974989173,-0.20662949274631476,Putney Bridge,2726.7379332174232,51.468255977268214,-0.2087033152868412,Parsons Green,3014.8088858633573,51.47498606823488,-0.2017397326871696,Clapham South,3392.95088789882,51.45323750844449,-0.14718699803775498,2816.4761420462237,0.047951267039193286,2,0.8,0.42397563351959666
51.41970227651986,-0.0849983856999282,Brixton,6774.252956701793,51.46266775315543,-0.11486935481082039,Balham,7027.306978504547,51.44362772683046,-0.1526657783980393,Tooting Bec,7105.6930764312365,51.435899341737425,-0.1592083111530278,Clapham South,7423.613428288014,51.45323750844449,-0.14718699803775498,Tooting Broadway,7624.6615513828765,51.427675722454374,-0.16836472055651,7178.641088559341,0.1754328270006937,2,0.8,0.4877164135003469
51.55205214372502,0.0648010846125308,Ilford,1073.5363335438064,51.55901703762676,0.06892040799865062,Manor Park,1750.1657954896725,51.5521985051404,0.04539047874751819,East Ham,2122.340960272071,51.53940799877854,0.05285335494738618,Barking,2241.8406759691916,51.539886123317935,0.0802089530468054,Seven Kings,3304.656986258436,51.56394849951275,0.096099334795915,1836.3999714731185,0.01930914996252824,3,0.6,0.3096545749812641
51.48398965334184,-0.1687250563409037,South Kensington,1513.9645948648615,51.49408964921556,-0.17314093551479268,Sloane Square,1647.2526287683409,51.492337989718926,-0.1563109875356802,Gloucester Road,2033.650001689902,51.49448969489053,-0.18371074399620252,Battersea Power Station,2380.011871334677,51.479476819200244,-0.14337610628255198,Fulham Broadway,2394.873605101781,51.48076858389101,-0.19474266104252827,1925.2686988460398,0.02190628329797196,4,0.4,0.210953141648986
51.49615027145011,-0.384337009729214,Southall,1586.007704058021,51.50614613228283,-0.3771035436303124,Hounslow West,3260.6507832754596,51.47361871639353,-0.385772979713366,Hayes & Harlington,3313.761562678539,51.50303723137112,-0.41935690170324563,Osterley,3614.3043790186903,51.481243488531945,-0.35219948980178173,Hounslow Central,3943.5501789154923,51.47131964602911,-0.36627277395717445,2826.0880297226263,0.04823216848381701,2,0.8,0.42411608424190855
51.45270020137537,0.0891015268105662,WOOLWICH ARSENAL - DLR,5692.66622692625,51.489985357998016,0.0688912148850038,Woolwich,5839.8147510151575,51.491668236437704,0.07214595050906773,Abbey Wood,6235.101194599546,51.491074357645864,0.12057216047674105,KING GEORGE V - DLR,7532.214970053745,51.50202586586268,0.06231897937750261,LONDON CITY AIRPORT - DLR,8245.656248146743,51.50366796473086,0.048170955147335826,6567.503599677117,0.15757271364208808,2,0.8,0.4787863568210441
51.556333009622485,-0.1946713637534102,West Hampstead,1437.1093141226154,51.546804104148165,-0.19014461999570487,Hampstead,1458.41143073138,51.55659225238286,-0.17849793364354744,Kilburn,1629.3592144596562,51.54695520739804,-0.20469009526410165,Finchley Road,1798.8908062915434,51.54723304699958,-0.18106642213608887,Golders Green,2308.1570646743216,51.572288875812,-0.19399749568271848,1675.3779326336075,0.014603380934731472,3,0.6,0.3073016904673657
51.503281304453736,-0.2544056160191497,Turnham Green,1203.5395207148124,51.494958689122086,-0.2545275752571731,Stamford Brook,1428.5651567260288,51.49491901447832,-0.24597832114672852,Chiswick Park,1783.448147233754,51.49466825400271,-0.2685489968417927,East Acton,2034.3224672177303,51.516598790970214,-0.24713925086544353,Ravenscourt Park,2137.9803178140323,51.494168694143745,-0.23575227913466715,1638.8646901741768,0.013536304112773718,3,0.6,0.30676815205638686
51.38422151491962,-0.1152235153442497,Colliers Wood,7507.4818246501545,51.418159079977876,-0.17803308894654438,Morden,7664.936605547268,51.40253724508803,-0.19473027219670863,Tooting Broadway,7911.186138069446,51.427675722454374,-0.16836472055651,South Wimbledon,8345.657661201316,51.41498850026229,-0.19328192113707632,Tooting Bec,8465.741292201017,51.435899341737425,-0.1592083111530278,7961.607056306984,0.1983145208818527,1,1.0,0.5991572604409263
51.57151523085015,-0.0209009989801951,Walthamstow Central,1679.3045852538778,51.583121461554015,-0.02149009721696701,Leyton,2566.3670399396374,51.55660540139774,-0.005459613057395526,Leytonstone,2663.9255071275293,51.56832221916004,0.008210470401397503,Blackhorse Road,2906.510995687069,51.58684229409946,-0.041768161396529516,STRATFORD INTERNATIONAL - DLR,3992.7031207523937,51.54484877107612,-0.009426193778977777,2557.4945883279447,0.04038269206000776,3,0.6,0.3201913460300039
51.57340504146142,-0.13627007189386,Highgate,1119.2369251613723,51.57784658975153,-0.14644230428628777,Archway,1286.764813167015,51.564540856812656,-0.1350261547508563,Tufnell Park,2402.4783876075808,51.55684688165748,-0.1384398274315375,Finsbury Park,2958.9498785145984,51.564572648553515,-0.10665342330316399,East Finchley,3265.5544278207017,51.58715662440678,-0.1650189133944944,1830.8111179353477,0.019145819190737757,3,0.6,0.3095729095953689
51.59966856078855,-0.0918774511731224,Wood Green,1648.0885335368978,51.59747402372348,-0.10983386762894175,Turnpike Lane,1687.4601911646719,51.590254789519385,-0.10294685906251815,Seven Sisters,2930.2471301286623,51.58339989538407,-0.07248488928732598,Bounds Green,3111.028202221462,51.60706647717479,-0.12431690931299394,Tottenham Hale,3315.8701381956134,51.58805045886335,-0.060139591063478465,2310.904102736214,0.03317623834714994,2,0.8,0.41658811917357497
51.53722838665624,-0.1233286043452076,King's Cross St. Pancras,1083.6880004943316,51.52978710018642,-0.12475052978005514,Mornington Crescent,1435.5407393313362,51.53470697367115,-0.13872430086651955,Euston,1666.1888283251358,51.52808646670192,-0.13457316781860326,Caledonian Road,1691.9799949424767,51.54852596233329,-0.11844747007964432,Camden Town,1761.6965360511879,51.53923273585449,-0.14259744968174543,1480.0752142024885,0.008895780347499558,6,0.0,0.004447890173749779
51.45541302197503,-0.0691104733587148,Brixton,4264.86367552518,51.46266775315543,-0.11486935481082039,DEPTFORD BRIDGE - DLR,5023.596068432824,51.474302836694164,-0.02243708367150416,ELVERSON ROAD - DLR,5137.926726095161,51.46869622022829,-0.016358693464723607,LEWISHAM - DLR,5189.1746818253,51.4656534958191,-0.014057517109202628,Stockwell,5417.195699791354,51.47182927610112,-0.123016885349951,4972.789211363653,0.11096817658125208,3,0.6,0.35548408829062605
51.60888887334227,-0.1059333336814875,Bounds Green,1676.2101269484665,51.60706647717479,-0.12431690931299394,Wood Green,1687.7243889461952,51.59747402372348,-0.10983386762894175,Arnos Grove,2672.9862785510586,51.616455185489194,-0.13301987853029287,Turnpike Lane,2708.1414481961206,51.590254789519385,-0.10294685906251815,Southgate,3908.553259387938,51.632261218475584,-0.12773657427020435,2284.860714359319,0.032415136504904456,1,1.0,0.5162075682524522
51.44546472614583,-0.0119666205944086,LEWISHAM - DLR,2925.6551576478473,51.4656534958191,-0.014057517109202628,ELVERSON ROAD - DLR,3382.9180069430063,51.46869622022829,-0.016358693464723607,DEPTFORD BRIDGE - DLR,4276.270964958768,51.474302836694164,-0.02243708367150416,GREENWICH - DLR,4724.975118350705,51.47812532354829,-0.013428987645855905,CUTTY SARK - DLR,5236.863945924759,51.48167337063602,-0.011056580657622243,3925.1074393580093,0.08035032781208316,1,1.0,0.5401751639060416
51.5821616084291,-0.1214781143564849,Turnpike Lane,2038.8752745634781,51.590254789519385,-0.10294685906251815,Highgate,2334.215372328957,51.57784658975153,-0.14644230428628777,Wood Green,2450.2893361481983,51.59747402372348,-0.10983386762894175,Manor House,2824.1519396160197,51.570753556351,-0.09603915207846561,Archway,2825.567391193902,51.564540856812656,-0.1350261547508563,2457.0134947745346,0.03744619453873328,2,0.8,0.4187230972693667
51.42773492671688,-0.0271214341543079,LEWISHAM - DLR,5609.108698046685,51.4656534958191,-0.014057517109202628,ELVERSON ROAD - DLR,6002.7913234377775,51.46869622022829,-0.016358693464723607,DEPTFORD BRIDGE - DLR,6747.5408203873485,51.474302836694164,-0.02243708367150416,GREENWICH - DLR,7391.310666591774,51.47812532354829,-0.013428987645855905,CUTTY SARK - DLR,7934.021979750359,51.48167337063602,-0.011056580657622243,6627.728907293534,0.15933276083384756,1,1.0,0.5796663804169238
51.47168340426612,0.0323705160298243,CUTTY SARK - DLR,4179.440296673234,51.48167337063602,-0.011056580657622243,WOOLWICH ARSENAL - DLR,4228.517505158424,51.489985357998016,0.0688912148850038,GREENWICH - DLR,4239.813949025401,51.47812532354829,-0.013428987645855905,LEWISHAM - DLR,4283.187563110627,51.4656534958191,-0.014057517109202628,ELVERSON ROAD - DLR,4422.344731361795,51.46869622022829,-0.016358693464723607,4269.086442676658,0.09040290043937815,1,1.0,0.5452014502196891
51.48260922816731,-0.0823645413810594,Kennington,2284.243986985028,51.48834108236874,-0.10594020447433074,Elephant & Castle,2557.2440656593117,51.49583866247047,-0.10116094487967293,Oval,2712.5582235988236,51.481838396899654,-0.11238107063105886,Bermondsey,2722.9370723822744,51.49770348003495,-0.06433321766482115,Borough,2862.5429569142657,51.501192691784105,-0.093287413867766,2612.2298891256964,0.04198229721392038,3,0.6,0.3209911486069602
51.54306652023788,0.0643944137639152,East Ham,1167.5373923066118,51.53940799877854,0.05285335494738618,Barking,1498.4845915843014,51.539886123317935,0.0802089530468054,Manor Park,2163.394083489622,51.5521985051404,0.04539047874751819,Ilford,2342.5568949774706,51.55901703762676,0.06892040799865062,Upton Park,2854.7932647667812,51.535381114708535,0.035237134317064586,1809.461430148831,0.018521887831633208,3,0.6,0.3092609439158166
51.43927757643288,-0.1849021327490581,Wimbledon Park,1485.9838687213019,51.43405489769917,-0.19906206857886732,Southfields,2135.227695484057,51.44507974989173,-0.20662949274631476,Tooting Broadway,2246.9782250230674,51.427675722454374,-0.16836472055651,Tooting Bec,2372.9828181089006,51.435899341737425,-0.1592083111530278,Balham,2980.34150975,51.44362772683046,-0.1526657783980393,2133.7670022933357,0.027999516657713195,2,0.8,0.4139997583288566
51.42938619817168,-0.127750600225951,Tooting Bec,2995.3740197206207,51.435899341737425,-0.1592083111530278,Balham,3051.5872564481847,51.44362772683046,-0.1526657783980393,Tooting Broadway,3679.7235867257227,51.427675722454374,-0.16836472055651,Clapham South,3870.574980314283,51.45323750844449,-0.14718699803775498,Clapham Common,4822.398645809108,51.46221120939256,-0.13716717677773801,3573.901673379853,0.07008655753669328,1,1.0,0.5350432787683467
51.48864251081468,0.0907447118962356,Woolwich,1735.1830275376035,51.491668236437704,0.07214595050906773,WOOLWICH ARSENAL - DLR,1982.5109109578782,51.489985357998016,0.0688912148850038,Abbey Wood,2715.7261776140554,51.491074357645864,0.12057216047674105,KING GEORGE V - DLR,3214.09350081297,51.50202586586268,0.06231897937750261,GALLIONS REACH - DLR,3402.991041554986,51.508981284149876,0.07178457988924161,2434.3535065679994,0.03678397046405967,2,0.8,0.41839198523202986
51.58192966187099,-0.1070539685985032,Turnpike Lane,1259.5180267775818,51.590254789519385,-0.10294685906251815,Manor House,1896.6117891078438,51.570753556351,-0.09603915207846561,Wood Green,2261.83076895582,51.59747402372348,-0.10983386762894175,Finsbury Park,2510.315112068019,51.564572648553515,-0.10665342330316399,Seven Sisters,3121.7952640489034,51.58339989538407,-0.07248488928732598,2014.4921628797413,0.024513783591897605,2,0.8,0.4122568917959488
51.44712926639408,-0.1126338155756815,Brixton,2256.0402811001495,51.46266775315543,-0.11486935481082039,Clapham North,3084.0667981112488,51.46573033892738,-0.12933358122662442,Clapham Common,3109.5690023044167,51.46221120939256,-0.13716717677773801,Clapham South,3244.6155684796067,51.45323750844449,-0.14718699803775498,Balham,3652.766402154733,51.44362772683046,-0.1526657783980393,2992.1169122688643,0.05308425940774639,2,0.8,0.42654212970387323
51.525347698711,0.0491768181459676,Upton Park,1919.9757106716536,51.535381114708535,0.035237134317064586,BECKTON - DLR,1950.4253152380427,51.514417517428555,0.06184131351015285,East Ham,2060.2221684661445,51.53940799877854,0.05285335494738618,BECKTON PARK - DLR,2452.9137657347865,51.50877403246807,0.05495716048801019,ROYAL ALBERT - DLR,2467.195422804613,51.508411071047796,0.045890633937065085,2144.1466104631722,0.028302854256704632,3,0.6,0.3141514271283523
51.437909937653465,-0.0986254428867377,Brixton,3869.3361088534966,51.46266775315543,-0.11486935481082039,Clapham North,4887.010067162095,51.46573033892738,-0.12933358122662442,Clapham South,4916.247251364701,51.45323750844449,-0.14718699803775498,Clapham Common,4947.391358425204,51.46221120939256,-0.13716717677773801,Balham,4953.360436111743,51.44362772683046,-0.1526657783980393,4670.786988970647,0.1021423492926084,2,0.8,0.4510711746463042
51.55655399483296,-0.209088465710409,Kilburn,1443.5664145415953,51.54695520739804,-0.20469009526410165,Willesden Green,1606.8064686318053,51.54937464364035,-0.22269210604112535,West Hampstead,2214.614295579743,51.546804104148165,-0.19014461999570487,Golders Green,2650.9252589729326,51.572288875812,-0.19399749568271848,Hampstead,2757.5349903018464,51.55659225238286,-0.17849793364354744,1994.8161377813274,0.02393876398485765,2,0.8,0.41196938199242883
51.53581255553945,-0.0368695826825264,Mile End,1555.319066829807,51.52523624361827,-0.033740882967349194,Bow Road,1665.0083336324535,51.52690410757654,-0.025175873417555176,BOW CHURCH - DLR,1869.715124303855,51.52766649951704,-0.020772671454633313,Bethnal Green,2028.0636925602355,51.52723886838864,-0.05466345424549399,PUDDING MILL LANE - DLR,2080.92200372044,51.534196770231574,-0.013942896998014478,1816.8402000950775,0.018737527798227425,4,0.4,0.2093687638991137
51.38513096585128,-0.1726731251733246,Morden,3212.0378162240427,51.40253724508803,-0.19473027219670863,South Wimbledon,4702.815004202826,51.41498850026229,-0.19328192113707632,Colliers Wood,4800.605797734018,51.418159079977876,-0.17803308894654438,Wimbledon,6075.728921997089,51.42143425544057,-0.20649073062441967,Tooting Broadway,6164.530832185258,51.427675722454374,-0.16836472055651,4721.069163792945,0.1036118146070109,2,0.8,0.45180590730350545
51.43837309723433,-0.1273832302497128,Balham,2407.90328811986,51.44362772683046,-0.1526657783980393,Clapham South,2796.9194181192142,51.45323750844449,-0.14718699803775498,Tooting Bec,2898.531592588895,51.435899341737425,-0.1592083111530278,Clapham Common,3558.7083286386014,51.46221120939256,-0.13716717677773801,Brixton,3690.6730586953036,51.46266775315543,-0.11486935481082039,2994.385485859393,0.05315055706126342,2,0.8,0.4265752785306317
51.38375619023311,-0.0864998368240967,Colliers Wood,9659.219275311723,51.418159079977876,-0.17803308894654438,Tooting Broadway,9754.977138685796,51.427675722454374,-0.16836472055651,Tooting Bec,10004.69862592459,51.435899341737425,-0.1592083111530278,Morden,10161.116389657174,51.40253724508803,-0.19473027219670863,Balham,10524.247694028385,51.44362772683046,-0.1526657783980393,10011.495284427689,0.2582212305711392,1,1.0,0.6291106152855697
51.42961493670345,-0.1421270473718751,Tooting Bec,1791.5512924461495,51.435899341737425,-0.1592083111530278,Balham,2239.0386555752775,51.44362772683046,-0.1526657783980393,Tooting Broadway,2388.3067730420626,51.427675722454374,-0.16836472055651,Clapham South,3446.4454552006005,51.45323750844449,-0.14718699803775498,Colliers Wood,3644.350526836188,51.418159079977876,-0.17803308894654438,2515.0225555150655,0.03914147329269593,1,1.0,0.519570736646348
51.61764120918628,-0.0911238333961989,Bounds Green,3357.1611265246506,51.60706647717479,-0.12431690931299394,Wood Green,3368.1675440520917,51.59747402372348,-0.10983386762894175,Arnos Grove,3775.7079713736543,51.616455185489194,-0.13301987853029287,Southgate,3915.520464669287,51.632261218475584,-0.12773657427020435,Turnpike Lane,4101.132143591756,51.590254789519385,-0.10294685906251815,3679.587271558385,0.07317515347161618,1,1.0,0.5365875767358081
51.457473925694536,-0.198575275787781,East Putney,1151.7999254993865,51.45914982307664,-0.2110399264406896,Putney Bridge,1807.7192591489602,51.468255977268214,-0.2087033152868412,Southfields,1934.3438028076591,51.44507974989173,-0.20662949274631476,Parsons Green,2548.4215965439207,51.47498606823488,-0.2017397326871696,Fulham Broadway,3386.277311097604,51.48076858389101,-0.19474266104252827,1903.9857624563726,0.021284302706961772,1,1.0,0.5106421513534809
51.39297656510424,-0.1004892724788577,Colliers Wood,7902.458376556299,51.418159079977876,-0.17803308894654438,Tooting Broadway,7928.252880863795,51.427675722454374,-0.16836472055651,Tooting Bec,8168.268175459133,51.435899341737425,-0.1592083111530278,Morden,8636.313640484412,51.40253724508803,-0.19473027219670863,Balham,8712.445827889045,51.44362772683046,-0.1526657783980393,8255.35406505992,0.20689909468156245,1,1.0,0.6034495473407813
51.612047872663936,0.2264046678846168,Harold Wood,2792.189452231559,51.59344147206972,0.23467882167608276,Gidea Park,4701.377858511674,51.58206113794098,0.2062522935798357,Romford,6705.708783479041,51.57469146078035,0.1823104268842422,Brentwood,6707.93088386902,51.61355628456177,0.3008636165143831,Upminster Bridge,7791.285541257236,51.558497591864246,0.235853642203452,5013.044213275933,0.11214460399813202,2,0.8,0.456072301999066
51.48213468742346,-0.0535795836712071,Canada Water,2306.262190385732,51.497921984959426,-0.04996098075543696,Bermondsey,2451.8061426745066,51.49770348003495,-0.06433321766482115,DEPTFORD BRIDGE - DLR,3031.7230594121465,51.474302836694164,-0.02243708367150416,GREENWICH - DLR,3671.6068940276064,51.47812532354829,-0.013428987645855905,MUDCHUTE - DLR,3705.4766002566116,51.49088632239823,-0.015005815070749464,2917.93393588107,0.05091630801928214,2,0.8,0.4254581540096411
51.51661276122458,0.034371436387366,PRINCE REGENT - DLR,1047.5447482147451,51.509369678637576,0.03421726118998984,Custom House,1110.9518078511535,51.50982669208105,0.028600872419654706,CUSTOM HOUSE - DLR,1219.3108768046818,51.5097363194669,0.026552314998290878,ROYAL ALBERT - DLR,1577.105372047056,51.508411071047796,0.045890633937065085,ROYAL VICTORIA - DLR,1840.642501988196,51.509231665082474,0.01775358236130825,1297.9464014849486,0.0035731789686298233,2,0.8,0.40178658948431495
51.4641616179737,-0.0543445764898781,DEPTFORD BRIDGE - DLR,3233.5835685108095,51.474302836694164,-0.02243708367150416,ELVERSON ROAD - DLR,3493.2254345362844,51.46869622022829,-0.016358693464723607,LEWISHAM - DLR,3645.4921585799793,51.4656534958191,-0.014057517109202628,GREENWICH - DLR,4211.090811397427,51.47812532354829,-0.013428987645855905,CUTTY SARK - DLR,4658.00395437109,51.48167337063602,-0.011056580657622243,3782.1866554541343,0.07617355671186367,1,1.0,0.5380867783559319
51.4482648657167,-0.1845458045662406,Southfields,2047.9329448948258,51.44507974989173,-0.20662949274631476,Wimbledon Park,2437.860425315207,51.43405489769917,-0.19906206857886732,East Putney,2864.79378449999,51.45914982307664,-0.2110399264406896,Tooting Bec,2905.213818337613,51.435899341737425,-0.1592083111530278,Balham,2957.7438996579326,51.44362772683046,-0.1526657783980393,2590.858109744778,0.04135772024169692,2,0.8,0.4206788601208485
51.45588354427002,-0.0978787502881031,Brixton,1821.6387879360193,51.46266775315543,-0.11486935481082039,Clapham North,3178.2782110724706,51.46573033892738,-0.12933358122662442,Stockwell,3236.21424518438,51.47182927610112,-0.123016885349951,Clapham Common,3665.301323474361,51.46221120939256,-0.13716717677773801,Oval,3975.2758888154085,51.481838396899654,-0.11238107063105886,2946.4128048447283,0.05174858526829547,2,0.8,0.4258742926341478
51.411640759075325,-0.1428556547133309,Tooting Broadway,3270.484191021939,51.427675722454374,-0.16836472055651,Colliers Wood,3317.5886321251596,51.418159079977876,-0.17803308894654438,Tooting Bec,3806.7330196676817,51.435899341737425,-0.1592083111530278,South Wimbledon,4585.489331851327,51.41498850026229,-0.19328192113707632,Balham,4709.741731636656,51.44362772683046,-0.1526657783980393,3845.306647798434,0.07801819926607091,1,1.0,0.5390090996330354
51.52082392553972,-0.2249054742545409,Latimer Road,1241.5399983355503,51.513460099025096,-0.21783010222149793,White City,1245.3757034995167,51.51221664617867,-0.22443847145144272,Ladbroke Grove,1363.0938315903554,51.517322062930354,-0.21087783236229768,Kensal Green,1410.441704246118,51.5305735728437,-0.22445465030672695,Wood Lane,1549.391718367617,51.510141982020784,-0.2235661927939285,1352.64573241682,0.00517173292556336,4,0.4,0.2025858664627817
51.60013458476637,-0.1207369286138367,Bounds Green,1053.009947682973,51.60706647717479,-0.12431690931299394,Wood Green,1054.644310313777,51.59747402372348,-0.10983386762894175,Turnpike Lane,2146.8058476880237,51.590254789519385,-0.10294685906251815,Arnos Grove,2606.4805016633,51.616455185489194,-0.13301987853029287,Highgate,3968.7190249326977,51.57784658975153,-0.14644230428628777,1667.0648093735656,0.014360435073138248,2,0.8,0.40718021753656913
51.36737958794997,-0.1877460340627019,Morden,5123.122410394641,51.40253724508803,-0.19473027219670863,South Wimbledon,6902.712104730362,51.41498850026229,-0.19328192113707632,Colliers Wood,7395.390643115209,51.418159079977876,-0.17803308894654438,Wimbledon,7998.414387654074,51.42143425544057,-0.20649073062441967,Tooting Broadway,8893.65737759302,51.427675722454374,-0.16836472055651,7015.103309141477,0.17065353701774755,2,0.8,0.4853267685088738
51.40196318808742,-0.100116664277255,Tooting Broadway,7204.94031496084,51.427675722454374,-0.16836472055651,Tooting Bec,7254.641608063535,51.435899341737425,-0.1592083111530278,Colliers Wood,7425.3819166712865,51.418159079977876,-0.17803308894654438,Balham,7672.843395061214,51.44362772683046,-0.1526657783980393,Clapham South,8548.909686250021,51.45323750844449,-0.14718699803775498,7591.7069560297805,0.1875044203030227,1,1.0,0.5937522101515114
51.45702855311891,-0.1698035488370833,Clapham South,2115.5330605412423,51.45323750844449,-0.14718699803775498,Balham,2480.514688474925,51.44362772683046,-0.1526657783980393,Clapham Common,3041.996561325378,51.46221120939256,-0.13716717677773801,Tooting Bec,3201.8895499431264,51.435899341737425,-0.1592083111530278,East Putney,3737.784653705892,51.45914982307664,-0.2110399264406896,2802.0286408557326,0.047529047794416295,2,0.8,0.42376452389720815
51.4636803276482,-0.025571886006557,LEWISHAM - DLR,1078.524198785655,51.4656534958191,-0.014057517109202628,ELVERSON ROAD - DLR,1103.9449141999594,51.46869622022829,-0.016358693464723607,DEPTFORD BRIDGE - DLR,1562.0086912814306,51.474302836694164,-0.02243708367150416,GREENWICH - DLR,2359.2999162738934,51.47812532354829,-0.013428987645855905,CUTTY SARK - DLR,2913.570321792576,51.48167337063602,-0.011056580657622243,1543.0610099862777,0.010736501090614125,1,1.0,0.5053682505453071
51.55102312373258,0.122452459737849,Becontree,1606.5684192031906,51.540345614496864,0.12736893625437312,Goodmayes,2339.030227771994,51.5657880265678,0.11186181352036285,Chadwell Heath,2514.1043887173155,51.568020571271155,0.1283016945365458,Upney,2626.523772051803,51.53835560347559,0.10158060702967472,Dagenham Heathway,2640.0731314301133,51.5416184486541,0.1475466339518699,2265.275518452282,0.03184277132454225,2,0.8,0.41592138566227116
51.42915555811377,-0.1133744485226306,Balham,4122.023224858145,51.44362772683046,-0.1526657783980393,Tooting Bec,4256.157304725452,51.435899341737425,-0.1592083111530278,Clapham South,4633.002814675426,51.45323750844449,-0.14718699803775498,Brixton,4848.000804405914,51.46266775315543,-0.11486935481082039,Tooting Broadway,4975.612736865082,51.427675722454374,-0.16836472055651,4542.784073121427,0.09840154361649042,2,0.8,0.44920077180824525
51.598472648630384,-0.0197303168455248,Walthamstow Central,2225.759875126199,51.583121461554015,-0.02149009721696701,Blackhorse Road,2601.818427505846,51.58684229409946,-0.041768161396529516,Tottenham Hale,3939.511075771073,51.58805045886335,-0.060139591063478465,South Woodford,4349.465034472436,51.59189362934642,0.027388706541122812,Snaresbrook,4512.593997938225,51.58067843566125,0.021420000139433203,3248.893911575603,0.06058840765414001,2,0.8,0.43029420382707
51.5507616722932,0.1368649108742922,Dagenham Heathway,1635.9076501588754,51.5416184486541,0.1475466339518699,Becontree,1732.7323325115474,51.540345614496864,0.12736893625437312,Chadwell Heath,2612.6557109419105,51.568020571271155,0.1283016945365458,Dagenham East,2795.4097523943838,51.54416174314231,0.16600377979561015,Goodmayes,3130.9531342677733,51.5657880265678,0.11186181352036285,2223.9244560568036,0.030634312221120525,2,0.8,0.4153171561105603
51.46623935232899,-0.1838326805022724,Parsons Green,2053.1000709914783,51.47498606823488,-0.2017397326871696,Putney Bridge,2265.1419473560168,51.468255977268214,-0.2087033152868412,Fulham Broadway,2320.5592600558434,51.48076858389101,-0.19474266104252827,East Putney,2662.8243949135644,51.45914982307664,-0.2110399264406896,West Brompton,3221.350752940606,51.48728046887337,-0.1955480708404167,2444.459147941637,0.037079301553672096,1,1.0,0.5185396507768361
51.66209897676391,-0.0603355287939335,Oakwood,6726.073189388654,51.64733639621023,-0.13124277946983365,Southgate,7442.4317468445,51.632261218475584,-0.12773657427020435,Cockfosters,8132.387238549975,51.65153150516335,-0.14913729316227967,Arnos Grove,9292.24517478461,51.616455185489194,-0.13301987853029287,Bounds Green,9822.94676971367,51.60706647717479,-0.12431690931299394,8124.479626135551,0.20307437052790545,1,1.0,0.6015371852639527
51.5567731573455,-0.2235056330880211,Willesden Green,1072.3725160081094,51.54937464364035,-0.22269210604112535,Dollis Hill,1561.6318928826702,51.551964185681975,-0.23901638523553653,Kilburn,2212.0028337788726,51.54695520739804,-0.20469009526410165,Neasden,2514.6559989848583,51.55442856977583,-0.25114679891952135,Brent Cross,3008.555357063001,51.576671975889624,-0.2137597702763802,1814.8815806700918,0.01868028836259635,2,0.8,0.4093401441812982
51.43814239611074,-0.1130042459338089,Brixton,3550.5513339088625,51.46266775315543,-0.11486935481082039,Balham,3671.088248392635,51.44362772683046,-0.1526657783980393,Clapham South,3782.343537279213,51.45323750844449,-0.14718699803775498,Clapham Common,4108.593811861286,51.46221120939256,-0.13716717677773801,Tooting Bec,4188.567162859596,51.435899341737425,-0.1592083111530278,3844.471318203449,0.07799378727772191,2,0.8,0.43899689363886096
51.5515412322254,0.0936271419284166,Seven Kings,1808.1456274110092,51.56394849951275,0.096099334795915,Upney,2037.310664589578,51.53835560347559,0.10158060702967472,Barking,2074.878563562015,51.539886123317935,0.0802089530468054,Ilford,2475.8965956875827,51.55901703762676,0.06892040799865062,Goodmayes,2635.8019958519194,51.5657880265678,0.11186181352036285,2165.3109867795556,0.028921370003245,3,0.6,0.3144606850016225
51.39320841919721,-0.1148538839213161,Colliers Wood,6757.938410689214,51.418159079977876,-0.17803308894654438,Tooting Broadway,6947.002037598264,51.427675722454374,-0.16836472055651,Morden,7350.333103898926,51.40253724508803,-0.19473027219670863,Tooting Bec,7361.928789501597,51.435899341737425,-0.1592083111530278,South Wimbledon,7761.303207270325,51.41498850026229,-0.19328192113707632,7218.677258109471,0.1766028591777698,1,1.0,0.5883014295888849
51.55886604138723,-0.3676892326685176,Northolt,1535.9788099026034,51.54826023603043,-0.3686291206057346,South Harrow,1630.0915951722748,51.56455092187521,-0.35207122891969983,Rayners Lane,2385.3558274169013,51.57519704851259,-0.37142479120741934,Sudbury Hill,2815.5455523689125,51.55696668797242,-0.3366020054180998,South Ruislip,2823.260822560076,51.55686140180025,-0.3988455279896942,2089.3322515570553,0.02670093867870086,3,0.6,0.3133504693393504
51.43696242838256,-0.0411122531751145,LEWISHAM - DLR,4815.659686602382,51.4656534958191,-0.014057517109202628,ELVERSON ROAD - DLR,5105.072588063851,51.46869622022829,-0.016358693464723607,DEPTFORD BRIDGE - DLR,5657.300054041165,51.474302836694164,-0.02243708367150416,GREENWICH - DLR,6456.676692752801,51.47812532354829,-0.013428987645855905,CUTTY SARK - DLR,7012.688927638858,51.48167337063602,-0.011056580657622243,5696.192479346154,0.132109187573368,1,1.0,0.566054593786684
51.40172929218829,-0.0857494664462877,Tooting Bec,8278.43187723416,51.435899341737425,-0.1592083111530278,Tooting Broadway,8359.875679380999,51.427675722454374,-0.16836472055651,Balham,8562.208619725225,51.44362772683046,-0.1526657783980393,Colliers Wood,8677.292978745423,51.418159079977876,-0.17803308894654438,Brixton,9196.950427774986,51.46266775315543,-0.11486935481082039,8603.155069258115,0.2170633629096137,2,0.8,0.5085316814548069
51.5250952133044,0.0635816898897382,BECKTON - DLR,1552.1367957972452,51.514417517428555,0.06184131351015285,East Ham,2284.9000818399654,51.53940799877854,0.05285335494738618,CYPRUS - DLR,2400.3760004161013,51.508498741918984,0.06396610683495485,GALLIONS REACH - DLR,2445.0600550237746,51.508981284149876,0.07178457988924161,BECKTON PARK - DLR,2485.279285045444,51.50877403246807,0.05495716048801019,2164.607506378809,0.028900811225668004,3,0.6,0.314450405612834
51.45420625299663,0.0028067701905214,LEWISHAM - DLR,2249.7860567712796,51.4656534958191,-0.014057517109202628,ELVERSON ROAD - DLR,2718.173492525164,51.46869622022829,-0.016358693464723607,DEPTFORD BRIDGE - DLR,3694.0544935770245,51.474302836694164,-0.02243708367150416,GREENWICH - DLR,3757.0734204701253,51.47812532354829,-0.013428987645855905,CUTTY SARK - DLR,4164.821291472171,51.48167337063602,-0.011056580657622243,3145.92624384124,0.05757924154755648,1,1.0,0.5287896207737782
51.59114810356267,-0.1211076061578936,Wood Green,1366.7831671705333,51.59747402372348,-0.10983386762894175,Turnpike Lane,1641.0039203021433,51.590254789519385,-0.10294685906251815,Bounds Green,2320.0889579289387,51.60706647717479,-0.12431690931299394,Highgate,2984.9030221498306,51.57784658975153,-0.14644230428628777,Manor House,3714.7735520831725,51.570753556351,-0.09603915207846561,2104.1462836933097,0.027133869562609568,2,0.8,0.4135669347813048
51.41186732126477,-0.1572268631481764,Colliers Wood,2089.8032207504493,51.418159079977876,-0.17803308894654438,Tooting Broadway,2497.941234532914,51.427675722454374,-0.16836472055651,South Wimbledon,3291.4023157272377,51.41498850026229,-0.19328192113707632,Tooting Bec,3479.74234656614,51.435899341737425,-0.1592083111530278,Morden,3650.223856841516,51.40253724508803,-0.19473027219670863,2866.9742942818334,0.04942704415929387,1,1.0,0.5247135220796469
51.61787526982209,-0.1055591793637747,Bounds Green,2301.2382681728263,51.60706647717479,-0.12431690931299394,Arnos Grove,2480.7382341849443,51.616455185489194,-0.13301987853029287,Southgate,2883.275434066663,51.632261218475584,-0.12773657427020435,Wood Green,2975.3305712580027,51.59747402372348,-0.10983386762894175,Turnpike Lane,4001.2387562678678,51.590254789519385,-0.10294685906251815,2824.0578849447606,0.04817283876419307,1,1.0,0.5240864193820965
51.56597788268997,-0.2375751828439378,Dollis Hill,2030.6064437841508,51.551964185681975,-0.23901638523553653,Neasden,2070.126253129916,51.55442856977583,-0.25114679891952135,Brent Cross,2645.2276981746727,51.576671975889624,-0.2137597702763802,Hendon Central,2685.542591060724,51.58317462862065,-0.22632123704930582,Willesden Green,2750.3327303718042,51.54937464364035,-0.22269210604112535,2392.891846334949,0.03557227920755917,2,0.8,0.4177861396037796
51.616444285200856,-0.0189482504579632,Blackhorse Road,4748.743107828313,51.58684229409946,-0.041768161396529516,Walthamstow Central,4824.5865912187855,51.583121461554015,-0.02149009721696701,Woodford,4968.047451231497,51.6068623985304,0.03403805532136056,South Woodford,5478.9156518906575,51.59189362934642,0.027388706541122812,Tottenham Hale,5533.7169976933155,51.58805045886335,-0.060139591063478465,5089.741124412577,0.11438602356750056,2,0.8,0.4571930117837503
51.47965696185598,0.0903335914939069,Woolwich,2390.3983320434572,51.491668236437704,0.07214595050906773,WOOLWICH ARSENAL - DLR,2445.275920391943,51.489985357998016,0.0688912148850038,Abbey Wood,3190.6893033570695,51.491074357645864,0.12057216047674105,KING GEORGE V - DLR,4106.259047205179,51.50202586586268,0.06231897937750261,GALLIONS REACH - DLR,4559.409969029953,51.508981284149876,0.07178457988924161,3118.0597546611743,0.056764860717192715,2,0.8,0.42838243035859636
51.471433016254906,0.0467590934422317,WOOLWICH ARSENAL - DLR,3345.499963231462,51.489985357998016,0.0688912148850038,Woolwich,3717.3133893941144,51.491668236437704,0.07214595050906773,PONTOON DOCK - DLR,4624.941329084498,51.50228212418493,0.033252979941393666,KING GEORGE V - DLR,4641.916630002275,51.50202586586268,0.06231897937750261,LONDON CITY AIRPORT - DLR,4663.446435567228,51.50366796473086,0.048170955147335826,4118.611496547024,0.08600536364218249,2,0.8,0.44300268182109126
51.56000831989883,0.1228706342172439,Chadwell Heath,1257.8999151707947,51.568020571271155,0.1283016945365458,Goodmayes,1297.4427993751078,51.5657880265678,0.11186181352036285,Seven Kings,2479.5197999283496,51.56394849951275,0.096099334795915,Becontree,2872.421986895722,51.540345614496864,0.12736893625437312,Dagenham Heathway,3467.4513854587776,51.5416184486541,0.1475466339518699,1918.9724535421262,0.021722279441381262,2,0.8,0.41086113972069066
51.594351302655774,0.2111008157348953,Gidea Park,1830.341466372416,51.58206113794098,0.2062522935798357,Harold Wood,2128.0162913291774,51.59344147206972,0.23467882167608276,Romford,3848.823196750951,51.57469146078035,0.1823104268842422,Upminster Bridge,5644.6591791195215,51.558497591864246,0.235853642203452,Hornchurch,5873.199795374612,51.554050484644705,0.2191338382742129,3079.7458545217164,0.05564516079344465,2,0.8,0.42782258039672233
51.4386019750259,-0.1417624712711355,Balham,1224.3804810552517,51.44362772683046,-0.1526657783980393,Tooting Bec,1624.4617289080506,51.435899341737425,-0.1592083111530278,Clapham South,2172.416587329189,51.45323750844449,-0.14718699803775498,Tooting Broadway,2877.1479700169034,51.427675722454374,-0.16836472055651,Clapham Common,3439.224741969101,51.46221120939256,-0.13716717677773801,1975.523587366733,0.02337495118716545,1,1.0,0.5116874755935827
51.46858330045748,-0.3421174994609735,Hounslow East,1449.62175355208,51.47326277254156,-0.3563132084539763,Osterley,2044.562000570512,51.481243488531945,-0.35219948980178173,Hounslow Central,2217.0933204571543,51.47131964602911,-0.36627277395717445,Richmond,3739.756388193324,51.46311840473405,-0.3016467054337033,Hounslow West,4009.1727950359996,51.47361871639353,-0.385772979713366,2329.044036466744,0.033706366638473415,2,0.8,0.4168531833192367
51.402195233972215,-0.1144840457205715,Tooting Broadway,6108.58482052876,51.427675722454374,-0.16836472055651,Colliers Wood,6193.317348390754,51.418159079977876,-0.17803308894654438,Tooting Bec,6333.025767900418,51.435899341737425,-0.1592083111530278,Balham,6914.740420476818,51.44362772683046,-0.1526657783980393,Morden,7258.342807382968,51.40253724508803,-0.19473027219670863,6532.003892667929,0.15653525676386415,1,1.0,0.5782676283819321
51.55378499899125,-0.0360958807544892,STRATFORD INTERNATIONAL - DLR,2729.8720481875393,51.54484877107612,-0.009426193778977777,Leyton,2791.815557427235,51.55660540139774,-0.005459613057395526,Stratford,3396.556751619656,51.54143892219933,-0.004050193323242832,Stratford,3416.0830954051803,51.541458210643015,-0.003776950428858115,PUDDING MILL LANE - DLR,3466.26618712351,51.534196770231574,-0.013942896998014478,3124.705131730749,0.05695906773268831,3,0.6,0.32847953386634415
51.42039930192741,-0.1281177644723996,Tooting Bec,3594.8637864023144,51.435899341737425,-0.1592083111530278,Tooting Broadway,3787.6634585829447,51.427675722454374,-0.16836472055651,Balham,4025.7137655920696,51.44362772683046,-0.1526657783980393,Colliers Wood,4524.705446520848,51.418159079977876,-0.17803308894654438,Clapham South,5051.726746865054,51.45323750844449,-0.14718699803775498,4133.755777098236,0.08644794583080566,1,1.0,0.5432239729154028
51.59489172705669,0.1822510705908154,Gidea Park,2849.348474024367,51.58206113794098,0.2062522935798357,Romford,2921.400227759196,51.57469146078035,0.1823104268842422,Harold Wood,4727.437513396074,51.59344147206972,0.23467882167608276,Chadwell Heath,6223.31691460989,51.568020571271155,0.1283016945365458,Elm Park,6698.5335750474605,51.54972145979434,0.19869376414095105,4116.0307672189065,0.0859299434312045,2,0.8,0.4429649717156023
51.50433041305936,-0.3264112710793983,Boston Manor,1319.5457633681904,51.495220105268935,-0.3255735048107276,Northfields,1388.503801411148,51.49965529858576,-0.31297296041616224,West Ealing,1404.872171587764,51.51347124137933,-0.3211365656440236,Hanwell,1520.0262153005583,51.511782580692746,-0.3382911620071243,South Ealing,1778.7874576373063,51.500900326006715,-0.3074832071773945,1466.3148486830928,0.008493642215731933,2,0.8,0.404246821107866
51.49986760506431,-0.0384154605604218,Canada Water,1079.4152888427654,51.497921984959426,-0.04996098075543696,HERON QUAYS - DLR,1613.3625063846468,51.50333329307983,-0.021424319605413522,WESTFERRY - DLR,1738.8631646835217,51.50950472196647,-0.02689269973073619,CANARY WHARF - DLR,1751.719371261024,51.50512355965997,-0.02092884206284268,SOUTH QUAY - DLR,1755.1480326602587,51.5006124753315,-0.01900629922288873,1532.8209542863217,0.01043724182583861,2,0.8,0.4052186209129193
51.4279759680387,-0.0414965028401611,LEWISHAM - DLR,5986.25924112412,51.4656534958191,-0.014057517109202628,ELVERSON ROAD - DLR,6311.5345562058255,51.46869622022829,-0.016358693464723607,DEPTFORD BRIDGE - DLR,6917.181716149445,51.474302836694164,-0.02243708367150416,GREENWICH - DLR,7682.770869517805,51.47812532354829,-0.013428987645855905,CUTTY SARK - DLR,8237.88560157269,51.48167337063602,-0.011056580657622243,6928.964014014258,0.16813616964364592,1,1.0,0.5840680848218229
51.436233939397255,0.0020208182110684,LEWISHAM - DLR,4495.662383988471,51.4656534958191,-0.014057517109202628,ELVERSON ROAD - DLR,4979.545339189196,51.46869622022829,-0.016358693464723607,DEPTFORD BRIDGE - DLR,5932.179750065999,51.474302836694164,-0.02243708367150416,GREENWICH - DLR,6216.766790251543,51.47812532354829,-0.013428987645855905,CUTTY SARK - DLR,6676.499289857357,51.48167337063602,-0.011056580657622243,5540.382971964493,0.12755575153841833,1,1.0,0.5637778757692091
51.44689674811856,-0.0982521932522298,Brixton,2730.396472766547,51.46266775315543,-0.11486935481082039,Clapham North,3911.797526938524,51.46573033892738,-0.12933358122662442,Clapham Common,4155.184414998073,51.46221120939256,-0.13716717677773801,Stockwell,4243.121903447636,51.47182927610112,-0.123016885349951,Clapham South,4515.62781789763,51.45323750844449,-0.14718699803775498,3788.808730080951,0.07636708272794954,2,0.8,0.4381835413639748
51.36601617512738,-0.1016050375347373,Morden,9944.721342660598,51.40253724508803,-0.19473027219670863,Colliers Wood,10230.664873191245,51.418159079977876,-0.17803308894654438,Tooting Broadway,10769.181962678544,51.427675722454374,-0.16836472055651,South Wimbledon,10906.316227400865,51.41498850026229,-0.19328192113707632,Tooting Bec,11369.826091922656,51.435899341737425,-0.1592083111530278,10620.201469518977,0.27601029058723964,1,1.0,0.6380051452936198
51.63561385335183,-0.0903682606600564,Southgate,3397.687125631497,51.632261218475584,-0.12773657427020435,Oakwood,4049.7324405773206,51.64733639621023,-0.13124277946983365,Arnos Grove,4734.383145409915,51.616455185489194,-0.13301987853029287,Bounds Green,5136.396128014567,51.60706647717479,-0.12431690931299394,Cockfosters,5766.9977209100225,51.65153150516335,-0.14913729316227967,4462.062670965103,0.09604251079784529,1,1.0,0.5480212553989227
51.53279113447295,0.136023631201506,Becontree,1342.7097101354782,51.540345614496864,0.12736893625437312,Dagenham Heathway,1646.125115965034,51.5416184486541,0.1475466339518699,Dagenham East,3164.589567914359,51.54416174314231,0.16600377979561015,Upney,3208.9994872654734,51.53835560347559,0.10158060702967472,Barking,5137.435266623054,51.539886123317935,0.0802089530468054,2299.358163080118,0.03283881543521787,2,0.8,0.41641940771760894
51.48487455244063,-0.2263025044081084,Hammersmith (Dist&Picc Line),1072.2388112469928,51.49200046267627,-0.2230186338960408,Hammersmith (H&C Line),1294.6426957832844,51.49378497307084,-0.22490610415709966,Barons Court,1311.4786186876534,51.49029929831061,-0.2146606707385376,Ravenscourt Park,1591.8683381572357,51.494168694143745,-0.23575227913466715,West Kensington,2069.2126933041454,51.49079150477593,-0.20543346956943115,1397.0350253191411,0.006468982427625224,3,0.6,0.3032344912138126
51.44642637604302,-0.06948956605555,Brixton,4725.014200570156,51.46266775315543,-0.11486935481082039,LEWISHAM - DLR,5728.198265010916,51.4656534958191,-0.014057517109202628,ELVERSON ROAD - DLR,5780.3108365816315,51.46869622022829,-0.016358693464723607,DEPTFORD BRIDGE - DLR,5858.231512287009,51.474302836694164,-0.02243708367150416,Stockwell,6072.644407225571,51.47182927610112,-0.123016885349951,5589.161938567395,0.1289812865266857,3,0.6,0.36449064326334285
51.44522011001963,0.0024137050517059,LEWISHAM - DLR,3308.513077805462,51.4656534958191,-0.014057517109202628,ELVERSON ROAD - DLR,3795.019032921394,51.46869622022829,-0.016358693464723607,DEPTFORD BRIDGE - DLR,4767.430921815536,51.474302836694164,-0.02243708367150416,GREENWICH - DLR,4969.093982363828,51.47812532354829,-0.013428987645855905,CUTTY SARK - DLR,5410.239327299312,51.48167337063602,-0.011056580657622243,4304.448156063877,0.09143632453974775,1,1.0,0.5457181622698739
51.58416807942873,-0.2513054868247903,Colindale,1636.0431829962863,51.59544842589615,-0.2499130800880574,Hendon Central,2255.3814383130366,51.58317462862065,-0.22632123704930582,Kingsbury,2461.6564999807642,51.58464322697491,-0.2786209852413163,Burnt Oak,2930.7658665707977,51.602836824142564,-0.2639696317085301,Queensbury,3461.6364189391415,51.59419954633909,-0.28619819535279867,2391.276128834425,0.03552506086759507,2,0.8,0.4177625304337976
51.43647847355187,-0.0123566838382553,LEWISHAM - DLR,4221.869205252476,51.4656534958191,-0.014057517109202628,ELVERSON ROAD - DLR,4673.097106469263,51.46869622022829,-0.016358693464723607,DEPTFORD BRIDGE - DLR,5545.164772893903,51.474302836694164,-0.02243708367150416,GREENWICH - DLR,6023.427943274916,51.47812532354829,-0.013428987645855905,CUTTY SARK - DLR,6536.7956352417905,51.48167337063602,-0.011056580657622243,5262.113105949735,0.11942348761790902,1,1.0,0.5597117438089545
51.45445096013062,-0.0115763501212779,LEWISHAM - DLR,1635.462202772838,51.4656534958191,-0.014057517109202628,ELVERSON ROAD - DLR,2104.8591204459362,51.46869622022829,-0.016358693464723607,DEPTFORD BRIDGE - DLR,3033.831632272517,51.474302836694164,-0.02243708367150416,GREENWICH - DLR,3427.6953701089174,51.47812532354829,-0.013428987645855905,CUTTY SARK - DLR,3936.9773684089855,51.48167337063602,-0.011056580657622243,2548.55184519103,0.04012134594875167,1,1.0,0.5200606729743759
51.59822819913655,-0.0053017365477447,Walthamstow Central,2626.7699115605637,51.583121461554015,-0.02149009721696701,South Woodford,3083.7404275736603,51.59189362934642,0.027388706541122812,Snaresbrook,3498.001556716074,51.58067843566125,0.021420000139433203,Blackhorse Road,3674.3617759094554,51.58684229409946,-0.041768161396529516,Woodford,3756.482962265942,51.6068623985304,0.03403805532136056,3269.646543157338,0.06119489041666384,2,0.8,0.43059744520833193
51.42724773696235,0.0016281282270253,LEWISHAM - DLR,5731.989336660782,51.4656534958191,-0.014057517109202628,ELVERSON ROAD - DLR,6210.440733943808,51.46869622022829,-0.016358693464723607,DEPTFORD BRIDGE - DLR,7143.746606640052,51.474302836694164,-0.02243708367150416,GREENWICH - DLR,7482.277971524401,51.47812532354829,-0.013428987645855905,CUTTY SARK - DLR,7953.652994457789,51.48167337063602,-0.011056580657622243,6804.213688031628,0.16449041888525617,1,1.0,0.582245209442628
51.40505153060354,-0.3012827909088202,Richmond,8396.782109007445,51.46311840473405,-0.3016467054337033,Wimbledon,8892.874435473566,51.42143425544057,-0.20649073062441967,Morden,9643.797231814147,51.40253724508803,-0.19473027219670863,South Wimbledon,9871.761314033967,51.41498850026229,-0.19328192113707632,Wimbledon Park,10149.110389035342,51.43405489769917,-0.19906206857886732,9344.636956377308,0.23873271031214838,2,0.8,0.5193663551560742
51.60865484547255,-0.0915007671199389,Wood Green,2310.9249684033834,51.59747402372348,-0.10983386762894175,Turnpike Lane,2853.6649028892316,51.590254789519385,-0.10294685906251815,Bounds Green,2963.868022067369,51.60706647717479,-0.12431690931299394,Arnos Grove,3904.7105070509397,51.616455185489194,-0.13301987853029287,Seven Sisters,4033.859134481814,51.58339989538407,-0.07248488928732598,3077.769382560796,0.05558739962854425,2,0.8,0.4277936998142721
51.53357043510304,0.0928027186380678,Upney,1051.5175403309565,51.53835560347559,0.10158060702967472,Barking,1457.5095070344894,51.539886123317935,0.0802089530468054,Becontree,3267.8695833901506,51.540345614496864,0.12736893625437312,East Ham,3700.602920378431,51.53940799877854,0.05285335494738618,BECKTON - DLR,3933.6788431666196,51.514417517428555,0.06184131351015285,2026.2937434395933,0.024858677450389558,3,0.6,0.3124293387251948
51.55974685256878,0.137285905604162,Chadwell Heath,1444.8395008222017,51.568020571271155,0.1283016945365458,Goodmayes,2452.5829119929263,51.5657880265678,0.11186181352036285,Dagenham Heathway,2780.1846721161223,51.5416184486541,0.1475466339518699,Becontree,2944.8441930519166,51.540345614496864,0.12736893625437312,Dagenham East,3432.8064260892465,51.54416174314231,0.16600377979561015,2391.859799115811,0.03554211826888241,2,0.8,0.41777105913444124
51.480669286804535,0.0327699646348348,PONTOON DOCK - DLR,3125.8712379323356,51.50228212418493,0.033252979941393666,WEST SILVERTOWN - DLR,3349.0036241228254,51.50289355637468,0.022343645286838854,WOOLWICH ARSENAL - DLR,3528.6449915864264,51.489985357998016,0.0688912148850038,LONDON CITY AIRPORT - DLR,3604.8636312722933,51.50366796473086,0.048170955147335826,North Greenwich,3854.026094761486,51.50053493338787,0.004314244126489594,3475.1811666031635,0.0672015120699596,2,0.8,0.43360075603497983
51.625914539808285,-0.047432733274375,Tottenham Hale,5594.037974548683,51.58805045886335,-0.060139591063478465,Blackhorse Road,5673.4611508566995,51.58684229409946,-0.041768161396529516,Seven Sisters,6549.164995855865,51.58339989538407,-0.07248488928732598,Walthamstow Central,6614.841181790046,51.583121461554015,-0.02149009721696701,Wood Green,6963.08931363654,51.59747402372348,-0.10983386762894175,6230.515301279066,0.147724440022152,2,0.8,0.47386222001107603
51.46689972368162,-0.2269993577626508,Putney Bridge,1664.0659638435693,51.468255977268214,-0.2087033152868412,East Putney,1825.9373440788756,51.45914982307664,-0.2110399264406896,Parsons Green,2563.4663929631865,51.47498606823488,-0.2017397326871696,Fulham Broadway,3536.600158877752,51.48076858389101,-0.19474266104252827,Barons Court,3562.396908379598,51.49029929831061,-0.2146606707385376,2378.4994282827747,0.03515166973327143,2,0.8,0.41757583486663574
51.55049853180357,0.1512771701462635,Dagenham Heathway,1327.5547221858958,51.5416184486541,0.1475466339518699,Dagenham East,1613.4056577103925,51.54416174314231,0.16600377979561015,Becontree,2608.38275310206,51.540345614496864,0.12736893625437312,Chadwell Heath,3272.799848824639,51.568020571271155,0.1283016945365458,Goodmayes,4185.053482517264,51.5657880265678,0.11186181352036285,2173.0200148687118,0.029146661558847046,2,0.8,0.41457333077942354
51.41141236826952,-0.1284847671302286,Tooting Broadway,4304.930112821178,51.427675722454374,-0.16836472055651,Tooting Bec,4500.425065210849,51.435899341737425,-0.1592083111530278,Colliers Wood,4585.358346144469,51.418159079977876,-0.17803308894654438,Balham,5145.926336556898,51.44362772683046,-0.1526657783980393,South Wimbledon,5882.1845959705715,51.41498850026229,-0.19328192113707632,4822.010703345409,0.10656176837649174,1,1.0,0.5532808841882458
51.51686195679029,0.0199691748161103,ROYAL VICTORIA - DLR,1121.39315210081,51.509231665082474,0.01775358236130825,CANNING TOWN - DLR,1146.4564216487722,51.51390927525563,0.00817753622360907,Canning Town,1152.5442207415667,51.51412284811822,0.007973974228592676,CUSTOM HOUSE - DLR,1189.4097039067028,51.5097363194669,0.026552314998290878,Custom House,1281.2946651028503,51.50982669208105,0.028600872419654706,1175.679337532467,0.0,3,0.6,0.3
51.595216498848245,-0.3952614801601155,Pinner,1317.8866541247367,51.592828064261916,-0.3811403328062982,Northwood Hills,1410.1326284686695,51.600195133223075,-0.4087251386191395,Eastcote,2710.9057754982337,51.576513893436875,-0.3973470771478147,North Harrow,3296.7020950296173,51.58494912254143,-0.36258290453469627,Northwood,3446.37011146152,51.61101732875408,-0.4239142682401325,2057.3439757683323,0.02576610119593103,2,0.8,0.41288305059796554
51.39274281699472,-0.0861248181501021,Tooting Broadway,8990.748032031632,51.427675722454374,-0.16836472055651,Colliers Wood,9088.892409075917,51.418159079977876,-0.17803308894654438,Tooting Bec,9089.731265047192,51.435899341737425,-0.1592083111530278,Balham,9505.030404289182,51.44362772683046,-0.1526657783980393,Morden,9925.947302669168,51.40253724508803,-0.19473027219670863,9307.21534451899,0.23763908695895875,1,1.0,0.6188195434794794
51.38535404155366,-0.1870361641591021,Morden,2580.439957509794,51.40253724508803,-0.19473027219670863,South Wimbledon,4322.393521559741,51.41498850026229,-0.19328192113707632,Colliers Wood,4813.1797384583315,51.418159079977876,-0.17803308894654438,Wimbledon,5506.121174752874,51.42143425544057,-0.20649073062441967,Tooting Broadway,6348.628509248006,51.427675722454374,-0.16836472055651,4288.983598033633,0.09098438244081669,2,0.8,0.4454921912204084
51.41383000924479,-0.2865765837782283,Richmond,7256.304465629383,51.46311840473405,-0.3016467054337033,Wimbledon,7324.04916046221,51.42143425544057,-0.20649073062441967,Wimbledon Park,8434.892570898124,51.43405489769917,-0.19906206857886732,South Wimbledon,8437.587352260489,51.41498850026229,-0.19328192113707632,Morden,8465.074434292474,51.40253724508803,-0.19473027219670863,7942.148245064558,0.19774584921477972,2,0.8,0.49887292460738986
51.35771873578787,-0.1450379151344518,Morden,7888.332481348728,51.40253724508803,-0.19473027219670863,Colliers Wood,9235.892216818009,51.418159079977876,-0.17803308894654438,South Wimbledon,9361.610884308126,51.41498850026229,-0.19328192113707632,Tooting Broadway,10334.033077575103,51.427675722454374,-0.16836472055651,Wimbledon,10761.254504333283,51.42143425544057,-0.20649073062441967,9406.354088439612,0.24053635514633595,2,0.8,0.520268177573168
51.428923137012845,-0.0989984921720421,Brixton,5086.104496375581,51.46266775315543,-0.11486935481082039,Balham,5296.221874960679,51.44362772683046,-0.1526657783980393,Tooting Bec,5535.1137736376895,51.435899341737425,-0.1592083111530278,Clapham South,5597.149228252484,51.45323750844449,-0.14718699803775498,Clapham Common,5921.80757743711,51.46221120939256,-0.13716717677773801,5472.720056550044,0.12557834488040742,2,0.8,0.46278917244020373
51.38352050247536,-0.0721379539439457,Tooting Broadway,10794.25474077789,51.427675722454374,-0.16836472055651,Colliers Wood,10809.23835610457,51.418159079977876,-0.17803308894654438,Tooting Bec,10925.960098778341,51.435899341737425,-0.1592083111530278,Balham,11339.253952874371,51.44362772683046,-0.1526657783980393,Morden,11426.583165701655,51.40253724508803,-0.19473027219670863,11052.534701776252,0.28864496065293965,1,1.0,0.6443224803264698
51.3747694146908,-0.0868743733425605,Colliers Wood,10362.097702364059,51.418159079977876,-0.17803308894654438,Morden,10552.352472929764,51.40253724508803,-0.19473027219670863,Tooting Broadway,10623.822653690686,51.427675722454374,-0.16836472055651,Tooting Bec,10997.489473528194,51.435899341737425,-0.1592083111530278,South Wimbledon,11246.730304308656,51.41498850026229,-0.19328192113707632,10747.053322244821,0.27971745715883467,1,1.0,0.6398587285794173
51.454693976759145,-0.0259596523190535,LEWISHAM - DLR,1915.185612974948,51.4656534958191,-0.014057517109202628,ELVERSON ROAD - DLR,2202.8156296820493,51.46869622022829,-0.016358693464723607,DEPTFORD BRIDGE - DLR,2853.4593293794505,51.474302836694164,-0.02243708367150416,GREENWICH - DLR,3572.476789807153,51.47812532354829,-0.013428987645855905,CUTTY SARK - DLR,4127.2079192606825,51.48167337063602,-0.011056580657622243,2704.498971312136,0.04467880380584685,1,1.0,0.5223394019029234
51.4599988373669,-0.3712187205954391,Hounslow Central,1696.876140235369,51.47131964602911,-0.36627277395717445,Hounslow East,2343.3120735509,51.47326277254156,-0.3563132084539763,Hounslow West,2367.833520781676,51.47361871639353,-0.385772979713366,Osterley,3519.605612545082,51.481243488531945,-0.35219948980178173,Hatton Cross,4813.589124035436,51.46662778937479,-0.42344368101612345,2590.3252476813936,0.04134214767900901,1,1.0,0.5206710738395045
51.53210210172534,-0.3830643950765006,Northolt,2674.6477125548313,51.54826023603043,-0.3686291206057346,Greenford,3630.9459144831785,51.54259233758515,-0.34648182369057073,Southall,3791.640088696171,51.50614613228283,-0.3771035436303124,South Ruislip,3852.6492485027425,51.55686140180025,-0.3988455279896942,Ruislip Gardens,4837.298389133951,51.56077685707859,-0.41069628925608653,3624.979706762239,0.07157928132297676,2,0.8,0.4357896406614884
51.441822516285214,-0.3574761514213334,Hounslow Central,4338.787966174377,51.47131964602911,-0.36627277395717445,Hounslow East,4547.594163748073,51.47326277254156,-0.3563132084539763,Hounslow West,5260.6225057735,51.47361871639353,-0.385772979713366,Osterley,5720.29496949002,51.481243488531945,-0.35219948980178173,Richmond,5909.738123878747,51.46311840473405,-0.3016467054337033,5078.743010744447,0.11406461052965387,2,0.8,0.45703230526482697
51.33030000248124,-0.1174348196341266,Morden,12572.763886264,51.40253724508803,-0.19473027219670863,Colliers Wood,13838.265572538752,51.418159079977876,-0.17803308894654438,South Wimbledon,14039.339291242628,51.41498850026229,-0.19328192113707632,Tooting Broadway,14816.309895377348,51.427675722454374,-0.16836472055651,Wimbledon,15447.806157524938,51.42143425544057,-0.20649073062441967,14074.352870200995,0.3769557189012538,2,0.8,0.5884778594506269
51.37405758334425,-0.0437978455694341,LEWISHAM - DLR,13516.050777153609,51.4656534958191,-0.014057517109202628,Tooting Broadway,13677.524522905873,51.427675722454374,-0.16836472055651,Colliers Wood,13716.064278245583,51.418159079977876,-0.17803308894654438,Tooting Bec,13745.275667442205,51.435899341737425,-0.1592083111530278,ELVERSON ROAD - DLR,13908.906585452722,51.46869622022829,-0.016358693464723607,13711.604973976657,0.36635463704156945,2,0.8,0.5831773185207847
51.376143895884354,-0.173031074077393,Morden,4291.974296478837,51.40253724508803,-0.19473027219670863,South Wimbledon,5908.35368664863,51.41498850026229,-0.19328192113707632,Colliers Wood,6092.484535065913,51.418159079977876,-0.17803308894654438,Wimbledon,7214.784341639822,51.42143425544057,-0.20649073062441967,Tooting Broadway,7463.743643892571,51.427675722454374,-0.16836472055651,5959.711071369807,0.13981035467776337,2,0.8,0.4699051773388817
51.42868897859437,-0.0846227084308584,Brixton,5622.615592108229,51.46266775315543,-0.11486935481082039,Balham,6518.347707154677,51.44362772683046,-0.1526657783980393,Clapham South,6676.184830117353,51.45323750844449,-0.14718699803775498,Clapham North,6709.267231068223,51.46573033892738,-0.12933358122662442,Clapham Common,6785.568740110003,51.46221120939256,-0.13716717677773801,6431.103228928092,0.15358649756460754,2,0.8,0.4767932487823038
51.52291476515547,-0.3689746752048898,Southall,2533.271010677348,51.50614613228283,-0.3771035436303124,Hanwell,3202.2286564182073,51.511782580692746,-0.3382911620071243,Greenford,3494.504198771535,51.54259233758515,-0.34648182369057073,Northolt,3665.2001576464295,51.54826023603043,-0.3686291206057346,West Ealing,4526.677817703426,51.51347124137933,-0.3211365656440236,3362.6067314929683,0.0639115941563548,2,0.8,0.43195579707817744
51.39434121621792,-0.1866809434529564,Morden,1390.975896817447,51.40253724508803,-0.19473027219670863,South Wimbledon,3044.8171426931453,51.41498850026229,-0.19328192113707632,Colliers Wood,3531.8759052268583,51.418159079977876,-0.17803308894654438,Wimbledon,4307.985518578031,51.42143425544057,-0.20649073062441967,Tooting Broadway,5096.965288056101,51.427675722454374,-0.16836472055651,2842.840034787319,0.0487217354223247,2,0.8,0.4243608677111624
51.6618592860945,-0.0458865441759019,Oakwood,7960.101981981999,51.64733639621023,-0.13124277946983365,Southgate,8517.500430699822,51.632261218475584,-0.12773657427020435,Cockfosters,9406.54859575357,51.65153150516335,-0.14913729316227967,Loughton,9580.95273270193,51.64131401335984,0.05536440533205223,Buckhurst Hill,9825.464688957045,51.625984504267606,0.04685030246017093,9001.04761830299,0.22869152540948534,2,0.8,0.5143457627047427
51.46989404068253,0.1330842057342611,Abbey Wood,3264.8272730699023,51.491074357645864,0.12057216047674105,Woolwich,6340.021895092964,51.491668236437704,0.07214595050906773,WOOLWICH ARSENAL - DLR,6484.167508575816,51.489985357998016,0.0688912148850038,KING GEORGE V - DLR,7900.460074399253,51.50202586586268,0.06231897937750261,GALLIONS REACH - DLR,7910.872715200969,51.508981284149876,0.07178457988924161,5739.025226055449,0.13336094798015902,2,0.8,0.4666804739900795
51.35839230619759,-0.1881007483534229,Morden,6411.726730036582,51.40253724508803,-0.19473027219670863,South Wimbledon,8197.536747313985,51.41498850026229,-0.19328192113707632,Colliers Wood,8690.474932306483,51.418159079977876,-0.17803308894654438,Wimbledon,9266.782822501158,51.42143425544057,-0.20649073062441967,Tooting Broadway,10176.599154471376,51.427675722454374,-0.16836472055651,8344.493098628756,0.20950412754761655,2,0.8,0.5047520637738083
51.53901573983512,-0.2386176001194263,Willesden Junction,1095.3737391552131,51.53240548064696,-0.24454944180503846,Kensal Green,1766.8787567254092,51.5305735728437,-0.22445465030672695,Harlesden,1829.8604725669938,51.53670018373658,-0.25856671093683925,Dollis Hill,1872.7655079774993,51.551964185681975,-0.23901638523553653,Willesden Green,2075.0314552067953,51.54937464364035,-0.22269210604112535,1644.0445891726736,0.013687683442273679,2,0.8,0.40684384172113686
51.60957977574338,-0.149231875326258,Arnos Grove,1766.105928216005,51.616455185489194,-0.13301987853029287,Bounds Green,2272.7033686862133,51.60706647717479,-0.12431690931299394,Woodside Park,3488.303282138766,51.61808932413762,-0.18548627796346517,West Finchley,3519.3025996800707,51.60948993574266,-0.18831738595327135,East Finchley,3540.678794719434,51.58715662440678,-0.1650189133944944,2688.93343420968,0.044223910656277655,2,0.8,0.42211195532813883
51.54843214815613,-0.2671004884319659,Stonebridge Park,1041.6967868016447,51.5441943356176,-0.2764435319759384,Neasden,1679.3880434137702,51.55442856977583,-0.25114679891952135,Harlesden,1862.8753965816177,51.53670018373658,-0.25856671093683925,Wembley Park,2504.494222826459,51.56376286096008,-0.28002685530487065,Dollis Hill,2582.8698654781288,51.551964185681975,-0.23901638523553653,1736.9070470756683,0.016401531070799464,3,0.6,0.3082007655353997
51.5697684390433,0.0800338346420546,Newbury Park,1239.219832322302,51.57570671131438,0.08994710104866553,Gants Hill,1583.5085233407328,51.57653618620388,0.06622053509738708,Seven Kings,1674.832598740695,51.56394849951275,0.096099334795915,Ilford,1849.618072043591,51.55901703762676,0.06892040799865062,Barkingside,2432.027962978532,51.58570492710439,0.0886515841287507,1673.7104010253738,0.014554648359666269,2,0.8,0.40727732417983314
51.56252916270825,-0.0212910749646352,Leyton,1664.471804046286,51.55660540139774,-0.005459613057395526,STRATFORD INTERNATIONAL - DLR,2771.5923187315334,51.54484877107612,-0.009426193778977777,Leytonstone,2787.8927874481137,51.56832221916004,0.008210470401397503,Walthamstow Central,2978.044578717138,51.583121461554015,-0.02149009721696701,Stratford,3423.2339424525226,51.54143892219933,-0.004050193323242832,2566.470680632316,0.04064501277995999,4,0.4,0.22032250638998
51.36760087278616,-0.2021035342817844,Morden,5095.867607514947,51.40253724508803,-0.19473027219670863,South Wimbledon,6898.84419248736,51.41498850026229,-0.19328192113707632,Colliers Wood,7628.413067847031,51.418159079977876,-0.17803308894654438,Wimbledon,7794.71110266792,51.42143425544057,-0.20649073062441967,Tooting Broadway,9207.648186015418,51.427675722454374,-0.16836472055651,7050.439955425683,0.171686228547608,2,0.8,0.485843114273804
51.598715148042686,-0.0341598046247327,Blackhorse Road,1848.7790022496156,51.58684229409946,-0.041768161396529516,Walthamstow Central,2527.467878168125,51.583121461554015,-0.02149009721696701,Tottenham Hale,2802.6410700574756,51.58805045886335,-0.060139591063478465,Seven Sisters,4101.700665555987,51.58339989538407,-0.07248488928732598,South Woodford,5630.829170517295,51.59189362934642,0.027388706541122812,2915.8739122648935,0.05085610510917494,2,0.8,0.4254280525545875
51.654965190537474,-0.1762973972836372,High Barnet,1728.7783107327286,51.650524904528254,-0.19414095643752166,Cockfosters,2493.0672409944227,51.65153150516335,-0.14913729316227967,Totteridge & Whetstone,3534.388933864611,51.63059064856316,-0.17918013547319112,Oakwood,4200.431232552344,51.64733639621023,-0.13124277946983365,Woodside Park,5396.444769399032,51.61808932413762,-0.18548627796346517,2965.83157919753,0.05231608688214764,2,0.8,0.42615804344107383
51.46090867625164,0.1326647931516442,Abbey Wood,4497.157622516836,51.491074357645864,0.12057216047674105,Woolwich,7046.915756345966,51.491668236437704,0.07214595050906773,WOOLWICH ARSENAL - DLR,7131.160711556637,51.489985357998016,0.0688912148850038,KING GEORGE V - DLR,8701.047966650875,51.50202586586268,0.06231897937750261,GALLIONS REACH - DLR,8862.831283111202,51.508981284149876,0.07178457988924161,6828.196296409835,0.16519129571258553,2,0.8,0.4825956478562928
51.602568358635104,-0.2794803094306031,Queensbury,1352.9868507383424,51.59419954633909,-0.28619819535279867,Burnt Oak,1397.2655016142533,51.602836824142564,-0.2639696317085301,Canons Park,1556.94871404815,51.607711419828995,-0.2946706986107864,Edgware,1652.5396751006951,51.613610696577986,-0.27475467325337816,Kingsbury,2593.270833763505,51.58464322697491,-0.2786209852413163,1619.2687313282804,0.012963624392211317,2,0.8,0.4064818121961057
51.45564917651539,-0.0834944887242898,Brixton,3010.600442148344,51.46266775315543,-0.11486935481082039,Stockwell,4268.436006933619,51.47182927610112,-0.123016885349951,Clapham North,4390.0050414014095,51.46573033892738,-0.12933358122662442,Oval,4598.869940404191,51.481838396899654,-0.11238107063105886,Clapham Common,4940.7056109845,51.46221120939256,-0.13716717677773801,4118.369738292065,0.08599829840740719,2,0.8,0.44299914920370365
51.43905415292084,-0.1705219803312158,Tooting Bec,1119.668227462687,51.435899341737425,-0.1592083111530278,Tooting Broadway,1656.8849013366128,51.427675722454374,-0.16836472055651,Balham,1743.939849102785,51.44362772683046,-0.1526657783980393,Wimbledon Park,2678.8250515197165,51.43405489769917,-0.19906206857886732,Clapham South,2941.541266717145,51.45323750844449,-0.14718699803775498,1796.406737301087,0.018140372545197528,2,0.8,0.4090701862725988
51.46319237605222,0.0032000364806081,LEWISHAM - DLR,1599.0046330340513,51.4656534958191,-0.014057517109202628,ELVERSON ROAD - DLR,1937.7215513805645,51.46869622022829,-0.016358693464723607,GREENWICH - DLR,2630.4574446328065,51.47812532354829,-0.013428987645855905,DEPTFORD BRIDGE - DLR,2818.4534072314123,51.474302836694164,-0.02243708367150416,CUTTY SARK - DLR,2966.6114004237697,51.48167337063602,-0.011056580657622243,2258.855293547758,0.03165514424116324,1,1.0,0.5158275721205816
51.40242540343374,-0.1288517571370281,Colliers Wood,4995.804534541029,51.418159079977876,-0.17803308894654438,Tooting Broadway,5108.664412257404,51.427675722454374,-0.16836472055651,Tooting Bec,5564.584970361078,51.435899341737425,-0.1592083111530278,Morden,5958.609212806139,51.40253724508803,-0.19473027219670863,South Wimbledon,6103.463766080366,51.41498850026229,-0.19328192113707632,5510.932017500071,0.12669506569468822,1,1.0,0.5633475328473441
51.565541195061,-0.2087354028823975,Golders Green,1648.0911345795926,51.572288875812,-0.19399749568271848,Brent Cross,1672.0670166850036,51.576671975889624,-0.2137597702763802,Willesden Green,2654.8104559191565,51.54937464364035,-0.22269210604112535,Kilburn,2712.2764376835325,51.54695520739804,-0.20469009526410165,Hendon Central,3002.2302758940323,51.58317462862065,-0.22632123704930582,2189.833003691626,0.02963801070979413,2,0.8,0.4148190053548971
51.367156673044654,-0.1733887552500227,Morden,5468.537262415637,51.40253724508803,-0.19473027219670863,South Wimbledon,7147.0845531117475,51.41498850026229,-0.19328192113707632,Colliers Wood,7387.213249582828,51.418159079977876,-0.17803308894654438,Wimbledon,8400.699033959474,51.42143425544057,-0.20649073062441967,Tooting Broadway,8763.189943311041,51.427675722454374,-0.16836472055651,7232.729986819746,0.17701354144211964,2,0.8,0.48850677072105986
51.458128810414095,-0.2417337469738989,East Putney,2776.698848404679,51.45914982307664,-0.2110399264406896,Putney Bridge,3323.5668204885746,51.468255977268214,-0.2087033152868412,Southfields,3690.5500462408536,51.44507974989173,-0.20662949274631476,Parsons Green,4357.819716336023,51.47498606823488,-0.2017397326871696,Kew Gardens,4767.417894604657,51.476997832844376,-0.2850185530874335,3646.4052440626015,0.07220542933699142,1,1.0,0.5361027146684957
51.63490072533576,-0.0470463144128134,Tottenham Hale,6877.092336728743,51.58805045886335,-0.060139591063478465,Blackhorse Road,6966.255265024365,51.58684229409946,-0.041768161396529516,Southgate,7271.749971315793,51.632261218475584,-0.12773657427020435,Oakwood,7786.515387766109,51.64733639621023,-0.13124277946983365,Seven Sisters,7792.126373214331,51.58339989538407,-0.07248488928732598,7318.075447722493,0.17950770950429076,2,0.8,0.4897538547521454
51.57797879680996,0.1237076622250576,Chadwell Heath,1498.4975258674995,51.568020571271155,0.1283016945365458,Goodmayes,2061.0552249018533,51.5657880265678,0.11186181352036285,Newbury Park,3059.8865141851556,51.57570671131438,0.08994710104866553,Seven Kings,3210.6087380238737,51.56394849951275,0.096099334795915,Barkingside,3350.4001339498377,51.58570492710439,0.0886515841287507,2393.1778819456526,0.035580638420542654,2,0.8,0.4177903192102713
51.483764013045615,-0.1543311437370615,Battersea Power Station,1167.3751797277898,51.479476819200244,-0.14337610628255198,Sloane Square,1252.682873488613,51.492337989718926,-0.1563109875356802,Pimlico,2016.5406674005042,51.48908299791676,-0.1336839727580515,Victoria,2091.5257273630564,51.49640213408183,-0.14306463520033438,South Kensington,2261.220858087776,51.49408964921556,-0.17314093551479268,1628.0456965609096,0.013220125747227206,5,0.19999999999999996,0.10661006287361358
51.396063491070535,-0.3016152169080398,Wimbledon,9352.103874951526,51.42143425544057,-0.20649073062441967,Richmond,9696.36867940431,51.46311840473405,-0.3016467054337033,Morden,9713.221992579627,51.40253724508803,-0.19473027219670863,South Wimbledon,10172.701006322828,51.41498850026229,-0.19328192113707632,Wimbledon Park,10778.192162585065,51.43405489769917,-0.19906206857886732,9918.786945088037,0.2555118869618596,2,0.8,0.5277559434809298
51.6029878856964,-0.3083451392852342,Canons Park,1408.0896282116018,51.607711419828995,-0.2946706986107864,Queensbury,2364.983689832218,51.59419954633909,-0.28619819535279867,Stanmore,2461.931502009429,51.61971381105704,-0.3032388442070318,Harrow & Wealdstone,2864.8425921877333,51.592045896748125,-0.3348639494005961,Kenton,3181.246237580584,51.58161346615873,-0.3167056317741808,2270.0397092529406,0.0319820018402768,2,0.8,0.4159910009201384
51.488384995044285,0.1051378331949639,Abbey Wood,1446.6945483848592,51.491074357645864,0.12057216047674105,Woolwich,3016.1404595284334,51.491668236437704,0.07214595050906773,WOOLWICH ARSENAL - DLR,3280.603484820554,51.489985357998016,0.0688912148850038,GALLIONS REACH - DLR,4235.046662488284,51.508981284149876,0.07178457988924161,KING GEORGE V - DLR,4339.590256754441,51.50202586586268,0.06231897937750261,2786.8134977040404,0.0470843946903273,2,0.8,0.4235421973451637
51.410949732582765,-0.0997440034599787,Tooting Bec,6474.491851618037,51.435899341737425,-0.1592083111530278,Tooting Broadway,6659.214378691158,51.427675722454374,-0.16836472055651,Balham,6724.45828497425,51.44362772683046,-0.1526657783980393,Colliers Wood,7155.679200722475,51.418159079977876,-0.17803308894654438,Clapham South,7468.95336555796,51.45323750844449,-0.14718699803775498,6877.8845828426365,0.16664340500784058,1,1.0,0.5833217025039203
51.4480413760203,-0.1701628460994352,Balham,1705.0336238653729,51.44362772683046,-0.1526657783980393,Tooting Bec,2015.6579111558933,51.435899341737425,-0.1592083111530278,Clapham South,2207.730186645048,51.45323750844449,-0.14718699803775498,Tooting Broadway,2949.447198287486,51.427675722454374,-0.16836472055651,Wimbledon Park,3303.1983064697038,51.43405489769917,-0.19906206857886732,2296.3673208386467,0.03275140992918667,2,0.8,0.41637570496459336
51.43242808303953,-0.3290404428358616,Richmond,5081.521569245478,51.46311840473405,-0.3016467054337033,Hounslow East,6398.311393956632,51.47326277254156,-0.3563132084539763,Hounslow Central,6553.1140241343455,51.47131964602911,-0.36627277395717445,Osterley,7362.381496354051,51.481243488531945,-0.35219948980178173,Kew Gardens,7573.254503239803,51.476997832844376,-0.2850185530874335,6463.696786892779,0.15453902404285436,2,0.8,0.4772695120214272
51.58480406335599,-0.2945863009820588,Kingsbury,1438.4033315623028,51.58464322697491,-0.2786209852413163,Queensbury,1554.6023122571696,51.59419954633909,-0.28619819535279867,Preston Road,1849.8407333103512,51.57201611739948,-0.29510647739843454,Kenton,2045.3907988984577,51.58161346615873,-0.3167056317741808,Northwick Park,2302.8657277494194,51.57847686666111,-0.31804395596062013,1784.312716414567,0.017786932299877836,3,0.6,0.3088934661499389
51.6057105122879,0.0816764963105346,Hainault,1109.0275660981877,51.603641709370464,0.0935348459767853,Grange Hill,1447.9470575696982,51.61319983847113,0.0923485553652509,Fairlop,1694.7974200285075,51.59555945125294,0.09107962810176558,Chigwell,1811.331468223531,51.617654496899874,0.07562151591004014,Barkingside,2960.60937132582,51.58570492710439,0.0886515841287507,1627.4912070519295,0.01320392113588082,1,1.0,0.5066019605679404
51.51392684560887,-0.3692958388410479,Southall,1327.4725919282114,51.50614613228283,-0.3771035436303124,Hanwell,2814.5779201812006,51.511782580692746,-0.3382911620071243,West Ealing,4345.677245501987,51.51347124137933,-0.3211365656440236,Greenford,4627.765816461858,51.54259233758515,-0.34648182369057073,Hayes & Harlington,4783.802961585334,51.50303723137112,-0.41935690170324563,2834.718269066882,0.048484381865919,2,0.8,0.4242421909329595
51.60059314865657,-0.1495972313008292,East Finchley,2388.5141766736497,51.58715662440678,-0.1650189133944944,Bounds Green,2461.536801434961,51.60706647717479,-0.12431690931299394,Arnos Grove,2736.7724802123485,51.616455185489194,-0.13301987853029287,Highgate,3301.6904418450067,51.57784658975153,-0.14644230428628777,Wood Green,3609.481046934346,51.59747402372348,-0.10983386762894175,2824.479290678512,0.04818515408490516,2,0.8,0.4240925770424526
51.410715724910126,-0.08537395673297,Tooting Bec,7604.055116924266,51.435899341737425,-0.1592083111530278,Balham,7723.809287451066,51.44362772683046,-0.1526657783980393,Tooting Broadway,7894.396276721752,51.427675722454374,-0.16836472055651,Brixton,7971.649775684158,51.46266775315543,-0.11486935481082039,Clapham South,8308.346934224579,51.45323750844449,-0.14718699803775498,7893.206335656094,0.19631555232427064,2,0.8,0.49815777616213536
51.45791226140802,-0.2273474841788621,East Putney,1483.998658786832,51.45914982307664,-0.2110399264406896,Putney Bridge,2252.4092094464504,51.468255977268214,-0.2087033152868412,Southfields,2635.779785634838,51.44507974989173,-0.20662949274631476,Parsons Green,3383.0773956018334,51.47498606823488,-0.2017397326871696,Wimbledon Park,4293.5197743681665,51.43405489769917,-0.19906206857886732,2468.262481696729,0.03777493919154018,1,1.0,0.5188874695957701
51.41118197197979,-0.1141142445754474,Tooting Bec,5421.847955460038,51.435899341737425,-0.1592083111530278,Tooting Broadway,5454.244192261883,51.427675722454374,-0.16836472055651,Balham,5844.608502185459,51.44362772683046,-0.1526657783980393,Colliers Wood,5867.25046278959,51.418159079977876,-0.17803308894654438,Clapham South,6776.569926913029,51.45323750844449,-0.14718699803775498,5835.087734855541,0.13616831510767677,1,1.0,0.5680841575538383
51.51412625816822,-0.3837010656086938,Southall,1298.4519628285593,51.50614613228283,-0.3771035436303124,Hayes & Harlington,3594.8122650183254,51.50303723137112,-0.41935690170324563,Hanwell,4111.1432424840905,51.511782580692746,-0.3382911620071243,Northolt,5119.66512887721,51.54826023603043,-0.3686291206057346,Greenford,5311.598812735755,51.54259233758515,-0.34648182369057073,2984.7888864792585,0.052870102407598145,2,0.8,0.4264350512037991
51.603400582863024,-0.3372109112685477,Harrow & Wealdstone,1655.4535018865793,51.592045896748125,-0.3348639494005961,Harrow-on-the-Hill,3468.450151080599,51.57941628030986,-0.3367300744303407,North Harrow,3512.929818939394,51.58494912254143,-0.36258290453469627,Kenton,3651.9525740362974,51.58161346615873,-0.3167056317741808,West Harrow,3737.3708323461688,51.57956835045778,-0.3532684142764812,2909.6260895383334,0.05067351637231815,2,0.8,0.4253367581861591
51.58351543828934,-0.2080280556433437,Brent Cross,1116.2594316397733,51.576671975889624,-0.2137597702763802,Hendon Central,1648.8228722133167,51.58317462862065,-0.22632123704930582,Golders Green,2057.620884983315,51.572288875812,-0.19399749568271848,Finchley Central,2879.998340415758,51.600934833101746,-0.19252942794168978,Mill Hill East,3579.4847918789433,51.608236493077726,-0.2100361778725491,1912.0950317165536,0.021521291062081647,1,1.0,0.5107606455310408
51.646643461374914,-0.2199944604472937,High Barnet,2392.588617541606,51.650524904528254,-0.19414095643752166,Totteridge & Whetstone,4344.704339187734,51.63059064856316,-0.17918013547319112,Woodside Park,5166.736746952127,51.61808932413762,-0.18548627796346517,Mill Hill East,5625.982844916663,51.608236493077726,-0.2100361778725491,West Finchley,6082.414350588327,51.60948993574266,-0.18831738595327135,4223.602624126797,0.0890736641053929,1,1.0,0.5445368320526964
51.41403931901875,-0.3009496948051764,Richmond,7097.346969492421,51.46311840473405,-0.3016467054337033,Wimbledon,8607.240240769412,51.42143425544057,-0.20649073062441967,Kew Gardens,9217.169757441658,51.476997832844376,-0.2850185530874335,Southfields,9635.211348460409,51.44507974989173,-0.20662949274631476,Wimbledon Park,9655.02237615457,51.43405489769917,-0.19906206857886732,8727.051583533806,0.22068416155141718,1,1.0,0.6103420807757086
51.45517506599447,-0.0547266898331455,LEWISHAM - DLR,3974.208671301806,51.4656534958191,-0.014057517109202628,ELVERSON ROAD - DLR,3979.4881908704215,51.46869622022829,-0.016358693464723607,DEPTFORD BRIDGE - DLR,4019.7539336791942,51.474302836694164,-0.02243708367150416,GREENWICH - DLR,4992.953048108808,51.47812532354829,-0.013428987645855905,CUTTY SARK - DLR,5499.268499329404,51.48167337063602,-0.011056580657622243,4409.921212832857,0.09451870908404734,1,1.0,0.5472593545420237
51.41993638296953,-0.0993713107514347,Tooting Bec,5881.178845426277,51.435899341737425,-0.1592083111530278,Balham,5911.357939389465,51.44362772683046,-0.1526657783980393,Brixton,6336.02051549881,51.46266775315543,-0.11486935481082039,Tooting Broadway,6337.1213765072725,51.427675722454374,-0.16836472055651,Clapham South,6470.446037955926,51.45323750844449,-0.14718699803775498,6177.592561823952,0.1461778058471727,2,0.8,0.47308890292358635
51.56766780183642,0.1953768861111485,Romford,1555.1590734212136,51.57469146078035,0.1823104268842422,Gidea Park,2300.8226453420602,51.58206113794098,0.2062522935798357,Elm Park,2612.5864990283885,51.54972145979434,0.19869376414095105,Hornchurch,2909.3965457064282,51.554050484644705,0.2191338382742129,Upminster Bridge,3882.142655827854,51.558497591864246,0.235853642203452,2425.166355009517,0.0365154816685559,2,0.8,0.41825774083427797
51.62639164393647,-0.076308288360244,Southgate,4705.933747622221,51.632261218475584,-0.12773657427020435,Bounds Green,5146.977877280894,51.60706647717479,-0.12431690931299394,Wood Green,5157.585830267871,51.59747402372348,-0.10983386762894175,Arnos Grove,5303.497499279983,51.616455185489194,-0.13301987853029287,Tottenham Hale,5732.657303868312,51.58805045886335,-0.060139591063478465,5188.500279373341,0.11727219850339828,2,0.8,0.4586360992516992
51.60104479121951,-0.1784584897100054,Finchley Central,1267.2969803189833,51.600934833101746,-0.19252942794168978,West Finchley,1509.8373150095676,51.60948993574266,-0.18831738595327135,East Finchley,2344.9670238774356,51.58715662440678,-0.1650189133944944,Woodside Park,2544.7719139156334,51.61808932413762,-0.18548627796346517,Mill Hill East,3027.75642528123,51.608236493077726,-0.2100361778725491,1922.2715267314072,0.02181869280533094,1,1.0,0.5109093464026655
51.36909974204277,-0.3026120600401182,Morden,10893.03680171277,51.40253724508803,-0.19473027219670863,Wimbledon,11527.260749033045,51.42143425544057,-0.20649073062441967,South Wimbledon,11910.515048996001,51.41498850026229,-0.19328192113707632,Wimbledon Park,13264.402742223903,51.43405489769917,-0.19906206857886732,Colliers Wood,13316.86404976199,51.418159079977876,-0.17803308894654438,12106.696629924176,0.31945218795867036,2,0.8,0.5597260939793351
51.45979801853402,-0.3568309029792262,Hounslow Central,1871.623031981373,51.47131964602911,-0.36627277395717445,Hounslow East,1947.5955474870038,51.47326277254156,-0.3563132084539763,Osterley,3129.136923241971,51.481243488531945,-0.35219948980178173,Hounslow West,3290.421046413296,51.47361871639353,-0.385772979713366,Richmond,5007.77127385638,51.46311840473405,-0.3016467054337033,2672.4701333476373,0.043742780918694865,2,0.8,0.42187139045934746
51.44497372395692,0.0167938194059901,LEWISHAM - DLR,4088.1608909852844,51.4656534958191,-0.014057517109202628,ELVERSON ROAD - DLR,4554.141486472554,51.46869622022829,-0.016358693464723607,GREENWICH - DLR,5517.100700743938,51.47812532354829,-0.013428987645855905,DEPTFORD BRIDGE - DLR,5527.232745494257,51.474302836694164,-0.02243708367150416,CUTTY SARK - DLR,5873.38362183546,51.48167337063602,-0.011056580657622243,5016.92854945735,0.112258121309351,1,1.0,0.5561290606546755
51.514714132487306,-0.4269173123226744,Hayes & Harlington,1821.0954277790318,51.50303723137112,-0.41935690170324563,West Drayton,4103.106264551584,51.509889653988765,-0.4717298081442503,Southall,4662.334131325709,51.50614613228283,-0.3771035436303124,Hillingdon,6024.0200955313585,51.553950922962464,-0.44936323351561647,Uxbridge,6479.593783823587,51.546463984227124,-0.4776140379083946,3766.0373629236424,0.07570160367264919,3,0.6,0.3378508018363246
51.55948369584194,0.1517009686617964,Chadwell Heath,2443.9333398612994,51.568020571271155,0.1283016945365458,Dagenham East,2563.7710684749327,51.54416174314231,0.16600377979561015,Dagenham Heathway,2610.677021697411,51.5416184486541,0.1475466339518699,Romford,3528.228835092717,51.57469146078035,0.1823104268842422,Becontree,3531.771024840259,51.540345614496864,0.12736893625437312,2859.0352362883095,0.049195030122674684,2,0.8,0.42459751506133736
51.36360321066308,0.0419490371093677,LEWISHAM - DLR,15602.857244835077,51.4656534958191,-0.014057517109202628,ELVERSON ROAD - DLR,16086.627864128655,51.46869622022829,-0.016358693464723607,DEPTFORD BRIDGE - DLR,17034.533783318304,51.474302836694164,-0.02243708367150416,GREENWICH - DLR,17301.96691952296,51.47812532354829,-0.013428987645855905,CUTTY SARK - DLR,17734.517333418786,51.48167337063602,-0.011056580657622243,16714.434020374087,0.4541104499982628,1,1.0,0.7270552249991313
51.56464639184525,-0.1510566711217165,Archway,1444.8862538749954,51.564540856812656,-0.1350261547508563,Tufnell Park,1601.71020448916,51.55684688165748,-0.1384398274315375,Highgate,1953.6686476626917,51.57784658975153,-0.14644230428628777,Kentish Town,2274.6915102125563,51.550296304938385,-0.140722210399805,Belsize Park,2403.4829788559896,51.55032802178578,-0.16459558981350675,1862.9126516773829,0.020083966566815912,1,1.0,0.510041983283408
51.46733113705219,-0.2557777339373732,Kew Gardens,2987.8514184040373,51.476997832844376,-0.2850185530874335,Gunnersbury,3938.141007371657,51.49174257627245,-0.2751137924217151,Turnham Green,3996.629778830459,51.494958689122086,-0.2545275752571731,Stamford Brook,4086.2428946555915,51.49491901447832,-0.24597832114672852,Chiswick Park,4117.791803499837,51.49466825400271,-0.2685489968417927,3769.605951235559,0.07580589344858422,2,0.8,0.43790294672429214
51.462945826811264,0.0175857663401606,LEWISHAM - DLR,2885.0678503313766,51.4656534958191,-0.014057517109202628,ELVERSON ROAD - DLR,3176.9167488679027,51.46869622022829,-0.016358693464723607,GREENWICH - DLR,3558.9059420813182,51.47812532354829,-0.013428987645855905,CUTTY SARK - DLR,3745.2274686170863,51.48167337063602,-0.011056580657622243,DEPTFORD BRIDGE - DLR,3970.589860120318,51.474302836694164,-0.02243708367150416,3421.7833340620127,0.06564099359475838,1,1.0,0.5328204967973792
51.55128300993367,0.1080398648139495,Upney,1958.2213701723556,51.53835560347559,0.10158060702967472,Seven Kings,2124.5486618278633,51.56394849951275,0.096099334795915,Goodmayes,2125.8544832339658,51.5657880265678,0.11186181352036285,Becontree,2353.670077778308,51.540345614496864,0.12736893625437312,Barking,3002.4584546798537,51.539886123317935,0.0802089530468054,2262.767431858185,0.03176947405232663,3,0.6,0.3158847370261633
51.52350791958687,-0.4121992460191431,Hayes & Harlington,3029.7382518714217,51.50303723137112,-0.41935690170324563,Southall,4040.896443352598,51.50614613228283,-0.3771035436303124,South Ruislip,4971.070181324491,51.55686140180025,-0.3988455279896942,Northolt,5315.043060592296,51.54826023603043,-0.3686291206057346,Ruislip Gardens,5390.89590561601,51.56077685707859,-0.41069628925608653,4339.00305138037,0.0924461698833481,2,0.8,0.44622308494167406
