lat,lon,nearest_station_1,nearest_station_1_dist,nearest_station_1_lat,nearest_station_1_long,nearest_station_2,nearest_station_2_dist,nearest_station_2_lat,nearest_station_2_long,nearest_station_3,nearest_station_3_dist,nearest_station_3_lat,nearest_station_3_long,nearest_station_4,nearest_station_4_dist,nearest_station_4_lat,nearest_station_4_long,nearest_station_5,nearest_station_5_dist,nearest_station_5_lat,nearest_station_5_long,harmonic_mean_adj_dist,harmonic_mean_adj_dist_norm,line_unique_count,line_unique_count_norm,connectivity_score
51.5145163271582,-0.4125314283042049,Hayes & Harlington,1771.2448166045806,51.50303632210459,-0.4193768852119428,Southall,3416.4737142073463,51.50614548639833,-0.3771245451315028,West Drayton,5384.9365305008805,51.509888266756654,-0.47175014048199965,South Ruislip,6245.8874783423835,51.55686021118094,-0.39886613068870685,Northolt,6282.63564147335,51.548259260589994,-0.36865042407239057,3670.393986461009,0.09967055034280192,2,0.7142857142857143,0.4069781323142581
51.34873229638318,-0.14543048303468625,Morden,8970.33188512032,51.40253820130652,-0.19475485350439264,Colliers Wood,10464.843890405433,51.41815971696416,-0.17805799608697154,South Wimbledon,10515.2009337397,51.41498929257676,-0.19330652029319118,Tooting Broadway,11603.354718534407,51.42767600459317,-0.16838983681417344,Wimbledon,11877.704846744638,51.42143496760067,-0.2065150560922177,10581.778160576408,0.2958225324742373,2,0.7142857142857143,0.5050541233799758
51.54503494551382,-0.050928263112673705,Bethnal Green,2596.0184553069585,51.527237667207054,-0.05469030192583057,Mile End,3254.8872446772307,51.52523491887216,-0.033768063294587126,Stepney Green,3373.9545391534466,51.52186169216427,-0.04659090323887023,Bow Road,3501.266180533189,51.526902665586434,-0.02520321216907312,Whitechapel,3667.535970488781,51.520235896580154,-0.059438815295188956,3231.8588341695504,0.08722448495427355,3,0.5714285714285714,0.3293265281914225
51.52706254612116,-0.051695920714968445,Bethnal Green,271.2951254651047,51.527237667207054,-0.05469030192583057,Stepney Green,881.9138395625467,51.52186169216427,-0.04659090323887023,Whitechapel,1209.355127622634,51.520235896580154,-0.059438815295188956,Whitechapel,1362.3022066025462,51.51953209733413,-0.06076871394741355,Mile End,1638.690767086971,51.52523491887216,-0.033768063294587126,715.1948188175821,0.015799047945726907,3,0.5714285714285714,0.2936138096871492
51.45939037805019,-0.328078684438547,Richmond,2445.762291599669,51.463118722979786,-0.3016691259076597,Hounslow East,3246.110081384886,51.47326292270873,-0.35633446056928547,Osterley,3839.242837732699,51.4812434687809,-0.3522207467968353,Hounslow Central,3858.7439744481167,51.47131979963469,-0.3662939172379908,Kew Gardens,4646.712579022876,51.47699774458654,-0.28504091647405505,3444.1022707159736,0.0932481655548816,2,0.7142857142857143,0.40376693992029794
51.42650207663277,0.04471917655625916,LEWISHAM - DLR,7764.88438604442,51.46565346553587,-0.014083062226242563,ELVERSON ROAD - DLR,8229.276846314022,51.46869615376942,-0.016384302059126953,GREENWICH - DLR,9130.288905220223,51.47812506248977,-0.0134548920388944,DEPTFORD BRIDGE - DLR,9199.780956636969,51.4743026334533,-0.02246289169111558,WOOLWICH ARSENAL - DLR,9436.294683260945,51.48998499909446,0.06886448006159107,8703.222047172085,0.24250723471240418,0,1.0,0.6212536173562021
51.50081289535573,-0.09603895554484014,Borough,252.05392695619744,51.5011913652754,-0.0933129512735988,London Bridge,843.0658377208481,51.50506500549169,-0.08964851723570844,Elephant & Castle,856.476619719194,51.49583746787788,-0.10118627610280032,Southwark,982.7929695420098,51.50428757953954,-0.1053973366341109,Lambeth North,1489.1561831507177,51.498842228801465,-0.1122327661467621,624.207594195035,0.013216739683194954,3,0.5714285714285714,0.29232265555588316
51.392506366872304,-0.07179081876858932,Tooting Bec,10094.587536311652,51.43589927439103,-0.15923362533504307,Tooting Broadway,10108.592933004542,51.42767600459317,-0.16838983681417344,Colliers Wood,10302.407258262063,51.41815971696416,-0.17805799608697154,Balham,10400.012495061252,51.44362737290878,-0.15269122947563088,Brixton,10868.56356123181,51.46266709356466,-0.1148949328839154,10347.347486296618,0.2891691559184079,2,0.7142857142857143,0.5017274351020611
51.59378577724905,-0.29427547967244483,Queensbury,727.8275078418078,51.59419745209295,-0.2862217775472735,Kingsbury,1931.6299015816103,51.584641087244194,-0.2786447440288867,Canons Park,2013.7843272051562,51.60770907048488,-0.29469410620588665,Kenton,2681.4290263569546,51.58161162102015,-0.31672815541742494,Burnt Oak,3024.8518328903883,51.602834176714175,-0.26399369483295404,1617.2033609533512,0.04139895079905992,3,0.5714285714285714,0.3064137611138157
51.53813058441048,-0.18100078144569104,St. John's Wood,748.9875286474618,51.535204969887026,-0.17414757419359148,Swiss Cottage,979.0756914863179,51.54370542648981,-0.17483983477545229,Kilburn Park,1261.16282307365,51.534947545387965,-0.1940203229099902,Maida Vale,1290.6359298616358,51.529729085515065,-0.18582932871164548,Finchley Road,1316.0212391360462,51.54723083836693,-0.18109153879636952,1067.4399527154562,0.025796116473474358,3,0.5714285714285714,0.2986123439510229
51.48759945538802,0.14828056148997681,Abbey Wood,2554.056747271825,51.491073973350574,0.12054450171194857,Woolwich,6901.24384092862,51.491667870973096,0.07211914694673671,WOOLWICH ARSENAL - DLR,7178.383864783288,51.48998499909446,0.06886448006159107,GALLIONS REACH - DLR,7567.97153674641,51.508980646475905,0.07175759149661497,Dagenham Heathway,7812.441436290345,51.54161732780605,0.14751917346847765,5342.569399428543,0.14712855780727843,2,0.7142857142857143,0.43070713604649635
51.52823613957777,-0.1237288218302474,King's Cross St. Pancras,243.1099476657605,51.529785143075884,-0.12477613021792856,Russell Square,750.2401818749454,51.52305918332612,-0.1242697810208252,Euston,980.7241042765636,51.52808458451346,-0.13459860915117344,Euston Square,1158.6611506823901,51.525633154752434,-0.13587687351584915,Warren Street,1423.1194480043473,51.524527123997764,-0.13834177714005547,622.5352856672671,0.013169277897799562,6,0.1428571428571429,0.07801321037747123
51.46244489282114,0.04632529412433575,WOOLWICH ARSENAL - DLR,4472.772998066033,51.48998499909446,0.06886448006159107,Woolwich,4825.587949455383,51.491667870973096,0.07211914694673671,LEWISHAM - DLR,5476.496853329576,51.46565346553587,-0.014083062226242563,ELVERSON ROAD - DLR,5736.175814882808,51.46869615376942,-0.016384302059126953,GREENWICH - DLR,5856.168196530466,51.47812506248977,-0.0134548920388944,5216.5147802436095,0.14355100188113679,1,0.8571428571428572,0.500346929511997
51.403550217192944,-0.20072278120360593,Morden,559.2735841794337,51.40253820130652,-0.19475485350439264,South Wimbledon,1784.9707704532152,51.41498929257676,-0.19330652029319118,Wimbledon,2638.7703797121853,51.42143496760067,-0.2065150560922177,Colliers Wood,2943.5152981685783,51.41815971696416,-0.17805799608697154,Wimbledon Park,4413.733381223307,51.434055248289106,-0.19908634010842738,1518.1294714580654,0.03858713491494892,2,0.7142857142857143,0.3764364246003316
51.527300706759455,-0.06610207090605134,Bethnal Green,1029.4435525222536,51.527237667207054,-0.05469030192583057,Whitechapel,1185.387740554714,51.520235896580154,-0.059438815295188956,Whitechapel,1222.1442123529957,51.51953209733413,-0.06076871394741355,Aldgate East,1776.5653172312407,51.51542691621208,-0.07115364166807008,Stepney Green,1927.8724862565934,51.52186169216427,-0.04659090323887023,1345.9570328070731,0.03370070923537546,3,0.5714285714285714,0.30256464033197344
51.5374521807188,-0.1377694918890236,Mornington Crescent,407.00226421273396,51.534704942339104,-0.13874979864115178,Camden Town,507.66087651367457,51.53923059833878,-0.14262297026124665,Euston,1384.5269652127156,51.52808458451346,-0.13459860915117344,King's Cross St. Pancras,1613.2719006741756,51.529785143075884,-0.12477613021792856,Chalk Farm,1630.026159467685,51.54385835909765,-0.15264214766916676,783.4017285130445,0.017734828130242138,6,0.1428571428571429,0.08029598549369252
51.48189206230332,-0.03921843749079683,DEPTFORD BRIDGE - DLR,1869.224912895846,51.4743026334533,-0.02246289169111558,GREENWICH - DLR,2389.3657579095766,51.47812506248977,-0.0134548920388944,Canada Water,2513.6247281363667,51.49792096344705,-0.049987164956990765,CUTTY SARK - DLR,2540.7533324932438,51.48167303702902,-0.011082584411792822,MUDCHUTE - DLR,2541.6883443385054,51.490885808029404,-0.015032189977413828,2338.243376553322,0.06186278621797839,1,0.8571428571428572,0.4595028216804178
51.536991113015475,-0.10894957682507153,Angel,882.3281086535527,51.53148758749647,-0.10472643840232035,Highbury & Islington,1580.3207617375092,51.5474243924603,-0.10373671479788171,King's Cross St. Pancras,1767.3366418077433,51.529785143075884,-0.12477613021792856,Caledonian Road,1875.8720867669047,51.54852353192346,-0.11847347641237985,Holloway Road,2312.7231340928442,51.55275576448648,-0.11326351342118741,1516.32440755161,0.03853590539938368,6,0.1428571428571429,0.09069652412826329
51.55610393927857,-0.18028398724039,Hampstead,173.59595831709956,51.5565898798849,-0.17852309354375814,Finchley Road,1285.2127389054733,51.54723083836693,-0.18109153879636952,West Hampstead,1613.6297022553429,51.546801915703966,-0.19016960275566852,Belsize Park,1640.764129948634,51.55032570077621,-0.16462098681641185,Swiss Cottage,1858.9344235164194,51.54370542648981,-0.17483983477545229,601.9947943867697,0.012586318250770723,3,0.5714285714285714,0.29200744483967106
51.52936640755076,-0.19576676406447618,Kilburn Park,822.31687584989,51.534947545387965,-0.1940203229099902,Maida Vale,897.8727640815155,51.529729085515065,-0.18582932871164548,Queen's Park,1119.900957658391,51.533978210095334,-0.2057416029735368,Westbourne Park,1314.514734324658,51.52092006250626,-0.20115293263288994,Warwick Avenue,1413.731705082414,51.52319886210523,-0.18360675558678705,1065.907019140385,0.025752610288367155,3,0.5714285714285714,0.2985905908584693
51.518076265153134,-0.052079209992154,Whitechapel,733.7772567407737,51.520235896580154,-0.059438815295188956,Stepney Green,738.1437856880714,51.52186169216427,-0.04659090323887023,Whitechapel,811.7630013228684,51.51953209733413,-0.06076871394741355,SHADWELL - DLR,1014.6082921960948,51.51169259561915,-0.05674435589985752,Bethnal Green,1345.6497316944872,51.527237667207054,-0.05469030192583057,880.5630508250957,0.020492363448478074,3,0.5714285714285714,0.2959604674385247
51.53675808127251,-0.09453995421155892,Angel,1193.728477251938,51.53148758749647,-0.10472643840232035,Highbury & Islington,1751.3010387466709,51.5474243924603,-0.10373671479788171,Old Street,1799.205473046009,51.52508527631206,-0.08763720259182553,Barbican,2423.9261716442816,51.520208600153815,-0.09879996291215272,Farringdon,2534.23135859062,51.5199138534531,-0.10229023129298688,1803.9684047816872,0.04669952918059395,5,0.2857142857142857,0.16620690744743982
51.54597747033994,-0.10857715017469577,Highbury & Islington,484.0098996010825,51.5474243924603,-0.10373671479788171,Caledonian Road,965.2806591302086,51.54852353192346,-0.11847347641237985,Holloway Road,1067.4180274022426,51.55275576448648,-0.11326351342118741,Arsenal,1831.3873650091366,51.55861585603557,-0.10728530327692844,Angel,2124.0078430036006,51.53148758749647,-0.10472643840232035,988.9780680391502,0.023569289862002515,3,0.5714285714285714,0.29749893064528693
51.52037963990931,-0.19612175511169994,Westbourne Park,460.5701212265129,51.52092006250626,-0.20115293263288994,Royal Oak,776.2676505709858,51.519048130119494,-0.18778627332991857,Warwick Avenue,1200.3766519394255,51.52319886210523,-0.18360675558678705,Bayswater,1379.974519554667,51.51232394663448,-0.1879225224209527,Ladbroke Grove,1404.9135210320178,51.51732053919889,-0.21090185775767434,872.7605813596421,0.02027092157625504,4,0.4285714285714286,0.22442117507384182
51.543566398462815,0.03554024958998539,Upton Park,1184.268312878329,51.53538004104193,0.03521015765496934,Forest Gate,1350.197249426078,51.5492323681362,0.023638956467786507,Manor Park,1530.5483263793503,51.5521974107032,0.0453638119732596,East Ham,1670.896841497907,51.53940709913807,0.052826568311649,Plaistow,2445.7057855353673,51.53123134107084,0.01698872064506072,1540.4725414648192,0.039221253545648115,3,0.5714285714285714,0.30532491248710975
51.525595166605314,0.03473839185278934,Upton Park,1415.705848638477,51.53538004104193,0.03521015765496934,Plaistow,1796.6406281995,51.53123134107084,0.01698872064506072,PRINCE REGENT - DLR,2347.10105852921,51.509369041856736,0.03419020393459334,Custom House,2347.34377773977,51.50982599790279,0.028573800978762626,CUSTOM HOUSE - DLR,2410.309363603251,51.50973560413286,0.026525239812880297,1976.353951846451,0.05159200308968513,3,0.5714285714285714,0.31151028725912827
51.49962249279931,-0.024050265215970465,SOUTH QUAY - DLR,474.9169939890634,51.50061170089832,-0.019032982341807152,HERON QUAYS - DLR,585.5559343825856,51.50333239231443,-0.021451061501281746,Canary Wharf,791.3193852225758,51.50343011540573,-0.01775363971134798,CANARY WHARF - DLR,843.0128003196196,51.50512260005705,-0.02095564721391252,CROSSHARBOUR - DLR,1017.3831031125043,51.49590351988882,-0.01448274918950765,690.0113457121795,0.015084315839663553,1,0.8571428571428572,0.43611358649126036
51.50412121283086,-0.31203332037312853,South Ealing,619.6936663406101,51.50089966685759,-0.30750525770727977,Northfields,651.6882532741698,51.49965470504596,-0.31299492833767906,West Ealing,1582.9967753751114,51.51347049215326,-0.3211587871947293,Boston Manor,1776.2776350173856,51.495219674970095,-0.3255952087308763,Ealing Broadway,1804.7761696881855,51.514746193536666,-0.3015399965342394,1021.0436754945677,0.024479343810990768,4,0.4285714285714286,0.22652538619120968
51.534330157497784,0.049547222656808096,East Ham,791.5504467643837,51.53940709913807,0.052826568311649,Upton Park,1301.980278182527,51.53538004104193,0.03521015765496934,Manor Park,2611.327148752175,51.5521974107032,0.0453638119732596,Barking,2877.337739301829,51.539885097485445,0.08018208014455507,Plaistow,2970.6597384921724,51.53123134107084,0.01698872064506072,1613.673500963286,0.041298769848868946,3,0.5714285714285714,0.30636367063872016
51.6173995821922,-0.07671747663467839,Wood Green,4148.644916354732,51.5974714659873,-0.10985901912398979,Tottenham Hale,4498.7542960114815,51.588048703622064,-0.06016465065370944,Bounds Green,4540.994335259531,51.60706378685743,-0.12434197787111509,Turnpike Lane,4582.874739549872,51.59025232853629,-0.10297211354184564,Seven Sisters,4931.7469004496415,51.58339794718637,-0.0725100279127818,4526.8780387681545,0.12397842273010318,2,0.7142857142857143,0.41913206850790874
51.58849478067727,0.037548650334591205,South Woodford,1040.8773314906525,51.591892453017074,0.027362518469825348,Snaresbrook,1843.0059595972348,51.58067707711797,0.021393426338283436,Redbridge,1907.262967213667,51.576249813818855,0.04541027413893245,Wanstead,2030.7084479381217,51.57560161289604,0.028620677765270462,Woodford,2675.1613102609394,51.60686112070409,0.03401185348011002,1727.7843842637778,0.04453735062780897,1,0.8571428571428572,0.4508401038853331
51.5295871408006,-0.21017492652805614,Queen's Park,750.3999879782748,51.533978210095334,-0.2057416029735368,Kensal Green,1297.9944639402984,51.530571777558116,-0.2244787816465951,Westbourne Park,1494.3928517269824,51.52092006250626,-0.20115293263288994,Kilburn Park,1650.3981209784097,51.534947545387965,-0.1940203229099902,Ladbroke Grove,1775.0791205393916,51.51732053919889,-0.21090185775767434,1268.559149053281,0.03150408003222052,3,0.5714285714285714,0.30146632573039595
51.56324560259117,-0.06457667189346193,Seven Sisters,3000.7406297932293,51.58339794718637,-0.0725100279127818,Manor House,3038.407256011193,51.57075126410129,-0.09606483069595965,Tottenham Hale,3608.8774136775337,51.588048703622064,-0.06016465065370944,Finsbury Park,3799.6483070946783,51.56457021452156,-0.10667934765407905,Arsenal,3907.4716430730173,51.55861585603557,-0.10728530327692844,3428.020849367243,0.09279175876377047,2,0.7142857142857143,0.40353873652474237
51.52914390354975,-0.18135880509015878,Maida Vale,412.01911267524986,51.529729085515065,-0.18582932871164548,Warwick Avenue,883.3054320220668,51.52319886210523,-0.18360675558678705,St. John's Wood,1091.4535085070197,51.535204969887026,-0.17414757419359148,Kilburn Park,1417.2156491534802,51.534947545387965,-0.1940203229099902,Paddington (H&C Line),1554.5700470255072,51.51851327530939,-0.17879726299159643,858.4772546119763,0.019865546504865064,3,0.5714285714285714,0.2956470589667182
51.5265801030927,-0.022884074951270383,Bow Road,214.34047840504527,51.526902665586434,-0.02520321216907312,BOW CHURCH - DLR,244.85745999422275,51.5276649933369,-0.020800084864193928,DEVONS ROAD - DLR,769.3611789683007,51.52246478544654,-0.017479328930153804,Mile End,1000.9175492295985,51.52523491887216,-0.033768063294587126,Bromley-by-Bow,1063.5106269916882,51.524760125717506,-0.0114614594625467,417.0618997293413,0.007337738091644865,3,0.5714285714285714,0.2893831547601081
51.443712797090704,0.0886590922210239,WOOLWICH ARSENAL - DLR,6926.5369714199305,51.48998499909446,0.06886448006159107,Woolwich,7094.254476013752,51.491667870973096,0.07211914694673671,Abbey Wood,7430.221010267666,51.491073973350574,0.12054450171194857,KING GEORGE V - DLR,8762.814149336773,51.5020253612449,0.06229214246817125,LONDON CITY AIRPORT - DLR,9410.965872695158,51.503667439663054,0.048144105991576286,7808.906242978975,0.2171256594411381,1,0.8571428571428572,0.5371342582919977
51.546666585792416,-0.15181583144889213,Chalk Farm,412.8811713409956,51.54385835909765,-0.15264214766916676,Kentish Town,1127.3676681964441,51.55029387744979,-0.1407479399821426,Belsize Park,1270.0172328061733,51.55032570077621,-0.16462098681641185,Camden Town,1357.7516481989762,51.53923059833878,-0.14262297026124665,Tufnell Park,1901.2863342208213,51.55684430975304,-0.13846565572304778,933.029259255756,0.021981406817986937,1,0.8571428571428572,0.43956213198042204
51.53652341689233,-0.08013055143705167,Old Street,1787.3246711072845,51.52508527631206,-0.08763720259182553,Angel,2334.817005450449,51.53148758749647,-0.10472643840232035,Highbury & Islington,2648.8685436250894,51.5474243924603,-0.10373671479788171,Bethnal Green,2658.664474338065,51.527237667207054,-0.05469030192583057,Moorgate,2753.7195642306433,51.51836305552553,-0.08931153515551986,2375.7618087195924,0.06292759677552777,6,0.1428571428571429,0.10289236981633534
51.56441152530923,-0.1366684732926749,Archway,146.8380409198799,51.56453819250787,-0.13505202452388373,Tufnell Park,1106.240511200323,51.55684430975304,-0.13846565572304778,Kentish Town,2074.4444706641298,51.55029387744979,-0.1407479399821426,Highgate,2133.8145588696048,51.57784395375154,-0.14646788226539453,Holloway Road,2700.427448533612,51.55275576448648,-0.11326351342118741,553.3911999082135,0.011206899721066211,2,0.7142857142857143,0.3627463070033903
51.538353161617415,-0.1954115869896645,Kilburn Park,508.21886986443644,51.534947545387965,-0.1940203229099902,Queen's Park,1126.1277875098008,51.533978210095334,-0.2057416029735368,West Hampstead,1310.0275817391919,51.546801915703966,-0.19016960275566852,Kilburn,1500.1213338742673,51.546953022454446,-0.20471489160119855,Maida Vale,1517.3031373335689,51.529729085515065,-0.18582932871164548,1011.1889260607232,0.024199656184582037,2,0.7142857142857143,0.3692426852351482
51.54643859053307,-0.13740273381218757,Kentish Town,633.8768958883057,51.55029387744979,-0.1407479399821426,Camden Town,1143.7233469042392,51.53923059833878,-0.14262297026124665,Chalk Farm,1423.872722215265,51.54385835909765,-0.15264214766916676,Tufnell Park,1507.8447588651097,51.55684430975304,-0.13846565572304778,Mornington Crescent,1701.1711393287396,51.534704942339104,-0.13874979864115178,1135.0044046152523,0.02771366306441687,1,0.8571428571428572,0.44242826010363706
51.54689281545062,-0.16622911091470477,Belsize Park,517.174652358648,51.55032570077621,-0.16462098681641185,Swiss Cottage,902.9217791613902,51.54370542648981,-0.17483983477545229,Chalk Farm,1301.3226636970594,51.54385835909765,-0.15264214766916676,Finchley Road,1340.9471301677413,51.54723083836693,-0.18109153879636952,Hampstead,1787.435563302101,51.5565898798849,-0.17852309354375814,977.5649562304504,0.023245374355764476,3,0.5714285714285714,0.29733697289216793
51.536287068669566,-0.06572134935552744,Bethnal Green,1643.9523086188788,51.527237667207054,-0.05469030192583057,Whitechapel,2389.406489212471,51.520235896580154,-0.059438815295188956,Whitechapel,2463.8496654286137,51.51953209733413,-0.06076871394741355,Old Street,2555.7428626885103,51.52508527631206,-0.08763720259182553,Stepney Green,2707.323627483721,51.52186169216427,-0.04659090323887023,2279.6520394816,0.06019990558324355,4,0.4285714285714286,0.24438566707733608
51.55473082997603,-0.0937889419979048,Arsenal,1340.106547146091,51.55861585603557,-0.10728530327692844,Highbury & Islington,1385.9280700217148,51.5474243924603,-0.10373671479788171,Holloway Road,1778.756307318813,51.55275576448648,-0.11326351342118741,Finsbury Park,1837.0630018096194,51.56457021452156,-0.10667934765407905,Manor House,2325.84461508212,51.57075126410129,-0.09606483069595965,1664.3163581625076,0.042736064690274286,2,0.7142857142857143,0.3785108894879943
51.57223169965321,-0.06419461819359444,Seven Sisters,1780.1704228295134,51.58339794718637,-0.0725100279127818,Tottenham Hale,2316.0256490271804,51.588048703622064,-0.06016465065370944,Manor House,2880.0338076567555,51.57075126410129,-0.09606483069595965,Blackhorse Road,2921.8434791408513,51.586840594392974,-0.041793873795219,Finsbury Park,3985.957933180609,51.56457021452156,-0.10667934765407905,2585.4936580730578,0.06887999602441475,2,0.7142857142857143,0.3915828551550645
51.56418167765682,-0.12224981693796813,Archway,1155.0228205223395,51.56453819250787,-0.13505202452388373,Finsbury Park,1404.505140466713,51.56457021452156,-0.10667934765407905,Arsenal,1570.7506623322595,51.55861585603557,-0.10728530327692844,Tufnell Park,1806.1998484508044,51.55684430975304,-0.13846565572304778,Holloway Road,1840.2175792376388,51.55275576448648,-0.11326351342118741,1509.8992717418007,0.03835355363122733,3,0.5714285714285714,0.3048910625298994
51.49251974746254,-0.13960028823614046,Victoria,643.5948787143759,51.49640097859263,-0.14308928980094832,Pimlico,728.0326023108336,51.489081972458365,-0.13370871250340682,St. James's Park,1152.223018375758,51.49956127784573,-0.1336270216533475,Sloane Square,1510.9459885074154,51.49233693461083,-0.1563353394945677,Vauxhall,1700.9686574970476,51.48569743810505,-0.12425212298282715,991.0877035228053,0.023629163422966403,3,0.5714285714285714,0.2975288674257689
51.538792996671674,-0.224233782867939,Kensal Green,1189.0706166362386,51.530571777558116,-0.2244787816465951,Willesden Green,1535.988824336382,51.54937241454188,-0.22271672855408042,Queen's Park,1807.214119599117,51.533978210095334,-0.2057416029735368,Willesden Junction,2053.871658743381,51.53240375197415,-0.2445731603163596,Kilburn,2119.0127626620215,51.546953022454446,-0.20471489160119855,1664.3474390317958,0.04273694679637108,2,0.7142857142857143,0.3785113305410427
51.554496071618786,-0.07937362759068523,Highbury & Islington,2422.9245407996805,51.5474243924603,-0.10373671479788171,Arsenal,2585.721630264656,51.55861585603557,-0.10728530327692844,Manor House,2790.9407337165526,51.57075126410129,-0.09606483069595965,Finsbury Park,2860.2024370694376,51.56457021452156,-0.10667934765407905,Holloway Road,3065.6076914456394,51.55275576448648,-0.11326351342118741,2726.8895807564286,0.0728929534582556,2,0.7142857142857143,0.39358933387198497
51.48443237673119,-0.19754005915523787,West Brompton,448.44244711188657,51.487279564113926,-0.19557175970385998,Fulham Broadway,586.128761236008,51.48076777565934,-0.19476643999333534,Earl's Court,1161.0250713429512,51.49198454803539,-0.19317540262977842,West Kensington,1164.5830269406895,51.490790555082114,-0.20545700029973243,Parsons Green,1418.3544790288108,51.47498535708651,-0.20176352486363486,786.0304208351472,0.017809433042428217,2,0.7142857142857143,0.36604757366407126
51.51993300338399,-0.1673117129027476,Edgware Road (Circle Line),42.5422488474285,51.51987245129845,-0.16777316638890663,Edgware Road (Bakerloo),276.02896943734856,51.52046920147198,-0.1702481178612425,Marylebone,424.7272330478443,51.52215890700219,-0.16424026631880048,Paddington,922.334628263583,51.51656148278404,-0.17598969226411743,Baker Street,1025.979936414594,51.5230020037108,-0.1570581597729946,158.51785460000772,0.0,6,0.1428571428571429,0.07142857142857145
51.48016429570182,0.06152003069882575,WOOLWICH ARSENAL - DLR,1567.4373247776925,51.48998499909446,0.06886448006159107,Woolwich,1919.2373413637417,51.491667870973096,0.07211914694673671,KING GEORGE V - DLR,3162.266257078417,51.5020253612449,0.06229214246817125,LONDON CITY AIRPORT - DLR,3607.0962581494186,51.503667439663054,0.048144105991576286,PONTOON DOCK - DLR,4093.313529212878,51.5022815457314,0.03322630989810302,2504.024708064513,0.06656782589701936,1,0.8571428571428572,0.4618553415199383
51.54527336223377,-0.06534016358819927,Bethnal Green,2779.455318300995,51.527237667207054,-0.05469030192583057,Highbury & Islington,3476.055386525401,51.5474243924603,-0.10373671479788171,Old Street,3545.0412726936056,51.52508527631206,-0.08763720259182553,Whitechapel,3659.693346188844,51.520235896580154,-0.059438815295188956,Whitechapel,3745.323863294869,51.51953209733413,-0.06076871394741355,3401.8330000376222,0.09204852145784803,5,0.2857142857142857,0.18888140358606686
51.55542501083357,-0.1370357587816481,Tufnell Park,242.36808137674495,51.55684430975304,-0.13846565572304778,Kentish Town,814.0042707970262,51.55029387744979,-0.1407479399821426,Archway,1329.9573159181189,51.56453819250787,-0.13505202452388373,Caledonian Road,1948.4977285673608,51.54852353192346,-0.11847347641237985,Holloway Road,2177.578730847561,51.55275576448648,-0.11326351342118741,706.3348072430932,0.015547591972760984,2,0.7142857142857143,0.36491665312923766
51.493419243319025,-0.19718563943830614,Earl's Court,417.24552009851936,51.49198454803539,-0.19317540262977842,West Kensington,837.866940768369,51.490790555082114,-0.20545700029973243,West Brompton,899.7285198063314,51.487279564113926,-0.19557175970385998,High Street Kensington,1110.984237363034,51.500445098932744,-0.19220609592531968,Gloucester Road,1224.0073787850497,51.49448863919927,-0.18373468987431105,778.9721089564898,0.017609111105371708,3,0.5714285714285714,0.29451884126697153
51.478565137177306,-0.41378034981074985,Hatton Cross,1935.0474734958666,51.46662784627763,-0.42346421038625753,Hounslow West,2626.445124932407,51.47361867347103,-0.38579398315426044,Hayes & Harlington,3574.4838225426215,51.50303632210459,-0.4193768852119428,Heathrow Terminals 1-2-3,3644.3034249478624,51.47130365988795,-0.4524258114844233,Heathrow Terminals 1-2-3,3734.048110671126,51.471914675198775,-0.45373649957876755,2907.8332637774583,0.07802831580892103,2,0.7142857142857143,0.39615701504731765
51.54574446168088,-0.09416465490431063,Highbury & Islington,896.618396489673,51.5474243924603,-0.10373671479788171,Holloway Road,1998.3102292123783,51.55275576448648,-0.11326351342118741,Arsenal,2205.4425794140398,51.55861585603557,-0.10728530327692844,Caledonian Road,2228.3502083634658,51.54852353192346,-0.11847347641237985,Angel,2271.118045445037,51.53148758749647,-0.10472643840232035,1690.2041866487111,0.04347078710516557,3,0.5714285714285714,0.3074496792668685
51.491592024321655,-0.0820179632700769,Borough,1722.3676100963883,51.5011913652754,-0.0933129512735988,Bermondsey,1822.5855085743622,51.49770238120657,-0.06435917646629304,Elephant & Castle,1836.0335358624463,51.49583746787788,-0.10118627610280032,London Bridge,2066.520905109128,51.50506500549169,-0.08964851723570844,Kennington,2212.496100321058,51.48834003191997,-0.10596541286235016,1915.8534874571408,0.0498749395158961,3,0.5714285714285714,0.3106517554722337
51.52060030294997,-0.2105270793519563,Ladbroke Grove,475.4884239713724,51.51732053919889,-0.21090185775767434,Westbourne Park,846.9553353798311,51.52092006250626,-0.20115293263288994,Latimer Road,1226.1937017962646,51.513458663999614,-0.21785393577321283,White City,1746.7179985772862,51.5122152625013,-0.22446214525403546,Kensal Green,1913.9358736736044,51.530571777558116,-0.2244787816465951,962.5902642049906,0.022820377647637235,4,0.4285714285714286,0.2256959031095329
51.51139285794547,-0.1964765623078588,Notting Hill Gate,325.3450300205406,51.509156012573975,-0.19608997336265582,Bayswater,783.5144506765303,51.51232394663448,-0.1879225224209527,Queensway,858.6346261222317,51.51025217607452,-0.18713829824007047,Holland Park,1030.836892241708,51.5071535735316,-0.20566045316838816,Royal Oak,1356.5825949096723,51.519048130119494,-0.18778627332991857,692.3450661625068,0.015150549155673794,4,0.4285714285714286,0.2218609888635512
51.5455097890552,-0.07975232195453412,Highbury & Islington,2180.248320492308,51.5474243924603,-0.10373671479788171,Angel,3030.5964867793186,51.53148758749647,-0.10472643840232035,Old Street,3038.0673400025694,51.52508527631206,-0.08763720259182553,Arsenal,3123.1115867282842,51.55861585603557,-0.10728530327692844,Holloway Road,3197.9660713709823,51.55275576448648,-0.11326351342118741,2856.0326494199803,0.0765581626636365,3,0.5714285714285714,0.32399336704610393
51.59399461556214,-0.30870464475875176,Kenton,1931.0422583432496,51.58161162102015,-0.31672815541742494,Queensbury,2025.2138080368113,51.59419745209295,-0.2862217775472735,Canons Park,2350.561246143124,51.60770907048488,-0.29469410620588665,Harrow & Wealdstone,2375.0176253814284,51.59204382510434,-0.3348864548890388,Northwick Park,2397.481804015649,51.57847500401296,-0.31806633884631424,2197.595273200915,0.057871052643258876,3,0.5714285714285714,0.31464981203591513
51.55519522928508,-0.1226200133777617,Holloway Road,914.3019586036573,51.55275576448648,-0.11326351342118741,Caledonian Road,1034.7066831035988,51.54852353192346,-0.11847347641237985,Tufnell Park,1448.2093385609046,51.55684430975304,-0.13846565572304778,Arsenal,1468.1996643976327,51.55861585603557,-0.10728530327692844,Archway,1755.3596125315828,51.56453819250787,-0.13505202452388373,1249.535781436541,0.03096417786923359,2,0.7142857142857143,0.37262494607747393
51.520157205435744,-0.18171663631029186,Paddington (H&C Line),354.8032087251294,51.51851327530939,-0.17879726299159643,Warwick Avenue,471.74979801368715,51.52319886210523,-0.18360675558678705,Royal Oak,570.5950513857852,51.519048130119494,-0.18778627332991857,Paddington,676.331555961064,51.51618809108197,-0.17775149678156207,Paddington,733.0382155040054,51.51656148278404,-0.17598969226411743,524.4642634611479,0.010385924388464588,4,0.4285714285714286,0.2194786764799466
51.56395023606173,-0.10783123122089273,Finsbury Park,137.17579800555356,51.56457021452156,-0.10667934765407905,Arsenal,772.9920624445125,51.55861585603557,-0.10728530327692844,Manor House,1446.331108929411,51.57075126410129,-0.09606483069595965,Holloway Road,1691.311139403203,51.55275576448648,-0.11326351342118741,Highbury & Islington,2418.1981430496044,51.5474243924603,-0.10373671479788171,486.39159299282727,0.009305383994636183,2,0.7142857142857143,0.36179554914017525
51.53482958382844,0.020730941164314162,Plaistow,620.2504561947922,51.53123134107084,0.01698872064506072,Upton Park,1308.3303241142737,51.53538004104193,0.03521015765496934,ABBEY ROAD - DLR,1577.831229319788,51.532374927988755,0.003685760997769832,WEST HAM - DLR,1706.9219501839098,51.52825133938204,0.005018513637285425,West Ham,1760.2392539932991,51.5282792316888,0.0042827258459676954,1200.6760159697994,0.029577488951162405,3,0.5714285714285714,0.3005030301898669
51.54733989538055,-0.19505622139599632,West Hampstead,447.4109725650897,51.546801915703966,-0.19016960275566852,Kilburn,872.6529845499144,51.546953022454446,-0.20471489160119855,Finchley Road,1259.2002735498802,51.54723083836693,-0.18109153879636952,Kilburn Park,1794.4960360912567,51.534947545387965,-0.1940203229099902,Swiss Cottage,1897.1057816150064,51.54370542648981,-0.17483983477545229,950.6524839162277,0.022481571526186152,3,0.5714285714285714,0.29695507147737876
51.52800478566327,-0.10932178919555743,Angel,652.2887612008427,51.53148758749647,-0.10472643840232035,Farringdon,1151.5177377272812,51.52047027577585,-0.10519198867818359,Farringdon,1330.9357828898735,51.5199138534531,-0.10229023129298688,King's Cross St. Pancras,1417.5739033064237,51.529785143075884,-0.12477613021792856,Chancery Lane,1425.3188466807865,51.51824890350831,-0.11156930260294359,1096.5245303116128,0.02662156581925202,7,0.0,0.01331078290962601
51.49363969943933,-0.2115824481080613,Barons Court,558.4452965031545,51.49029837209941,-0.21468405012348488,Kensington (Olympia),606.6248078745774,51.49773548808454,-0.21012996310043217,West Kensington,689.5740979395746,51.490790555082114,-0.20545700029973243,Hammersmith (Dist&Picc Line),1061.2906644931918,51.49199951963806,-0.22304188389888033,Hammersmith (H&C Line),1204.987437367949,51.49378399419851,-0.2249293587788519,750.5868091277288,0.016803507960684815,3,0.5714285714285714,0.29411603969462813
51.4799104119371,0.07591028219148013,WOOLWICH ARSENAL - DLR,1589.8032335617645,51.48998499909446,0.06886448006159107,Woolwich,1734.453726999736,51.491667870973096,0.07211914694673671,KING GEORGE V - DLR,3426.38909036988,51.5020253612449,0.06229214246817125,GALLIONS REACH - DLR,4220.766854610262,51.508980646475905,0.07175759149661497,LONDON CITY AIRPORT - DLR,4252.9273661287125,51.503667439663054,0.048144105991576286,2538.7573920198383,0.0675535741394767,1,0.8571428571428572,0.46234821564116696
51.47499950354359,-0.16911287957672583,Battersea Power Station,2410.4094399559294,51.47947593806482,-0.1434008238398742,Fulham Broadway,2462.136095913474,51.48076777565934,-0.19476643999333534,Sloane Square,2759.8657894809844,51.49233693461083,-0.1563353394945677,South Kensington,2784.608271610702,51.49408858708188,-0.17316504691138462,Parsons Green,2948.556345033963,51.47498535708651,-0.20176352486363486,2657.2831427528226,0.07091745326328,4,0.4285714285714286,0.24974444091735432
51.466012687373514,-0.16947288909178992,Clapham South,2730.7766849970426,51.45323695245536,-0.14721241263243376,Clapham Common,2967.2175843123273,51.46221051259463,-0.13719253566731915,Battersea Power Station,3055.2643251132117,51.47947593806482,-0.1434008238398742,Fulham Broadway,3125.787715741294,51.48076777565934,-0.19476643999333534,Parsons Green,3191.9537230952315,51.47498535708651,-0.20176352486363486,3005.307465829754,0.08079473096651643,2,0.7142857142857143,0.3975402226261154
51.590909476350355,-0.10671048383231603,Turnpike Lane,349.90232832879826,51.59025232853629,-0.10297211354184564,Wood Green,990.4281051275308,51.5974714659873,-0.10985901912398979,Bounds Green,2824.7312960882746,51.60706378685743,-0.12434197787111509,Manor House,3068.9050538696415,51.57075126410129,-0.09606483069595965,Seven Sisters,3266.883846342667,51.58339794718637,-0.0725100279127818,1030.1691231010684,0.02473833312351597,2,0.7142857142857143,0.3695120237046151
51.45634421391556,-0.12667837683028857,Clapham Common,1273.5148132860015,51.46221051259463,-0.13719253566731915,Clapham North,1378.6590641163714,51.46572960060881,-0.12935895070321768,Brixton,1403.280088055367,51.46266709356466,-0.1148949328839154,Clapham South,1908.8311749612208,51.45323695245536,-0.14721241263243376,Stockwell,2263.150200021964,51.47182845729258,-0.12304218836550214,1567.9241506240096,0.04000035761707847,2,0.7142857142857143,0.37714303595139637
51.54711725100699,-0.18064256587354882,Finchley Road,43.686687632457634,51.54723083836693,-0.18109153879636952,Swiss Cottage,719.1565470740196,51.54370542648981,-0.17483983477545229,West Hampstead,860.2050090782913,51.546801915703966,-0.19016960275566852,Hampstead,1383.1103731859598,51.5565898798849,-0.17852309354375814,Belsize Park,1517.2033293652612,51.55032570077621,-0.16462098681641185,186.39040476699992,0.0007910507974349659,3,0.5714285714285714,0.28610981111300315
51.46533077211486,-0.12631019632048537,Clapham North,281.35664718382475,51.46572960060881,-0.12935895070321768,Stockwell,984.9059185805947,51.47182845729258,-0.12304218836550214,Clapham Common,1081.6107306792844,51.46221051259463,-0.13719253566731915,Brixton,1100.7311433342536,51.46266709356466,-0.1148949328839154,Nine Elms,2160.589976895033,51.48013931574214,-0.12948529538068784,728.2892723727758,0.016170681609125166,2,0.7142857142857143,0.36522819794741973
51.42062664144712,-0.14252226459593545,Tooting Broadway,2551.1358157069317,51.42767600459317,-0.16838983681417344,Tooting Bec,2675.8064593175927,51.43589927439103,-0.15923362533504307,Colliers Wood,3232.7590681855345,51.41815971696416,-0.17805799608697154,Balham,3450.7948950095415,51.44362737290878,-0.15269122947563088,South Wimbledon,4663.686031207556,51.41498929257676,-0.19330652029319118,3166.068587842357,0.08535729208857729,1,0.8571428571428572,0.4712500746157172
51.581454658350204,-0.0782360702693988,Seven Sisters,587.4721474288019,51.58339794718637,-0.0725100279127818,Tottenham Hale,1886.7976410932984,51.588048703622064,-0.06016465065370944,Manor House,2230.8737169722344,51.57075126410129,-0.09606483069595965,Turnpike Lane,2566.055104637548,51.59025232853629,-0.10297211354184564,Blackhorse Road,3374.3099345582496,51.586840594392974,-0.041793873795219,1485.2123776126687,0.037652914932219124,2,0.7142857142857143,0.3759693146089667
51.51831445517953,-0.06648254172224803,Whitechapel,544.7565418827885,51.51953209733413,-0.06076871394741355,Aldgate East,593.2914370275018,51.51542691621208,-0.07115364166807008,Whitechapel,693.586231641141,51.520235896580154,-0.059438815295188956,Aldgate,1009.7974610148377,51.51449244157986,-0.07584896688802757,SHADWELL - DLR,1299.6501903307928,51.51169259561915,-0.05674435589985752,743.7474765216608,0.016609400873979847,4,0.4285714285714286,0.22259041472270422
51.48284021519639,-0.09678756026987641,Kennington,1148.5687060054033,51.48834003191997,-0.10596541286235016,Oval,1417.6986312533043,51.48183745351276,-0.1124062491167189,Elephant & Castle,1921.0550299229094,51.49583746787788,-0.10118627610280032,Vauxhall,2513.9456108064587,51.48569743810505,-0.12425212298282715,Borough,2672.2772705264388,51.5011913652754,-0.0933129512735988,1743.0358044542147,0.044970201157501374,3,0.5714285714285714,0.3081993862930364
51.420853794863866,-0.15689569586481125,Tooting Broadway,1432.8685011649009,51.42767600459317,-0.16838983681417344,Colliers Wood,1952.6715345562654,51.41815971696416,-0.17805799608697154,Tooting Bec,2185.951300111963,51.43589927439103,-0.15923362533504307,Balham,3315.123208570645,51.44362737290878,-0.15269122947563088,South Wimbledon,3399.7055978355374,51.41498929257676,-0.19330652029319118,2209.185657362015,0.05819999931581965,1,0.8571428571428572,0.45767142822933843
51.44735768167383,-0.1270462702455128,Clapham South,2010.7218602662688,51.45323695245536,-0.14721241263243376,Clapham Common,2335.310079401988,51.46221051259463,-0.13719253566731915,Balham,2379.372011760976,51.44362737290878,-0.15269122947563088,Brixton,2471.157622586168,51.46266709356466,-0.1148949328839154,Clapham North,2664.9759024010577,51.46572960060881,-0.12935895070321768,2352.1353544574977,0.062257054418527226,2,0.7142857142857143,0.3882713843521208
51.53458079277646,0.035139210845408976,Upton Park,115.7625302552658,51.53538004104193,0.03521015765496934,Plaistow,1707.2608182890765,51.53123134107084,0.01698872064506072,East Ham,1741.2091015167318,51.53940709913807,0.052826568311649,Forest Gate,2359.0608460512863,51.5492323681362,0.023638956467786507,Manor Park,2709.389959105184,51.5521974107032,0.0453638119732596,472.0808928555727,0.008899232039124266,3,0.5714285714285714,0.2901639017338478
51.617162411894036,-0.06228241054558216,Tottenham Hale,4214.629248781882,51.588048703622064,-0.06016465065370944,Blackhorse Road,4757.425439480104,51.586840594392974,-0.041793873795219,Seven Sisters,4968.997224612868,51.58339794718637,-0.0725100279127818,Wood Green,5144.171167392242,51.5974714659873,-0.10985901912398979,Turnpike Lane,5345.228015813674,51.59025232853629,-0.10297211354184564,4853.464677441201,0.1332472775498485,2,0.7142857142857143,0.42376649591778137
51.474317355946944,-0.1259417346009123,Stockwell,445.10159790951786,51.47182845729258,-0.12304218836550214,Nine Elms,900.6801316095093,51.48013931574214,-0.12948529538068784,Clapham North,1279.6589863878683,51.46572960060881,-0.12935895070321768,Oval,1636.0286331425878,51.48183745351276,-0.1124062491167189,Vauxhall,1652.7440564398828,51.48569743810505,-0.12425212298282715,933.7593105736623,0.022002126403160818,2,0.7142857142857143,0.36814392034443755
51.45680039623195,-0.15544778193577982,Clapham South,905.0588818580404,51.45323695245536,-0.14721241263243376,Clapham Common,1825.3017465253579,51.46221051259463,-0.13719253566731915,Balham,1921.1589267268666,51.44362737290878,-0.15269122947563088,Clapham North,2687.271992196728,51.46572960060881,-0.12935895070321768,Tooting Bec,3041.7966052017186,51.43589927439103,-0.15923362533504307,1739.643597526443,0.04487392693863008,1,0.8571428571428572,0.45100839204074367
51.534077458450795,0.06395480997305583,East Ham,1265.459335735755,51.53940709913807,0.052826568311649,Barking,1687.4006698603025,51.539885097485445,0.08018208014455507,Upton Park,2599.400914055731,51.53538004104193,0.03521015765496934,BECKTON - DLR,2849.842316752102,51.514416825474704,0.06181424352749826,Manor Park,3110.8663072645263,51.5521974107032,0.0453638119732596,2049.256864421977,0.05366106052370838,3,0.5714285714285714,0.31254481597613987
51.465787144258755,-0.15508515058751512,Clapham Common,1696.9587222407406,51.46221051259463,-0.13719253566731915,Clapham South,1949.2575003431496,51.45323695245536,-0.14721241263243376,Battersea Power Station,2243.2314883008135,51.47947593806482,-0.1434008238398742,Clapham North,2323.741268558123,51.46572960060881,-0.12935895070321768,Stockwell,3023.0860599466487,51.47182845729258,-0.12304218836550214,2165.2340694397253,0.056952609376034614,2,0.7142857142857143,0.38561916183087447
51.51117049605695,-0.18207427387317063,Queensway,475.8610051758905,51.51025217607452,-0.18713829824007047,Bayswater,553.4425108695643,51.51232394663448,-0.1879225224209527,Lancaster Gate,602.8276114510348,51.51168719578341,-0.17544510185673504,Paddington,823.785773863945,51.51618809108197,-0.17775149678156207,Paddington,953.5064075724506,51.51656148278404,-0.17598969226411743,638.5823359088313,0.013624709202578453,5,0.2857142857142857,0.14966949745843208
51.52753708653356,-0.08050842463590308,Old Street,734.3351398215041,51.52508527631206,-0.08763720259182553,Liverpool Street,1492.9257622953414,51.51735237101746,-0.08321330923554981,Liverpool Street,1529.7826334867157,51.51768710260012,-0.08669210965050332,Moorgate,1546.2182866073583,51.51836305552553,-0.08931153515551986,Aldgate,1932.7024964648529,51.51449244157986,-0.07584896688802757,1298.8906415846639,0.03236491806858927,5,0.2857142857142857,0.15903960189143748
51.45100973327095,-0.3715602552584905,Hounslow Central,2975.1821982699566,51.47131979963469,-0.3662939172379908,Hounslow East,3499.4750466890473,51.47326292270873,-0.35633446056928547,Hounslow West,3513.047839974202,51.47361867347103,-0.38579398315426044,Osterley,4707.945397578991,51.4812434687809,-0.3522207467968353,Hatton Cross,5204.268956758359,51.46662784627763,-0.42346421038625753,3813.647039927265,0.1037362150021367,1,0.8571428571428572,0.48043953607249695
51.45611354527785,-0.11229381427686476,Brixton,976.412269974505,51.46266709356466,-0.1148949328839154,Clapham North,2076.1044948397075,51.46572960060881,-0.12935895070321768,Clapham Common,2415.946887898517,51.46221051259463,-0.13719253566731915,Stockwell,2471.25800248138,51.47182845729258,-0.12304218836550214,Clapham South,3182.112646724142,51.45323695245536,-0.14721241263243376,1894.9054399355268,0.04928041301590248,2,0.7142857142857143,0.3817830636508084
51.51161344833596,-0.21087904659925177,Latimer Road,683.584655902659,51.513458663999614,-0.21785393577321283,Holland Park,798.5655777818693,51.5071535735316,-0.20566045316838816,Ladbroke Grove,825.3009866322456,51.51732053919889,-0.21090185775767434,Wood Lane,1166.5607562774537,51.510140640931624,-0.223589832503072,White City,1228.7245614845724,51.5122152625013,-0.22446214525403546,893.1962718748014,0.020850906872946516,3,0.5714285714285714,0.296139739150759
51.51970702947418,-0.15290697050268343,Baker Street,606.0473304906054,51.5230020037108,-0.1570581597729946,Regent's Park,787.7769714244027,51.52327838474291,-0.14631312455288237,Bond Street,823.5520190455954,51.51437958002913,-0.1496811425789451,Marble Arch,970.2331912266764,51.51359976087709,-0.1573589906802929,Great Portland Street,981.0751001217993,51.52384645620309,-0.1442909711973862,808.5834886000816,0.018449511619134263,6,0.1428571428571429,0.08065332723813859
51.42107907015426,-0.17126923655893136,Colliers Wood,744.9729502913232,51.41815971696416,-0.17805799608697154,Tooting Broadway,988.8518702756586,51.42767600459317,-0.16838983681417344,South Wimbledon,2178.5078640942124,51.41498929257676,-0.19330652029319118,Tooting Bec,2403.487478508662,51.43589927439103,-0.15923362533504307,Wimbledon Park,3137.614713517482,51.434055248289106,-0.19908634010842738,1409.4791307932821,0.03550352978698181,2,0.7142857142857143,0.37489462203634805
51.55496385490903,-0.10820440489497903,Arsenal,534.5883726569547,51.55861585603557,-0.10728530327692844,Holloway Road,556.7592827955561,51.55275576448648,-0.11326351342118741,Highbury & Islington,1162.331419077651,51.5474243924603,-0.10373671479788171,Caledonian Road,1313.2259364608583,51.54852353192346,-0.11847347641237985,Finsbury Park,1395.9954723494939,51.56457021452156,-0.10667934765407905,832.6582453296272,0.01913277724767775,2,0.7142857142857143,0.366709245766696
51.48465277531797,-0.21193402179415952,Barons Court,853.3185274396815,51.49029837209941,-0.21468405012348488,West Kensington,1062.8847783549445,51.490790555082114,-0.20545700029973243,Hammersmith (Dist&Picc Line),1460.9324615121047,51.49199951963806,-0.22304188389888033,West Brompton,1525.309235965046,51.487279564113926,-0.19557175970385998,Fulham Broadway,1648.7407893978902,51.48076777565934,-0.19476643999333534,1231.7231781995679,0.03045863840798663,2,0.7142857142857143,0.3723721763468505
51.43498252692912,0.07387323350975418,WOOLWICH ARSENAL - DLR,7967.173899988429,51.48998499909446,0.06886448006159107,Woolwich,8199.223338291733,51.491667870973096,0.07211914694673671,LEWISHAM - DLR,9101.602807494603,51.46565346553587,-0.014083062226242563,Abbey Wood,9142.073203535554,51.491073973350574,0.12054450171194857,ELVERSON ROAD - DLR,9501.59156071761,51.46869615376942,-0.016384302059126953,8741.588000423824,0.24359609876439475,1,0.8571428571428572,0.550369477953626
51.47408646049974,-0.11155170687392835,Stockwell,1087.8848275798557,51.47182845729258,-0.12304218836550214,Oval,1123.5362542736864,51.48183745351276,-0.1124062491167189,Brixton,1678.7501668671716,51.46266709356466,-0.1148949328839154,Nine Elms,1840.8766347781766,51.48013931574214,-0.12948529538068784,Clapham North,2011.7425417801771,51.46572960060881,-0.12935895070321768,1451.275980844442,0.03668976611502311,2,0.7142857142857143,0.3754877402003687
51.5904409167164,-0.07785661740026949,Seven Sisters,1126.667962811542,51.58339794718637,-0.0725100279127818,Tottenham Hale,1630.8546855924044,51.588048703622064,-0.06016465065370944,Turnpike Lane,2262.569087965922,51.59025232853629,-0.10297211354184564,Wood Green,3056.599131672609,51.5974714659873,-0.10985901912398979,Manor House,3286.209219164508,51.57075126410129,-0.09606483069595965,1942.3609874100462,0.0506272488255977,2,0.7142857142857143,0.382456481555656
51.412092358712876,-0.17162790366885658,Colliers Wood,1052.5598672391561,51.41815971696416,-0.17805799608697154,South Wimbledon,2004.6061902726094,51.41498929257676,-0.19330652029319118,Tooting Broadway,2272.46346581276,51.42767600459317,-0.16838983681417344,Morden,2506.71346823743,51.40253820130652,-0.19475485350439264,Wimbledon,3431.6650142340036,51.42143496760067,-0.2065150560922177,1938.5109312190064,0.0505179803875881,2,0.7142857142857143,0.3824018473366512
51.48236958779257,-0.06800257347373824,Bermondsey,2241.5900281843637,51.49770238120657,-0.06435917646629304,Canada Water,2775.4169116447433,51.49792096344705,-0.049987164956990765,Kennington,3534.6493129319074,51.48834003191997,-0.10596541286235016,Borough,3553.7785984864086,51.5011913652754,-0.0933129512735988,Elephant & Castle,3573.2730849896457,51.49583746787788,-0.10118627610280032,3029.242378140817,0.08147402767086408,3,0.5714285714285714,0.32645129954971774
51.554259494679094,-0.06495852828998887,Highbury & Islington,3633.2190166360892,51.5474243924603,-0.10373671479788171,Manor House,3680.916648321127,51.57075126410129,-0.09606483069595965,Arsenal,3867.298693932209,51.55861585603557,-0.10728530327692844,Bethnal Green,4015.9650758306925,51.527237667207054,-0.05469030192583057,Finsbury Park,4045.577812201649,51.56457021452156,-0.10667934765407905,3841.1971350280614,0.10451811420290316,3,0.5714285714285714,0.33797334281573727
51.4842102202156,-0.18314626910485518,Fulham Broadway,1161.3078349918173,51.48076777565934,-0.19476643999333534,West Brompton,1206.4490103367207,51.487279564113926,-0.19557175970385998,Earl's Court,1443.5115687849134,51.49198454803539,-0.19317540262977842,Gloucester Road,1487.3065526054233,51.49448863919927,-0.18373468987431105,South Kensington,1688.962713184711,51.49408858708188,-0.17316504691138462,1370.92679761761,0.03440937608669681,3,0.5714285714285714,0.3029189737576341
51.50306238973665,-0.24003060173248927,Goldhawk Road,1217.9542608420727,51.50199179519617,-0.22664486415404567,Stamford Brook,1295.1647195519938,51.4949181050598,-0.24600122518353934,Shepherd's Bush Market,1314.5879711790692,51.50609054189476,-0.22629592219219624,Ravenscourt Park,1342.3569936012552,51.494167735828476,-0.23577535697187463,Turnham Green,1758.1221998583223,51.4949578319235,-0.2545503301237331,1363.2919207024456,0.03419269065834978,4,0.4285714285714286,0.2313820596148892
51.57246843968796,-0.07861540449444343,Manor House,1591.9801054830964,51.57075126410129,-0.09606483069595965,Seven Sisters,1673.5720714782913,51.58339794718637,-0.0725100279127818,Finsbury Park,2775.161825660812,51.56457021452156,-0.10667934765407905,Tottenham Hale,2800.0545814011994,51.588048703622064,-0.06016465065370944,Arsenal,3269.5781925680217,51.55861585603557,-0.10728530327692844,2223.212335005877,0.05859809042944442,2,0.7142857142857143,0.38644190235757936
51.55304833268076,0.007113235524921399,Maryland,1027.995226696871,51.54597586240269,0.0059684918586619,Leyton,1246.89076005415,51.55660356521063,-0.00548715538242508,Forest Gate,1588.8713087535853,51.5492323681362,0.023638956467786507,STRATFORD INTERNATIONAL - DLR,1907.3472298350662,51.54484702873076,-0.00945375181569676,STRATFORD - DLR,1927.7049714865227,51.54137768374089,-0.0032162168615913335,1450.4611259712121,0.036666639720294235,2,0.7142857142857143,0.3754761770030043
51.54381530727826,0.02112911948590267,Forest Gate,815.4359049583593,51.5492323681362,0.023638956467786507,Maryland,1402.3180734109371,51.54597586240269,0.0059684918586619,Upton Park,1760.879109698207,51.53538004104193,0.03521015765496934,Plaistow,1857.77372939271,51.53123134107084,0.01698872064506072,STRATFORD HIGH STREET - DLR,2143.003973692293,51.53803534803309,-0.0007522964066607699,1423.5870568301473,0.03590392681110599,3,0.5714285714285714,0.3036662491198387
51.52777175765896,-0.09491498878707146,Old Street,762.8429896864044,51.52508527631206,-0.08763720259182553,Angel,1035.3571415145495,51.53148758749647,-0.10472643840232035,Barbican,1148.5108158547628,51.520208600153815,-0.09879996291215272,Farringdon,1316.8026589618353,51.5199138534531,-0.10229023129298688,Farringdon,1405.137104028767,51.52047027577585,-0.10519198867818359,1082.5982840877205,0.026226325049581372,4,0.4285714285714286,0.227398876810505
51.50909006774958,-0.05246230015293448,SHADWELL - DLR,539.4068934481802,51.51169259561915,-0.05674435589985752,LIMEHOUSE - DLR,1241.1503117918471,51.51230828962983,-0.03971175756387466,Canada Water,1630.5848104819277,51.49792096344705,-0.049987164956990765,Whitechapel,1685.8364916258595,51.51953209733413,-0.06076871394741355,Whitechapel,1730.4071775389748,51.520235896580154,-0.059438815295188956,1125.1263980371762,0.02743331537703846,3,0.5714285714285714,0.2994309434028049
51.52584387468464,0.02033296368948877,Plaistow,835.4818870617663,51.53123134107084,0.01698872064506072,WEST HAM - DLR,1424.6727175821,51.52825133938204,0.005018513637285425,West Ham,1490.0697788135333,51.5282792316888,0.0042827258459676954,STAR LANE - DLR,1630.049345983707,51.52081983718699,0.0041585727451597145,ABBEY ROAD - DLR,1773.9732866856586,51.532374927988755,0.003685760997769832,1334.3567484659995,0.03337148158582419,3,0.5714285714285714,0.30240002650719777
51.52846574568973,-0.13813605606816554,Euston,323.81024689090714,51.52808458451346,-0.13459860915117344,Euston Square,457.5186178792935,51.525633154752434,-0.13587687351584915,Warren Street,569.8735995238062,51.524527123997764,-0.13834177714005547,Great Portland Street,868.6120658968458,51.52384645620309,-0.1442909711973862,Mornington Crescent,903.9590457324198,51.534704942339104,-0.13874979864115178,538.4325839983792,0.010782359269148362,5,0.2857142857142857,0.14824832249171704
51.56300702957135,-0.05015918052708255,Blackhorse Road,3528.182408839521,51.586840594392974,-0.041793873795219,Seven Sisters,3571.051944321133,51.58339794718637,-0.0725100279127818,Tottenham Hale,3731.963069592283,51.588048703622064,-0.06016465065370944,Walthamstow Central,3888.7090407191436,51.58311960662003,-0.0215170203946605,Leyton,4131.923443885669,51.55660356521063,-0.00548715538242508,3757.731909052551,0.10214928777078836,2,0.7142857142857143,0.40821750102825133
51.552301225853135,0.050355175007698594,Manor Park,450.2632068711277,51.5521974107032,0.0453638119732596,East Ham,1877.9999162299725,51.53940709913807,0.052826568311649,Ilford,1932.9323407530876,51.55901595033399,0.06889387475453736,Forest Gate,2449.3058931834057,51.5492323681362,0.023638956467786507,Upton Park,2802.4089498107146,51.53538004104193,0.03521015765496934,1238.89084838197,0.030662064042870037,3,0.5714285714285714,0.30104531773572074
51.573168174502825,-0.12187932254404056,Archway,1722.4533216700563,51.56453819250787,-0.13505202452388373,Finsbury Park,1849.9987851156438,51.56457021452156,-0.10667934765407905,Highgate,2316.521666900039,51.57784395375154,-0.14646788226539453,Manor House,2352.4100983591347,51.57075126410129,-0.09606483069595965,Arsenal,2481.7031580416296,51.55861585603557,-0.10728530327692844,2100.103646798589,0.055104142965215805,3,0.5714285714285714,0.3132663571968936
51.48307295876753,-0.11118022135799073,Oval,210.1838988905562,51.48183745351276,-0.1124062491167189,Kennington,895.453158300051,51.48834003191997,-0.10596541286235016,Vauxhall,1239.7701144980813,51.48569743810505,-0.12425212298282715,Nine Elms,1706.4225699421293,51.48013931574214,-0.12948529538068784,Stockwell,1947.1890778496827,51.47182845729258,-0.12304218836550214,642.6177972699529,0.013739239624395171,2,0.7142857142857143,0.36401247695505473
51.52891962991158,-0.16695104332863778,Marylebone,1007.7910474404206,51.52215890700219,-0.16424026631880048,St. John's Wood,1116.8971646292598,51.535204969887026,-0.17414757419359148,Baker Street,1236.4011030925299,51.5230020037108,-0.1570581597729946,Edgware Road (Bakerloo),1257.697322604888,51.52046920147198,-0.1702481178612425,Edgware Road (Circle Line),1310.420779309174,51.51987245129845,-0.16777316638890663,1175.1921713880815,0.028854232002756237,5,0.2857142857142857,0.15728425885852096
51.50262657843674,-0.21123083652496485,Kensington (Olympia),714.2404794842172,51.49773548808454,-0.21012996310043217,Shepherd's Bush,730.2489413106753,51.50435277171325,-0.2188348749838903,Holland Park,825.3944109076674,51.5071535735316,-0.20566045316838816,Goldhawk Road,1394.165728928989,51.50199179519617,-0.22664486415404567,Shepherd's Bush Market,1448.9296374603175,51.50609054189476,-0.22629592219219624,927.9078376383029,0.021836055760038723,4,0.4285714285714286,0.22520374216573366
51.47566582761161,-0.212285620426507,Parsons Green,955.2807563052534,51.47498535708651,-0.20176352486363486,Putney Bridge,1118.754552527777,51.46825546825846,-0.2087270375114135,Fulham Broadway,1745.556141882866,51.48076777565934,-0.19476643999333534,Barons Court,2127.042366095116,51.49029837209941,-0.21468405012348488,West Brompton,2257.8893308370402,51.487279564113926,-0.19557175970385998,1459.1830087042224,0.03691417545885226,2,0.7142857142857143,0.37559994487228326
51.53604881643792,-0.05131231683998649,Bethnal Green,1310.1428183602648,51.527237667207054,-0.05469030192583057,Stepney Green,2095.404261913812,51.52186169216427,-0.04659090323887023,Mile End,2224.8291894950935,51.52523491887216,-0.033768063294587126,Whitechapel,2401.3967582787764,51.520235896580154,-0.059438815295188956,Whitechapel,2536.303195467897,51.51953209733413,-0.06076871394741355,1999.4544724717946,0.052247618925062876,3,0.5714285714285714,0.31183809517681715
51.554020996260036,-0.050543842711444215,Bethnal Green,3891.27769699202,51.527237667207054,-0.05469030192583057,STRATFORD INTERNATIONAL - DLR,3935.159826712234,51.54484702873076,-0.00945375181569676,Leyton,4079.0226788428176,51.55660356521063,-0.00548715538242508,PUDDING MILL LANE - DLR,4369.980918685896,51.53419514928636,-0.013970419425652433,Mile End,4429.282953350557,51.52523491887216,-0.033768063294587126,4129.278875765088,0.11269416158181689,3,0.5714285714285714,0.34206136650519414
51.547997230436096,-0.23829825621700312,Dollis Hill,577.228873041221,51.55196194099086,-0.23904076572437893,Willesden Green,1418.8314880064506,51.54937241454188,-0.22271672855408042,Neasden,1487.007984131364,51.554426400499004,-0.2511708953836603,Willesden Junction,2324.8687405162364,51.53240375197415,-0.2445731603163596,Harlesden,2453.0875599172377,51.5366984829526,-0.2585901442236528,1266.6266612739394,0.03144923409994225,2,0.7142857142857143,0.3728674741928283
51.50284534942951,-0.22563064513056338,Goldhawk Road,153.66795133133246,51.50199179519617,-0.22664486415404567,Shepherd's Bush Market,473.10784541485924,51.50609054189476,-0.22629592219219624,Shepherd's Bush,650.8984506510293,51.50435277171325,-0.2188348749838903,Wood Lane,1070.9175702057198,51.510140640931624,-0.223589832503072,Hammersmith (H&C Line),1311.8767498072777,51.49378399419851,-0.2249293587788519,421.81263515201243,0.007472568705348703,3,0.5714285714285714,0.28945057006696007
51.563482260154245,-0.07899461319069072,Manor House,1863.3092317103615,51.57075126410129,-0.09606483069595965,Finsbury Park,2500.2371406246607,51.56457021452156,-0.10667934765407905,Arsenal,2645.39095444734,51.55861585603557,-0.10728530327692844,Seven Sisters,2938.788715100582,51.58339794718637,-0.0725100279127818,Highbury & Islington,3219.8768288065285,51.5474243924603,-0.10373671479788171,2543.875845812417,0.06769884096759235,2,0.7142857142857143,0.39099227762665334
51.546208848176775,-0.12298983487015887,Caledonian Road,527.1340075586842,51.54852353192346,-0.11847347641237985,Holloway Road,1290.4941980705646,51.55275576448648,-0.11326351342118741,Kentish Town,1706.6192468914264,51.55029387744979,-0.1407479399821426,Highbury & Islington,1744.8477048955256,51.5474243924603,-0.10373671479788171,Camden Town,2037.80128360335,51.53923059833878,-0.14262297026124665,1156.940764319571,0.02833623885073553,3,0.5714285714285714,0.2998824051396535
51.50034199893125,-0.06724293031869855,Bermondsey,462.02265010791365,51.49770238120657,-0.06435917646629304,Canada Water,1596.3897268837914,51.49792096344705,-0.049987164956990765,Tower Hill,1621.8901028445237,51.50994511580925,-0.07652627141943263,TOWER GATEWAY - DLR,1630.8327435468013,51.51062135006435,-0.07467461693905339,SHADWELL - DLR,1895.2747908930967,51.51169259561915,-0.05674435589985752,1099.3394498551038,0.026701456045881904,3,0.5714285714285714,0.29906501373722666
51.56371711830445,-0.09341281796156241,Manor House,1044.9401200458612,51.57075126410129,-0.09606483069595965,Finsbury Park,1202.081996251679,51.56457021452156,-0.10667934765407905,Arsenal,1451.8267693195705,51.55861585603557,-0.10728530327692844,Holloway Road,2390.547290130126,51.55275576448648,-0.11326351342118741,Highbury & Islington,2533.304761609785,51.5474243924603,-0.10373671479788171,1519.4217356812937,0.038623810663603306,2,0.7142857142857143,0.3764547624746588
51.5727034031729,-0.09303649299508623,Manor House,392.64998893546306,51.57075126410129,-0.09606483069595965,Finsbury Park,1701.5091697357998,51.56457021452156,-0.10667934765407905,Arsenal,2408.2464967871247,51.55861585603557,-0.10728530327692844,Seven Sisters,2410.9523028649296,51.58339794718637,-0.0725100279127818,Turnpike Lane,2691.0791046467875,51.59025232853629,-0.10297211354184564,1153.1038424593967,0.028227343178147204,2,0.7142857142857143,0.37125652873193077
51.47544545412673,-0.19789455016307275,Parsons Green,355.6682191445009,51.47498535708651,-0.20176352486363486,Fulham Broadway,819.8517624069124,51.48076777565934,-0.19476643999333534,Putney Bridge,1427.6289582324616,51.46825546825846,-0.2087270375114135,West Brompton,1724.1223899058625,51.487279564113926,-0.19557175970385998,West Kensington,2321.7147265409412,51.490790555082114,-0.20545700029973243,870.697082365157,0.02021235741490942,1,0.8571428571428572,0.43867760727888333
51.47385382789807,-0.09716179455886696,Oval,1796.6575813229986,51.48183745351276,-0.1124062491167189,Kennington,2240.6313825218836,51.48834003191997,-0.10596541286235016,Brixton,2276.4925946587723,51.46266709356466,-0.1148949328839154,Stockwell,2355.5884705765843,51.47182845729258,-0.12304218836550214,Vauxhall,2986.1948866036387,51.48569743810505,-0.12425212298282715,2271.1160253134226,0.059957644980098264,2,0.7142857142857143,0.3871216796329063
51.55179384116691,0.07918155613877849,Ilford,1396.810512687261,51.55901595033399,0.06889387475453736,Barking,1724.5996502937346,51.539885097485445,0.08018208014455507,Seven Kings,2325.529656896151,51.56394753983007,0.09607290430467301,Upney,2801.305380024243,51.53835457119145,0.10155366360748233,East Ham,2976.0071902547684,51.53940709913807,0.052826568311649,2067.1679669353325,0.054169395492745714,3,0.5714285714285714,0.31279898346065854
51.474773887151656,-0.15472231268937373,Battersea Power Station,1227.8333343592747,51.47947593806482,-0.1434008238398742,Nine Elms,2407.4188508799225,51.48013931574214,-0.12948529538068784,Clapham Common,2409.8818510674264,51.46221051259463,-0.13719253566731915,Sloane Square,2543.969743236137,51.49233693461083,-0.1563353394945677,Clapham North,2637.8080758979986,51.46572960060881,-0.12935895070321768,2068.7036318114656,0.05421297919490356,3,0.5714285714285714,0.31282077531173746
51.473619490226305,-0.08277196616747583,Oval,2928.0679779452694,51.48183745351276,-0.1124062491167189,Kennington,2986.246549401973,51.48834003191997,-0.10596541286235016,Brixton,3305.5478007026327,51.46266709356466,-0.1148949328839154,Elephant & Castle,3617.677690107102,51.49583746787788,-0.10118627610280032,Stockwell,3646.1080131614535,51.47182845729258,-0.12304218836550214,3268.833044200894,0.08827384994436548,3,0.5714285714285714,0.32985121068646844
51.493197018467974,-0.1827890259748261,Gloucester Road,205.36338254633642,51.49448863919927,-0.18373468987431105,South Kensington,878.2667352543123,51.49408858708188,-0.17316504691138462,Earl's Court,953.8459590682356,51.49198454803539,-0.19317540262977842,High Street Kensington,1349.4904124918583,51.500445098932744,-0.19220609592531968,West Brompton,1436.6322570792129,51.487279564113926,-0.19557175970385998,588.6852129662518,0.012208579043803767,3,0.5714285714285714,0.2918185752361876
51.45724969846034,-0.18421762583354898,East Putney,2440.761429452126,51.459149587092405,-0.2110636822805433,Southfields,2684.480358747724,51.44507985784133,-0.2066534771013345,Putney Bridge,2726.6257351480435,51.46825546825846,-0.2087270375114135,Parsons Green,3014.873362722925,51.47498535708651,-0.20176352486363486,Clapham South,3393.242958013743,51.45323695245536,-0.14721241263243376,2816.3212043879566,0.07543111221178805,2,0.7142857142857143,0.39485841324875115
51.581689735599646,-0.0926600537474087,Turnpike Lane,1548.019458769147,51.59025232853629,-0.10297211354184564,Manor House,1611.3374057442688,51.57075126410129,-0.09606483069595965,Seven Sisters,1832.1595728149632,51.58339794718637,-0.0725100279127818,Wood Green,2758.458310101173,51.5974714659873,-0.10985901912398979,Finsbury Park,2779.429486333706,51.56457021452156,-0.10667934765407905,1972.6195748758892,0.051486017743429154,2,0.7142857142857143,0.38288586601457175
51.58049578943553,-0.0205444252464184,Walthamstow Central,389.4355880501271,51.58311960662003,-0.0215170203946605,Blackhorse Road,2122.9868946033944,51.586840594392974,-0.041793873795219,Leytonstone,3130.792609079288,51.568320494028455,0.008183219874044318,Leyton,3712.1540139088866,51.55660356521063,-0.00548715538242508,Tottenham Hale,3732.8880617624122,51.588048703622064,-0.06016465065370944,1283.5205487577468,0.031928699491008926,2,0.7142857142857143,0.37310720688836163
51.51759412719935,-0.023273052494452967,DEVONS ROAD - DLR,877.1374681133472,51.52246478544654,-0.017479328930153804,LANGDON PARK - DLR,902.0272337291937,51.515078875750135,-0.014124715298479003,WESTFERRY - DLR,1215.4001408232643,51.50950359754111,-0.02691955650225653,ALL SAINTS - DLR,1322.697755688931,51.51102339340321,-0.013075944202288508,Bow Road,1357.374452085336,51.526902665586434,-0.02520321216907312,1095.4804476563606,0.026591933711243354,2,0.7142857142857143,0.37043882399847883
51.543315706447714,0.04995109532114727,East Ham,621.8980528596553,51.53940709913807,0.052826568311649,Manor Park,1349.4143404888957,51.5521974107032,0.0453638119732596,Upton Park,1756.2360463213558,51.53538004104193,0.03521015765496934,Forest Gate,2522.1420950040547,51.5492323681362,0.023638956467786507,Barking,2770.998869216216,51.539885097485445,0.08018208014455507,1360.243880519071,0.034106184235247965,3,0.5714285714285714,0.30276737783190966
51.491355763664075,-0.06762282454450498,Bermondsey,963.93103602174,51.49770238120657,-0.06435917646629304,Canada Water,1853.5807413550765,51.49792096344705,-0.049987164956990765,Borough,2720.410235373098,51.5011913652754,-0.0933129512735988,Tower Hill,2805.810539938154,51.50994511580925,-0.07652627141943263,London Bridge,2807.6616803387997,51.50506500549169,-0.08964851723570844,1881.7663053584176,0.04890751126049955,4,0.4285714285714286,0.23873946991596406
51.552048417932774,0.06476848277145916,Ilford,1074.0850562955666,51.55901595033399,0.06889387475453736,Manor Park,1749.6328114822202,51.5521974107032,0.0453638119732596,East Ham,2121.734965503292,51.53940709913807,0.052826568311649,Barking,2241.8708006570973,51.539885097485445,0.08018208014455507,Seven Kings,3305.3173729711225,51.56394753983007,0.09607290430467301,1836.5576110885395,0.047624443387667026,3,0.5714285714285714,0.3095265074081192
51.45657315728506,-0.1410630394172201,Clapham South,735.8129341485278,51.45323695245536,-0.14721241263243376,Clapham Common,887.0400031514812,51.46221051259463,-0.13719253566731915,Clapham North,1694.442056997767,51.46572960060881,-0.12935895070321768,Balham,2146.772992836309,51.44362737290878,-0.15269122947563088,Brixton,2522.882244940791,51.46266709356466,-0.1148949328839154,1269.4420775895398,0.031529138425460505,2,0.7142857142857143,0.3729074263555874
51.46555983258692,-0.14069759250586117,Clapham Common,578.6469662796521,51.46221051259463,-0.13719253566731915,Clapham North,1024.4644415570067,51.46572960060881,-0.12935895070321768,Stockwell,1834.2867198392673,51.47182845729258,-0.12304218836550214,Clapham South,1876.6839569739632,51.45323695245536,-0.14721241263243376,Battersea Power Station,2027.168780205154,51.47947593806482,-0.1434008238398742,1169.4227233981333,0.028690489309466084,2,0.7142857142857143,0.3714881017975902
51.483986301829624,-0.16875267810367606,South Kensington,1514.2256214167194,51.49408858708188,-0.17316504691138462,Sloane Square,1647.727949580949,51.49233693461083,-0.1563353394945677,Gloucester Road,2033.706854651324,51.49448863919927,-0.18373468987431105,Battersea Power Station,2380.2169016340863,51.47947593806482,-0.1434008238398742,Fulham Broadway,2394.495656673378,51.48076777565934,-0.19476643999333534,1925.4711152969473,0.05014789739476006,4,0.4285714285714286,0.23935966298309433
51.419701605012065,-0.08502936036687338,Brixton,6774.216619123489,51.46266709356466,-0.1148949328839154,Balham,7026.980222563101,51.44362737290878,-0.15269122947563088,Tooting Bec,7105.305161383076,51.43589927439103,-0.15923362533504307,Clapham South,7423.366049362602,51.45323695245536,-0.14721241263243376,Tooting Broadway,7624.223627155872,51.42767600459317,-0.16838983681417344,7178.36164249774,0.19923017424008596,2,0.7142857142857143,0.4567579442629001
51.52682223153333,-0.037289909996020096,Mile End,391.9519254390017,51.52523491887216,-0.033768063294587126,Bow Road,1090.3645175730314,51.526902665586434,-0.02520321216907312,Stepney Green,1103.917578514027,51.52186169216427,-0.04659090323887023,BOW CHURCH - DLR,1492.4674774466112,51.5276649933369,-0.020800084864193928,Bethnal Green,1570.7720873832302,51.527237667207054,-0.05469030192583057,880.1292995289296,0.02048005315370185,3,0.5714285714285714,0.2959543122911366
51.51783610213041,-0.037676028992098924,LIMEHOUSE - DLR,820.235322984963,51.51230828962983,-0.03971175756387466,Stepney Green,992.8822408062103,51.52186169216427,-0.04659090323887023,Mile End,1126.5704844644235,51.52523491887216,-0.033768063294587126,WESTFERRY - DLR,1547.2807154581355,51.50950359754111,-0.02691955650225653,Bow Road,1727.808686559333,51.526902665586434,-0.02520321216907312,1152.3276258546791,0.028205313376049253,3,0.5714285714285714,0.2998169424023103
51.562279816635325,-0.006908271441938784,Leyton,830.8178149052424,51.55660356521063,-0.00548715538242508,Leytonstone,1616.5851983617492,51.568320494028455,0.008183219874044318,STRATFORD INTERNATIONAL - DLR,2531.4966250672005,51.54484702873076,-0.00945375181569676,Maryland,2628.1203547154496,51.54597586240269,0.0059684918586619,Stratford,3024.3789462032787,51.541456474970374,-0.0038044932283004124,1707.4223239414916,0.04395945502949237,3,0.5714285714285714,0.3076940132290319
51.56077930387682,0.07959158559103445,Ilford,997.4812972916101,51.55901595033399,0.06889387475453736,Seven Kings,1554.6651924992436,51.56394753983007,0.09607290430467301,Newbury Park,2350.851773438466,51.57570573751538,0.08992082990646201,Gants Hill,2578.7472792445565,51.57653500920319,0.06619413225561141,Goodmayes,2995.2555018859607,51.56578721328644,0.11183537935333984,1790.3342242542785,0.04631257752694328,2,0.7142857142857143,0.3802991459063288
51.49614767245664,-0.38435807364230073,Southall,1586.2878607716855,51.50614548639833,-0.3771245451315028,Hounslow West,3260.351053155439,51.47361867347103,-0.38579398315426044,Hayes & Harlington,3313.8343711186617,51.50303632210459,-0.4193768852119428,Osterley,3614.1404518244585,51.4812434687809,-0.3522207467968353,Hounslow Central,3943.285197640133,51.47131979963469,-0.3662939172379908,2826.1841978979146,0.07571103381330652,2,0.7142857142857143,0.39499837404951044
51.46463322721516,-0.08314868875693313,Brixton,2881.7092679596963,51.46266709356466,-0.1148949328839154,Oval,3629.2602086480274,51.48183745351276,-0.1124062491167189,Stockwell,3750.45639528584,51.47182845729258,-0.12304218836550214,Kennington,3999.836663072754,51.48834003191997,-0.10596541286235016,Clapham North,4177.051238542184,51.46572960060881,-0.12935895070321768,3626.86184334119,0.0984350646652206,2,0.7142857142857143,0.40636038947546743
51.552801043315284,0.021527466468218223,Forest Gate,550.0858614239206,51.5492323681362,0.023638956467786507,Maryland,1715.2925913874278,51.54597586240269,0.0059684918586619,Manor Park,2150.7975706484704,51.5521974107032,0.0453638119732596,Leyton,2496.7500891124805,51.55660356521063,-0.00548715538242508,Leytonstone,2546.401651184743,51.568320494028455,0.008183219874044318,1366.469516451192,0.03428287399772533,2,0.7142857142857143,0.3742842941417198
51.502406058899915,-0.19683118903649655,High Street Kensington,504.6420075386792,51.500445098932744,-0.19220609592531968,Notting Hill Gate,978.3969779920184,51.509156012573975,-0.19608997336265582,Holland Park,1051.7815963326518,51.5071535735316,-0.20566045316838816,Kensington (Olympia),1377.2766563964235,51.49773548808454,-0.21012996310043217,Queensway,1432.6618059513198,51.51025217607452,-0.18713829824007047,929.6233323424754,0.021884743212230957,3,0.5714285714285714,0.2966566573204012
51.54280839995941,0.07877176323716717,Barking,441.4829308431097,51.539885097485445,0.08018208014455507,Upney,2153.1259109444813,51.53835457119145,0.10155366360748233,East Ham,2390.903544204438,51.53940709913807,0.052826568311649,Ilford,2507.424874815395,51.55901595033399,0.06889387475453736,Manor Park,3304.212949009892,51.5521974107032,0.0453638119732596,1298.9558101633575,0.03236676761790695,3,0.5714285714285714,0.30189766952323915
51.572936638451345,-0.10745781791651186,Manor House,1074.2353103346957,51.57075126410129,-0.09606483069595965,Finsbury Park,1211.9331002537456,51.56457021452156,-0.10667934765407905,Arsenal,2071.040608471619,51.55861585603557,-0.10728530327692844,Turnpike Lane,2536.4988998728186,51.59025232853629,-0.10297211354184564,Archway,2767.579837664416,51.56453819250787,-0.13505202452388373,1669.7598526177358,0.04289055649686687,3,0.5714285714285714,0.30715956396271915
51.556326587591776,-0.1947003973972892,West Hampstead,1436.6619741310908,51.546801915703966,-0.19016960275566852,Hampstead,1458.8026728600967,51.5565898798849,-0.17852309354375814,Kilburn,1628.6694396504527,51.546953022454446,-0.20471489160119855,Finchley Road,1798.7246779860686,51.54723083836693,-0.18109153879636952,Golders Green,2308.744910855867,51.57228620318889,-0.19402225224523736,1675.2467299526652,0.04304627955289221,3,0.5714285714285714,0.3072374254907318
51.452698305834126,0.08906904569788283,WOOLWICH ARSENAL - DLR,5692.735582123128,51.48998499909446,0.06886448006159107,Woolwich,5839.919910858706,51.491667870973096,0.07211914694673671,Abbey Wood,6235.571713632753,51.491073973350574,0.12054450171194857,KING GEORGE V - DLR,7532.284060317926,51.5020253612449,0.06229214246817125,LONDON CITY AIRPORT - DLR,8245.643771421188,51.503667439663054,0.048144105991576286,6567.661983871608,0.18189790829903965,1,0.8571428571428572,0.5195203827209485
51.50327769117415,-0.25443073256747256,Turnham Green,1203.1634689735088,51.4949578319235,-0.2545503301237331,Stamford Brook,1428.3554463702915,51.4949181050598,-0.24600122518353934,Chiswick Park,1783.042956260052,51.49466748590177,-0.26857152550054486,East Acton,2034.7415164218855,51.51659745054098,-0.2471625219934364,Ravenscourt Park,2137.908009806122,51.494167735828476,-0.23577535697187463,1638.6474466676516,0.04200755535813072,3,0.5714285714285714,0.30671806339335106
51.60359732561156,-0.3516681450825618,Harrow & Wealdstone,2252.895818939141,51.59204382510434,-0.3348864548890388,North Harrow,2871.2049803785644,51.58494710527484,-0.3626047009909967,Pinner,3079.2315936305017,51.592825567877355,-0.38116191894249885,West Harrow,3478.0785091158095,51.57956661616709,-0.35329028029996584,Harrow-on-the-Hill,3746.201618724656,51.57941460314498,-0.3367522322346986,2991.562369947894,0.08040463142438548,2,0.7142857142857143,0.3973451728550499
51.49205940612573,-0.11080875050588622,Kennington,693.169000633787,51.48834003191997,-0.10596541286235016,Lambeth North,989.2641363468947,51.498842228801465,-0.1122327661467621,Elephant & Castle,1026.1625655549524,51.49583746787788,-0.10118627610280032,Oval,1485.2342165339905,51.48183745351276,-0.1124062491167189,Vauxhall,1522.9640613210665,51.48569743810505,-0.12425212298282715,1050.8804237058232,0.02532614050967717,3,0.5714285714285714,0.2983773559691243
51.54756076256873,-0.20947007322413677,Kilburn,437.65617725253486,51.546953022454446,-0.20471489160119855,Willesden Green,1222.7200484476862,51.54937241454188,-0.22271672855408042,West Hampstead,1743.6498225814396,51.546801915703966,-0.19016960275566852,Queen's Park,1992.741524885578,51.533978210095334,-0.2057416029735368,Kilburn Park,2295.196571001482,51.534947545387965,-0.1940203229099902,1083.7122789403372,0.0262579413355409,2,0.7142857142857143,0.3702718278106276
51.447586527308644,-0.14142817251482573,Clapham South,969.9561519671549,51.45323695245536,-0.14721241263243376,Balham,1167.7676123985962,51.44362737290878,-0.15269122947563088,Clapham Common,2149.1208836655433,51.46221051259463,-0.13719253566731915,Tooting Bec,2333.597287263903,51.43589927439103,-0.15923362533504307,Clapham North,2841.2300847320075,51.46572960060881,-0.12935895070321768,1595.864069472611,0.040793320404948104,1,0.8571428571428572,0.44896808877390265
51.58948195326078,-0.02015335312818769,Walthamstow Central,928.2694815292534,51.58311960662003,-0.0215170203946605,Blackhorse Road,1986.5694732192082,51.586840594392974,-0.041793873795219,Tottenham Hale,3610.340160807769,51.588048703622064,-0.06016465065370944,Snaresbrook,3953.70688476393,51.58067707711797,0.021393426338283436,Leytonstone,3985.551656520878,51.568320494028455,0.008183219874044318,2117.3257522021513,0.05559292350848775,2,0.7142857142857143,0.38493931889710103
51.46509998722936,-0.11192290644395664,Brixton,442.5512706894537,51.46266709356466,-0.1148949328839154,Stockwell,1398.3444728373863,51.47182845729258,-0.12304218836550214,Clapham North,1577.5646832249781,51.46572960060881,-0.12935895070321768,Clapham Common,2320.5306495979107,51.46221051259463,-0.13719253566731915,Oval,2420.8227132519974,51.48183745351276,-0.1124062491167189,1122.9233626690313,0.02737079103411658,2,0.7142857142857143,0.3708282526599154
51.57150977891451,-0.020935143720386927,Walthamstow Central,1679.7955008766564,51.58311960662003,-0.0215170203946605,Leyton,2566.2674949924963,51.55660356521063,-0.00548715538242508,Leytonstone,2664.434593505531,51.568320494028455,0.008183219874044318,Blackhorse Road,2906.5079977840487,51.586840594392974,-0.041793873795219,STRATFORD INTERNATIONAL - DLR,3992.3675761649674,51.54484702873076,-0.00945375181569676,2557.7683271525943,0.06809312345615746,2,0.7142857142857143,0.3911894188709359
51.562034157820406,0.007508944482894694,Leytonstone,911.143826364872,51.568320494028455,0.008183219874044318,Leyton,1410.398906497376,51.55660356521063,-0.00548715538242508,Maryland,2326.455947093883,51.54597586240269,0.0059684918586619,Forest Gate,2354.157977325228,51.5492323681362,0.023638956467786507,Wanstead,2733.1427854244826,51.57560161289604,0.028620677765270462,1651.7793529147855,0.04238025196631329,2,0.7142857142857143,0.3783329831260138
51.38422078946791,-0.11525326307475194,Colliers Wood,7507.278214762956,51.41815971696416,-0.17805799608697154,Morden,7664.606318680302,51.40253820130652,-0.19475485350439264,Tooting Broadway,7911.067752000371,51.42767600459317,-0.16838983681417344,South Wimbledon,8345.396970043194,51.41498929257676,-0.19330652029319118,Tooting Bec,8465.694617966377,51.43589927439103,-0.15923362533504307,7961.410301452929,0.22145387685738138,1,0.8571428571428572,0.5392983670001192
51.57339809253747,-0.136300909116277,Highgate,1119.2168885699193,51.57784395375154,-0.14646788226539453,Archway,1286.190116940222,51.56453819250787,-0.13505202452388373,Tufnell Park,2401.826270155779,51.55684430975304,-0.13846565572304778,Finsbury Park,2959.0962250078846,51.56457021452156,-0.10667934765407905,East Finchley,3265.56774398128,51.58715402026014,-0.1650441219039346,1830.5039454131052,0.04745263431274327,3,0.5714285714285714,0.30944060287065733
51.54777986433803,-0.22388410898725744,Willesden Green,253.20954642951267,51.54937241454188,-0.22271672855408042,Dollis Hill,1494.3300604735737,51.55196194099086,-0.23904076572437893,Kilburn,1732.4777690130404,51.546953022454446,-0.20471489160119855,Kensal Green,2489.0302428690215,51.530571777558116,-0.2244787816465951,Queen's Park,2580.6894931699803,51.533978210095334,-0.2057416029735368,835.4276667241076,0.019211376191420312,2,0.7142857142857143,0.3667485452385673
51.59966240850848,-0.09190667464978607,Wood Green,1647.6041748484483,51.5974714659873,-0.10985901912398979,Turnpike Lane,1686.7816406680518,51.59025232853629,-0.10297211354184564,Seven Sisters,2930.026513382292,51.58339794718637,-0.0725100279127818,Bounds Green,3110.8605484675404,51.60706378685743,-0.12434197787111509,Tottenham Hale,3315.9175445878764,51.588048703622064,-0.06016465065370944,2310.4177343223055,0.06107306671459213,2,0.7142857142857143,0.3876793905001532
51.537222493180444,-0.12335942547406314,King's Cross St. Pancras,1083.0969120174718,51.529785143075884,-0.12477613021792856,Mornington Crescent,1434.9608844800746,51.534704942339104,-0.13874979864115178,Euston,1665.4812084670164,51.52808458451346,-0.13459860915117344,Caledonian Road,1692.6212334738304,51.54852353192346,-0.11847347641237985,Camden Town,1761.334334060632,51.53923059833878,-0.14262297026124665,1479.6665981136964,0.03749552017397932,6,0.1428571428571429,0.09017633151556112
51.59989587631562,-0.10633653114289868,Wood Green,472.8309719956599,51.5974714659873,-0.10985901912398979,Turnpike Lane,1427.1409302132972,51.59025232853629,-0.10297211354184564,Bounds Green,1924.4787105317253,51.60706378685743,-0.12434197787111509,Arnos Grove,3393.6116557657856,51.61645247794506,-0.1330451742909319,Seven Sisters,3869.950034932244,51.58339794718637,-0.0725100279127818,1285.9036716953046,0.03199633489892267,2,0.7142857142857143,0.37314102459231846
51.5385739626111,-0.20982259742482967,Queen's Park,759.6956027588049,51.533978210095334,-0.2057416029735368,Kilburn,1296.277103356569,51.546953022454446,-0.20471489160119855,Kilburn Park,1518.5353545276598,51.534947545387965,-0.1940203229099902,Kensal Green,1756.779979602428,51.530571777558116,-0.2244787816465951,Willesden Green,1946.8545279668242,51.54937241454188,-0.22271672855408042,1305.7700010389722,0.032560161157204,2,0.7142857142857143,0.3734229377214591
51.492747264028026,-0.15399633974732066,Sloane Square,219.32583535902083,51.49233693461083,-0.1563353394945677,Victoria,1117.3763209791373,51.49640097859263,-0.14308928980094832,Knightsbridge,1401.197978704271,51.50124118729131,-0.16146611606618974,Hyde Park Corner,1446.7927986818734,51.5027515504957,-0.15414966922837586,South Kensington,1741.2012516085247,51.49408858708188,-0.17316504691138462,672.6256666532776,0.014590892912766124,4,0.4285714285714286,0.22158116074209736
51.51947928476859,-0.13850240266689495,Goodge Street,408.86985542014844,51.520601842773736,-0.13434290236565843,Oxford Circus,664.4372377019225,51.515319726422334,-0.14163045969608393,Warren Street,730.1206275755353,51.524527123997764,-0.13834177714005547,Tottenham Court Road,789.4942749036333,51.51532749850289,-0.13282023524778,Great Portland Street,819.485131869856,51.52384645620309,-0.1442909711973862,640.4223481081979,0.013676930585583539,7,0.0,0.006838465292791769
51.537906230656105,-0.1665901854519537,St. John's Wood,785.5699015021839,51.535204969887026,-0.17414757419359148,Swiss Cottage,1121.0354177736242,51.54370542648981,-0.17483983477545229,Chalk Farm,1524.1087429804816,51.54385835909765,-0.15264214766916676,Belsize Park,1804.7530726858174,51.55032570077621,-0.16462098681641185,Finchley Road,1878.347238860353,51.54723083836693,-0.18109153879636952,1279.5610000992854,0.03181632354747335,3,0.5714285714285714,0.30162244748802236
51.50104579514014,-0.11043728552543094,Lambeth North,357.5027324172196,51.498842228801465,-0.1122327661467621,Waterloo,498.0391327532965,51.50342525720376,-0.11442663408154648,Southwark,653.2094234133698,51.50428757953954,-0.1053973366341109,Elephant & Castle,1124.514474064921,51.49583746787788,-0.10118627610280032,Westminster,1373.8723328454003,51.5009642958388,-0.1256586526219809,628.6856136283453,0.013343830344882754,6,0.1428571428571429,0.07810048660101283
51.50057826107952,-0.08164082837412934,London Bridge,971.246065917487,51.50506500549169,-0.08964851723570844,Borough,1057.2151032285365,51.5011913652754,-0.0933129512735988,Tower Hill,1431.0559065023144,51.50994511580925,-0.07652627141943263,Monument,1521.1184056856255,51.510719671133025,-0.08611363432542882,TOWER GATEWAY - DLR,1582.595256358971,51.51062135006435,-0.07467461693905339,1261.4935500775348,0.0313035512800743,4,0.4285714285714286,0.22993748992575144
51.54479437657821,-0.0365167646258855,STRATFORD INTERNATIONAL - DLR,2440.3237378198846,51.54484702873076,-0.00945375181569676,PUDDING MILL LANE - DLR,2546.3164879366163,51.53419514928636,-0.013970419425652433,Bow Road,2781.3441343748746,51.526902665586434,-0.02520321216907312,Mile End,2839.4421104704943,51.52523491887216,-0.033768063294587126,BOW CHURCH - DLR,2854.0503711437505,51.5276649933369,-0.020800084864193928,2681.532588545127,0.07160567674180746,3,0.5714285714285714,0.3215171240851894
51.580251708107994,-0.006121631459944286,Walthamstow Central,1447.7833986372914,51.58311960662003,-0.0215170203946605,Leytonstone,2153.8121473460774,51.568320494028455,0.008183219874044318,Snaresbrook,2479.914496352378,51.58067707711797,0.021393426338283436,Wanstead,3201.9318137701002,51.57560161289604,0.028620677765270462,Blackhorse Road,3352.165209235407,51.586840594392974,-0.041793873795219,2305.3480284063226,0.0609291833998767,2,0.7142857142857143,0.3876074488427955
51.45541103217572,-0.06914116147197918,Brixton,4264.4873279930125,51.46266709356466,-0.1148949328839154,DEPTFORD BRIDGE - DLR,5024.118185747413,51.4743026334533,-0.02246289169111558,ELVERSON ROAD - DLR,5138.44491973983,51.46869615376942,-0.016384302059126953,LEWISHAM - DLR,5189.684007908418,51.46565346553587,-0.014083062226242563,Stockwell,5416.901207835029,51.47182845729258,-0.12304218836550214,4972.930164029104,0.13663782731530308,2,0.7142857142857143,0.4254617708005087
51.500103888802215,-0.05284519106092562,Canada Water,407.6802497549329,51.49792096344705,-0.049987164956990765,Bermondsey,1095.7611479263485,51.49770238120657,-0.06435917646629304,SHADWELL - DLR,1712.435470892414,51.51169259561915,-0.05674435589985752,LIMEHOUSE - DLR,2125.98660487176,51.51230828962983,-0.03971175756387466,TOWER GATEWAY - DLR,2488.884823217901,51.51062135006435,-0.07467461693905339,1036.993668365096,0.024932020530692413,1,0.8571428571428572,0.4410374388367748
51.429840414278175,-0.15653403203631477,Tooting Bec,909.5110899228348,51.43589927439103,-0.15923362533504307,Tooting Broadway,1116.5087842989528,51.42767600459317,-0.16838983681417344,Balham,2023.7482534872695,51.44362737290878,-0.15269122947563088,Colliers Wood,2576.774697734861,51.41815971696416,-0.17805799608697154,Clapham South,3486.660055819719,51.45323695245536,-0.14721241263243376,1580.1967624770502,0.04034866659256844,1,0.8571428571428572,0.4487457618677128
51.60888227190824,-0.1059624231113102,Bounds Green,1675.744345130236,51.60706378685743,-0.12434197787111509,Wood Green,1687.0665386798792,51.5974714659873,-0.10985901912398979,Arnos Grove,2672.8845123908377,51.61645247794506,-0.1330451742909319,Turnpike Lane,2707.5896460551635,51.59025232853629,-0.10297211354184564,Southgate,3908.875988380441,51.63225854371172,-0.1277625393853033,2284.37505135209,0.060333949374861535,1,0.8571428571428572,0.4587384032588594
51.43006577653145,-0.17091037835436595,Tooting Broadway,413.93546923411367,51.42767600459317,-0.16838983681417344,Tooting Bec,1351.1504098022858,51.43589927439103,-0.15923362533504307,Colliers Wood,1838.9858454528367,51.41815971696416,-0.17805799608697154,Balham,2560.779356281982,51.44362737290878,-0.15269122947563088,Wimbledon Park,2611.3760971445568,51.434055248289106,-0.19908634010842738,1117.7756618669193,0.02722469414667462,2,0.7142857142857143,0.37075520421619446
51.46486747854942,-0.09753571731848089,Brixton,1600.016960862194,51.46266709356466,-0.1148949328839154,Stockwell,2514.090591446958,51.47182845729258,-0.12304218836550214,Oval,2797.49348865595,51.48183745351276,-0.1124062491167189,Clapham North,2877.192295815015,51.46572960060881,-0.12935895070321768,Kennington,3478.721490999974,51.48834003191997,-0.10596541286235016,2481.0973162508176,0.06591712363014153,2,0.7142857142857143,0.39010141895792794
51.582154675970926,-0.12150861854131358,Turnpike Lane,2039.590823539572,51.59025232853629,-0.10297211354184564,Highgate,2333.6249447676105,51.57784395375154,-0.14646788226539453,Wood Green,2451.0352193378067,51.5974714659873,-0.10985901912398979,Manor House,2824.1510778812194,51.57075126410129,-0.09606483069595965,Archway,2824.8208990678613,51.56453819250787,-0.13505202452388373,2457.127284475446,0.0652368302003389,2,0.7142857142857143,0.3897612722430266
51.44546353045679,-0.011997488266746867,LEWISHAM - DLR,2925.827421154897,51.46565346553587,-0.014083062226242563,ELVERSON ROAD - DLR,3383.064900244568,51.46869615376942,-0.016384302059126953,DEPTFORD BRIDGE - DLR,4276.366175764332,51.4743026334533,-0.02246289169111558,GREENWICH - DLR,4725.1646427755395,51.47812506248977,-0.0134548920388944,CUTTY SARK - DLR,5237.073713419701,51.48167303702902,-0.011082584411792822,3925.2747710383683,0.1069043214431421,0,1.0,0.553452160721571
51.49297302910352,-0.16839259182054414,South Kensington,460.0224971333535,51.49408858708188,-0.17316504691138462,Sloane Square,1092.309386281069,51.49233693461083,-0.1563353394945677,Knightsbridge,1349.253496941538,51.50124118729131,-0.16146611606618974,Gloucester Road,1402.1568119697954,51.49448863919927,-0.18373468987431105,Hyde Park Corner,1911.1114223853722,51.5027515504957,-0.15414966922837586,986.7983043729245,0.023507425993212004,3,0.5714285714285714,0.2974679987108917
51.42773445203895,-0.027152625092937064,LEWISHAM - DLR,5609.356064150548,51.46565346553587,-0.014083062226242563,ELVERSON ROAD - DLR,6003.016922920382,51.46869615376942,-0.016384302059126953,DEPTFORD BRIDGE - DLR,6747.720680702319,51.4743026334533,-0.02246289169111558,GREENWICH - DLR,7391.538679778159,51.47812506248977,-0.0134548920388944,CUTTY SARK - DLR,7934.257003924359,51.48167303702902,-0.011082584411792822,6627.957158076078,0.18360914553245256,0,1.0,0.5918045727662262
51.49182658810404,-0.0964132653215481,Elephant & Castle,722.5436654658587,51.49583746787788,-0.10118627610280032,Kennington,998.9306802282871,51.48834003191997,-0.10596541286235016,Borough,1382.876878607355,51.5011913652754,-0.0933129512735988,Lambeth North,1751.701412565513,51.498842228801465,-0.1122327661467621,Southwark,1976.0691849374791,51.50428757953954,-0.1053973366341109,1194.706377047623,0.029408064639375578,3,0.5714285714285714,0.3004183180339735
51.49407535600056,-0.24037658857830516,Ravenscourt Park,415.556000474492,51.494167735828476,-0.23577535697187463,Stamford Brook,522.1379212473742,51.4949181050598,-0.24600122518353934,Turnham Green,1285.7617680092926,51.4949578319235,-0.2545503301237331,Hammersmith (H&C Line),1395.0251425961048,51.49378399419851,-0.2249293587788519,Hammersmith (Dist&Picc Line),1593.3306046222674,51.49199951963806,-0.22304188389888033,775.9378000874996,0.01752299439067937,3,0.5714285714285714,0.2944757829096254
51.464397233646864,-0.06876181321927004,Brixton,4174.741075538387,51.46266709356466,-0.1148949328839154,DEPTFORD BRIDGE - DLR,4420.266972970902,51.4743026334533,-0.02246289169111558,Oval,4679.4327432840155,51.48183745351276,-0.1124062491167189,ELVERSON ROAD - DLR,4771.709925483177,51.46869615376942,-0.016384302059126953,Kennington,4824.507677955051,51.48834003191997,-0.10596541286235016,4560.749120182011,0.1249397178323413,2,0.7142857142857143,0.4196127160590278
51.44781368972968,-0.15581013453422402,Balham,667.7717575453099,51.44362737290878,-0.15269122947563088,Clapham South,1103.8802459314054,51.45323695245536,-0.14721241263243376,Tooting Bec,1750.4927701657923,51.43589927439103,-0.15923362533504307,Clapham Common,2676.49787800288,51.46221051259463,-0.13719253566731915,Tooting Broadway,3126.170367104373,51.42767600459317,-0.16838983681417344,1363.0724844271203,0.0341864628378044,1,0.8571428571428572,0.4456646599903308
51.57102000622642,0.007904914500981656,Leytonstone,391.2021092365434,51.568320494028455,0.008183219874044318,Snaresbrook,1851.4326669720222,51.58067707711797,0.021393426338283436,Wanstead,1980.9190867139953,51.57560161289604,0.028620677765270462,Leyton,2409.092972718602,51.55660356521063,-0.00548715538242508,Walthamstow Central,3176.547415900157,51.58311960662003,-0.0215170203946605,1154.450981365699,0.02826557632508573,2,0.7142857142857143,0.3712756453054
51.57126570679722,-0.006515154455025993,Leytonstone,1391.4481867178565,51.568320494028455,0.008183219874044318,Leyton,2122.419653144855,51.55660356521063,-0.00548715538242508,Walthamstow Central,2183.1311319340166,51.58311960662003,-0.0215170203946605,Snaresbrook,2859.5392937117404,51.58067707711797,0.021393426338283436,Wanstead,3227.77996571317,51.57560161289604,0.028620677765270462,2166.9309198800092,0.05700076768540611,2,0.7142857142857143,0.3856432409855602
51.539225919667025,-0.25305635323387665,Harlesden,618.5649759161479,51.5366984829526,-0.2585901442236528,Willesden Junction,1248.4307440504474,51.53240375197415,-0.2445731603163596,Neasden,2204.687467725554,51.554426400499004,-0.2511708953836603,Stonebridge Park,2229.824671580079,51.54419264973252,-0.27646679490996795,Dollis Hill,2233.6096716681473,51.55196194099086,-0.23904076572437893,1327.1748156987114,0.03316765116454413,2,0.7142857142857143,0.3737266827251292
51.55565311547847,-0.15145165979192748,Tufnell Park,1183.2477670865453,51.55684430975304,-0.13846565572304778,Kentish Town,1237.6636087948075,51.55029387744979,-0.1407479399821426,Belsize Park,1415.304594751099,51.55032570077621,-0.16462098681641185,Chalk Farm,1709.036629016981,51.54385835909765,-0.15264214766916676,Archway,1958.6103774950545,51.56453819250787,-0.13505202452388373,1447.0279641496186,0.036569203160653166,1,0.8571428571428572,0.4468560301517552
51.48260574429768,-0.08239504018742827,Kennington,2283.9628484193036,51.48834003191997,-0.10596541286235016,Elephant & Castle,2557.223670409759,51.49583746787788,-0.10118627610280032,Oval,2712.098811960682,51.48183745351276,-0.1124062491167189,Bermondsey,2723.497232643971,51.49770238120657,-0.06435917646629304,Borough,2862.734448721288,51.5011913652754,-0.0933129512735988,2612.2018416892665,0.0696380009368128,3,0.5714285714285714,0.3205332861826921
51.490636596928745,-0.024438577336795813,MUDCHUTE - DLR,849.9580749073441,51.490885808029404,-0.015032189977413828,CROSSHARBOUR - DLR,1178.090150642525,51.49590351988882,-0.01448274918950765,ISLAND GARDENS - DLR,1312.3239289941519,51.48805713701827,-0.010502231513365157,SOUTH QUAY - DLR,1522.8425958052073,51.50061170089832,-0.019032982341807152,CUTTY SARK - DLR,1770.436866453578,51.48167303702902,-0.011082584411792822,1247.235469856316,0.03089889273030717,0,1.0,0.5154494463651536
51.47168085455332,0.03233984276643727,CUTTY SARK - DLR,4179.1192226314915,51.48167303702902,-0.011082584411792822,WOOLWICH ARSENAL - DLR,4229.059353569719,51.48998499909446,0.06886448006159107,GREENWICH - DLR,4239.4380926928,51.47812506248977,-0.0134548920388944,LEWISHAM - DLR,4282.682630755691,51.46565346553587,-0.014083062226242563,ELVERSON ROAD - DLR,4421.864376470536,51.46869615376942,-0.016384302059126953,4268.863803611339,0.11665572117435971,0,1.0,0.5583278605871799
51.537680094489836,-0.1521797559462464,Camden Town,890.5351550820378,51.53923059833878,-0.14262297026124665,Chalk Farm,894.4220488638776,51.54385835909765,-0.15264214766916676,Mornington Crescent,1285.3407647032016,51.534704942339104,-0.13874979864115178,St. John's Wood,2013.24541298749,51.535204969887026,-0.17414757419359148,Kentish Town,2095.216920434101,51.55029387744979,-0.1407479399821426,1252.2062319745587,0.031039967921272362,2,0.7142857142857143,0.37266284110349335
51.5430629436789,0.06436154050462278,East Ham,1166.8765854688438,51.53940709913807,0.052826568311649,Barking,1498.8931772403344,51.539885097485445,0.08018208014455507,Manor Park,2163.1877130878033,51.5521974107032,0.0453638119732596,Ilford,2343.0227407866523,51.55901595033399,0.06889387475453736,Upton Park,2854.1401297004563,51.53538004104193,0.03521015765496934,1809.2371702892324,0.046849062005228606,3,0.5714285714285714,0.3091388167169
51.43927614929427,-0.18493063837029766,Wimbledon Park,1485.567108852777,51.434055248289106,-0.19908634010842738,Southfields,2134.9858508164425,51.44507985784133,-0.2066534771013345,Tooting Broadway,2247.0529612934583,51.42767600459317,-0.16838983681417344,Tooting Bec,2373.2864121459947,51.43589927439103,-0.15923362533504307,Balham,2980.7351698451466,51.44362737290878,-0.15269122947563088,2133.6497069364727,0.05605621363919023,2,0.7142857142857143,0.38517096396245226
51.429384496506465,-0.12778150763036256,Tooting Bec,2995.007635371722,51.43589927439103,-0.15923362533504307,Balham,3051.4047649858326,51.44362737290878,-0.15269122947563088,Tooting Broadway,3679.243950077516,51.42767600459317,-0.16838983681417344,Clapham South,3870.575908899152,51.45323695245536,-0.14721241263243376,Clapham Common,4822.5505904525835,51.46221051259463,-0.13719253566731915,3573.6736420570323,0.09692553041780212,1,0.8571428571428572,0.4770341937803297
51.48864018216686,0.09071117315051068,Woolwich,1734.6918427613211,51.491667870973096,0.07211914694673671,WOOLWICH ARSENAL - DLR,1981.9596141212044,51.48998499909446,0.06886448006159107,Abbey Wood,2716.34050320582,51.491073973350574,0.12054450171194857,KING GEORGE V - DLR,3213.800966407305,51.5020253612449,0.06229214246817125,GALLIONS REACH - DLR,3402.9454028092446,51.508980646475905,0.07175759149661497,2434.0543079981417,0.06458199609537836,1,0.8571428571428572,0.4608624266191178
51.58192306412411,-0.10708424545694116,Turnpike Lane,1260.2107347634299,51.59025232853629,-0.10297211354184564,Manor House,1896.3334593695438,51.57075126410129,-0.09606483069595965,Wood Green,2262.3713651379694,51.5974714659873,-0.10985901912398979,Finsbury Park,2509.7294435975655,51.56457021452156,-0.10667934765407905,Seven Sisters,3122.2665440310852,51.58339794718637,-0.0725100279127818,2014.833162011987,0.05268408148594763,2,0.7142857142857143,0.38348489788583096
51.54884941424712,-0.2959564841667838,Wembley Central,502.48635814493315,51.55228164027704,-0.2968265595489338,Alperton,1227.951021878539,51.540730963558445,-0.299949349972513,Sudbury Town,1806.4788856766895,51.550805806993615,-0.3157464873310852,Stonebridge Park,1881.8589961591529,51.54419264973252,-0.27646679490996795,North Wembley,2084.86480568027,51.562393713680144,-0.3038826458342014,1144.4087186661536,0.02798056688501181,2,0.7142857142857143,0.37113314058536306
51.50885007224365,-0.038061942991226165,LIMEHOUSE - DLR,521.7984618509669,51.51230828962983,-0.03971175756387466,WESTFERRY - DLR,1009.9401837612248,51.50950359754111,-0.02691955650225653,WEST INDIA QUAY - DLR,1623.5602517808663,51.507483948403426,-0.02020481460586855,CANARY WHARF - DLR,1635.1821700018354,51.50512260005705,-0.02095564721391252,HERON QUAYS - DLR,1698.2340224014758,51.50333239231443,-0.021451061501281746,1058.6634281886638,0.025547029946262775,0,1.0,0.5127735149731314
51.447127101887006,-0.1126645051744267,Brixton,2256.2698556063765,51.46266709356466,-0.1148949328839154,Clapham North,3084.0812123493156,51.46572960060881,-0.12935895070321768,Clapham Common,3109.4354868531195,51.46221051259463,-0.13719253566731915,Clapham South,3244.2522702153888,51.45323695245536,-0.14721241263243376,Balham,3652.2788177497205,51.44362737290878,-0.15269122947563088,2992.0484190296265,0.08041842598252219,2,0.7142857142857143,0.3973520701341182
