lat,lon,nearest_station_1,nearest_station_1_dist,nearest_station_1_lat,nearest_station_1_long,nearest_station_2,nearest_station_2_dist,nearest_station_2_lat,nearest_station_2_long,nearest_station_3,nearest_station_3_dist,nearest_station_3_lat,nearest_station_3_long,nearest_station_4,nearest_station_4_dist,nearest_station_4_lat,nearest_station_4_long,nearest_station_5,nearest_station_5_dist,nearest_station_5_lat,nearest_station_5_long,harmonic_mean_adj_dist,harmonic_mean_adj_dist_norm,line_unique_count,line_unique_count_norm,connectivity_score
51.51451738801217,-0.4125113869676313,Hayes & Harlington,1771.2448166045806,51.50303723137112,-0.41935690170324563,Southall,3416.4737142073463,51.50614613228283,-0.3771035436303124,West Drayton,5384.9365305008805,51.509889653988765,-0.4717298081442503,South Ruislip,6245.8874783423835,51.55686140180025,-0.3988455279896942,Northolt,6282.63564147335,51.54826023603043,-0.3686291206057346,3670.393986461009,0.09967055034280192,2,0.8333333333333334,0.46650194183806765
51.34873110146516,-0.1454053631338708,Morden,8970.33188512032,51.40253724508803,-0.19473027219670863,Colliers Wood,10464.843890405433,51.418159079977876,-0.17803308894654438,South Wimbledon,10515.2009337397,51.41498850026229,-0.19328192113707632,Tooting Broadway,11603.354718534407,51.427675722454374,-0.16836472055651,Wimbledon,11877.704846744638,51.42143425544057,-0.20649073062441967,10581.778160576408,0.2958225324742373,2,0.8333333333333334,0.5645779329037853
51.54503610476591,-0.0509013642311968,Bethnal Green,2596.0184553069585,51.52723886838864,-0.05466345424549399,Mile End,3254.8872446772307,51.52523624361827,-0.033740882967349194,Stepney Green,3373.9545391534466,51.52186290860425,-0.04656403435941572,Bow Road,3501.266180533189,51.52690410757654,-0.025175873417555176,Whitechapel,3667.535970488781,51.520237178793906,-0.05941223966206099,3231.8588341695504,0.08722448495427355,3,0.6666666666666667,0.37694557581047017
51.527063696980456,-0.05166901256036,Bethnal Green,271.2951254651047,51.52723886838864,-0.05466345424549399,Stepney Green,881.9138395625467,51.52186290860425,-0.04656403435941572,Whitechapel,1209.355127622634,51.520237178793906,-0.05941223966206099,Whitechapel,1362.3022066025462,51.51953339230134,-0.06074218365991172,Mile End,1638.690767086971,51.52523624361827,-0.033740882967349194,715.1948188175821,0.015799047945726907,3,0.6666666666666667,0.34123285730619685
51.45938997795552,-0.3280567401352289,Richmond,2445.762291599669,51.46311840473405,-0.3016467054337033,Hounslow East,3246.110081384886,51.47326277254156,-0.3563132084539763,Osterley,3839.242837732699,51.481243488531945,-0.35219948980178173,Hounslow Central,3858.7439744481167,51.47131964602911,-0.36627277395717445,Kew Gardens,4646.712579022876,51.476997832844376,-0.2850185530874335,3444.1022707159736,0.0932481655548816,2,0.8333333333333334,0.4632907494441075
51.42650198400256,0.0447451738648304,LEWISHAM - DLR,7764.88438604442,51.4656534958191,-0.014057517109202628,ELVERSON ROAD - DLR,8229.276846314022,51.46869622022829,-0.016358693464723607,GREENWICH - DLR,9130.288905220223,51.47812532354829,-0.013428987645855905,DEPTFORD BRIDGE - DLR,9199.780956636969,51.474302836694164,-0.02243708367150416,WOOLWICH ARSENAL - DLR,9436.294683260945,51.489985357998016,0.0688912148850038,8703.222047172085,0.24250723471240418,1,1.0,0.6212536173562021
51.500814207221744,-0.0960134669233222,Borough,252.05392695619744,51.501192691784105,-0.093287413867766,London Bridge,843.0658377208481,51.50506641773977,-0.08962285051859702,Elephant & Castle,856.476619719194,51.49583866247047,-0.10116094487967293,Southwark,982.7929695420098,51.50428895407712,-0.10537192376614549,Lambeth North,1489.1561831507177,51.49884347246329,-0.11220756213772885,624.207594195035,0.013216739683194954,3,0.6666666666666667,0.33994170317493083
51.39250587945591,-0.0717652226973486,Tooting Bec,10094.587536311652,51.435899341737425,-0.1592083111530278,Tooting Broadway,10108.592933004542,51.427675722454374,-0.16836472055651,Colliers Wood,10302.407258262063,51.418159079977876,-0.17803308894654438,Balham,10400.012495061252,51.44362772683046,-0.1526657783980393,Brixton,10868.56356123181,51.46266775315543,-0.11486935481082039,10347.347486296618,0.2891691559184079,2,0.8333333333333334,0.5612512446258706
51.59378783554458,-0.2942521232775619,Queensbury,727.8275078418078,51.59419954633909,-0.28619819535279867,Kingsbury,1931.6299015816103,51.58464322697491,-0.2786209852413163,Canons Park,2013.7843272051562,51.607711419828995,-0.2946706986107864,Kenton,2681.4290263569546,51.58161346615873,-0.3167056317741808,Burnt Oak,3024.8518328903883,51.602836824142564,-0.2639696317085301,1617.2033609533512,0.04139895079905992,3,0.6666666666666667,0.35403280873286336
51.53813259558579,-0.1809758497057605,St. John's Wood,748.9875286474618,51.53520692691539,-0.17412259638664518,Swiss Cottage,979.0756914863179,51.543707571353366,-0.1748146844405925,Kilburn Park,1261.16282307365,51.53494947143909,-0.1939956564604581,Maida Vale,1290.6359298616358,51.52973090737325,-0.18580465252122327,Finchley Road,1316.0212391360462,51.54723304699958,-0.18106642213608887,1067.4399527154562,0.025796116473474358,3,0.6666666666666667,0.34623139157007055
51.48759984039206,0.1483084586687868,Abbey Wood,2554.056747271825,51.491074357645864,0.12057216047674105,Woolwich,6901.24384092862,51.491668236437704,0.07214595050906773,WOOLWICH ARSENAL - DLR,7178.383864783288,51.489985357998016,0.0688912148850038,GALLIONS REACH - DLR,7567.97153674641,51.508981284149876,0.07178457988924161,Dagenham Heathway,7812.441436290345,51.5416184486541,0.1475466339518699,5342.569399428543,0.14712855780727843,3,0.6666666666666667,0.4068976122369726
51.52823805917544,-0.1237032348142768,King's Cross St. Pancras,243.1099476657605,51.52978710018642,-0.12475052978005514,Russell Square,750.2401818749454,51.5230609674674,-0.12424429334451913,Euston,980.7241042765636,51.52808646670192,-0.13457316781860326,Euston Square,1158.6611506823901,51.52563497355153,-0.13585149330288998,Warren Street,1423.1194480043473,51.524528909457494,-0.13831645744152898,622.5352856672671,0.013169277897799562,6,0.16666666666666663,0.0899179722822331
51.462445244113255,0.0463514698518812,WOOLWICH ARSENAL - DLR,4472.772998066033,51.489985357998016,0.0688912148850038,Woolwich,4825.587949455383,51.491668236437704,0.07214595050906773,LEWISHAM - DLR,5476.496853329576,51.4656534958191,-0.014057517109202628,ELVERSON ROAD - DLR,5736.175814882808,51.46869622022829,-0.016358693464723607,GREENWICH - DLR,5856.168196530466,51.47812532354829,-0.013428987645855905,5216.5147802436095,0.14355100188113679,2,0.8333333333333334,0.4884421676072351
51.40354927979534,-0.2006983460476881,Morden,559.2735841794337,51.40253724508803,-0.19473027219670863,South Wimbledon,1784.9707704532152,51.41498850026229,-0.19328192113707632,Wimbledon,2638.7703797121853,51.42143425544057,-0.20649073062441967,Colliers Wood,2943.5152981685783,51.418159079977876,-0.17803308894654438,Wimbledon Park,4413.733381223307,51.43405489769917,-0.19906206857886732,1518.1294714580654,0.03858713491494892,2,0.8333333333333334,0.43596023412414114
51.52730210596035,-0.0660754651648943,Bethnal Green,1029.4435525222536,51.52723886838864,-0.05466345424549399,Whitechapel,1185.387740554714,51.520237178793906,-0.05941223966206099,Whitechapel,1222.1442123529957,51.51953339230134,-0.06074218365991172,Aldgate East,1776.5653172312407,51.515428289862534,-0.07112741698803417,Stepney Green,1927.8724862565934,51.52186290860425,-0.04656403435941572,1345.9570328070731,0.03370070923537546,3,0.6666666666666667,0.3501836879510211
51.53745428767849,-0.1377439375328503,Mornington Crescent,407.00226421273396,51.53470697367115,-0.13872430086651955,Camden Town,507.66087651367457,51.53923273585449,-0.14259744968174543,Euston,1384.5269652127156,51.52808646670192,-0.13457316781860326,King's Cross St. Pancras,1613.2719006741756,51.52978710018642,-0.12475052978005514,Chalk Farm,1630.026159467685,51.54386058053523,-0.15261667760159073,783.4017285130445,0.017734828130242138,6,0.16666666666666663,0.09220074739845438
51.48189260597335,-0.0391925464838034,DEPTFORD BRIDGE - DLR,1869.224912895846,51.474302836694164,-0.02243708367150416,GREENWICH - DLR,2389.3657579095766,51.47812532354829,-0.013428987645855905,Canada Water,2513.6247281363667,51.497921984959426,-0.04996098075543696,CUTTY SARK - DLR,2540.7533324932438,51.48167337063602,-0.011056580657622243,MUDCHUTE - DLR,2541.6883443385054,51.49088632239823,-0.015005815070749464,2338.243376553322,0.06186278621797839,2,0.8333333333333334,0.44759805977565587
51.53699323703329,-0.1089236112474437,Angel,882.3281086535527,51.53148959741432,-0.10470051077650719,Highbury & Islington,1580.3207617375092,51.54742661432923,-0.10371049499403494,King's Cross St. Pancras,1767.3366418077433,51.52978710018642,-0.12475052978005514,Caledonian Road,1875.8720867669047,51.54852596233329,-0.11844747007964432,Holloway Road,2312.7231340928442,51.55275818790897,-0.11323739717918851,1516.32440755161,0.03853590539938368,6,0.16666666666666663,0.10260128603302515
51.55610630501983,-0.1802588539192971,Hampstead,173.59595831709956,51.55659225238286,-0.17849793364354744,Finchley Road,1285.2127389054733,51.54723304699958,-0.18106642213608887,West Hampstead,1613.6297022553429,51.546804104148165,-0.19014461999570487,Belsize Park,1640.764129948634,51.55032802178578,-0.16459558981350675,Swiss Cottage,1858.9344235164194,51.543707571353366,-0.1748146844405925,601.9947943867697,0.012586318250770723,3,0.6666666666666667,0.33962649245871873
51.52936821046768,-0.1957422451806443,Kilburn Park,822.31687584989,51.53494947143909,-0.1939956564604581,Maida Vale,897.8727640815155,51.52973090737325,-0.18580465252122327,Queen's Park,1119.900957658391,51.533980102591585,-0.20571712125706945,Westbourne Park,1314.514734324658,51.52092167406287,-0.20112868965573463,Warwick Avenue,1413.731705082414,51.52320054302814,-0.18358218164957102,1065.907019140385,0.025752610288367155,3,0.6666666666666667,0.34620963847751696
51.51807746923533,-0.0520525383747238,Whitechapel,733.7772567407737,51.520237178793906,-0.05941223966206099,Stepney Green,738.1437856880714,51.52186290860425,-0.04656403435941572,Whitechapel,811.7630013228684,51.51953339230134,-0.06074218365991172,SHADWELL - DLR,1014.6082921960948,51.51169380098595,-0.05671793465551515,Bethnal Green,1345.6497316944872,51.52723886838864,-0.05466345424549399,880.5630508250957,0.020492363448478074,4,0.5,0.260246181724239
51.53676005826249,-0.0945137370558902,Angel,1193.728477251938,51.53148959741432,-0.10470051077650719,Highbury & Islington,1751.3010387466709,51.54742661432923,-0.10371049499403494,Old Street,1799.205473046009,51.525087015961375,-0.0876110910136405,Barbican,2423.9261716442816,51.52021035825423,-0.09877416007418292,Farringdon,2534.23135859062,51.519915625753825,-0.1022644932001967,1803.9684047816872,0.04669952918059395,5,0.33333333333333337,0.19001643125696366
51.545979734894026,-0.1085510279225092,Highbury & Islington,484.0098996010825,51.54742661432923,-0.10371049499403494,Caledonian Road,965.2806591302086,51.54852596233329,-0.11844747007964432,Holloway Road,1067.4180274022426,51.55275818790897,-0.11323739717918851,Arsenal,1831.3873650091366,51.558618236881735,-0.10725918161736345,Angel,2124.0078430036006,51.53148959741432,-0.10470051077650719,988.9780680391502,0.023569289862002515,3,0.6666666666666667,0.3451179782643346
51.520381245466325,-0.196097445544932,Westbourne Park,460.5701212265129,51.52092167406287,-0.20112868965573463,Royal Oak,776.2676505709858,51.519049717126414,-0.18776186391624705,Warwick Avenue,1200.3766519394255,51.52320054302814,-0.18358218164957102,Bayswater,1379.974519554667,51.51232538397531,-0.18789826772149676,Ladbroke Grove,1404.9135210320178,51.517322062930354,-0.21087783236229768,872.7605813596421,0.02027092157625504,4,0.5,0.26013546078812755
51.54356758210127,0.0355671281399788,Upton Park,1184.268312878329,51.535381114708535,0.035237134317064586,Forest Gate,1350.197249426078,51.54923382053423,0.023665990638303193,Manor Park,1530.5483263793503,51.5521985051404,0.04539047874751819,East Ham,1670.896841497907,51.53940799877854,0.05285335494738618,Plaistow,2445.7057855353673,51.531232747860415,0.017015994843462036,1540.4725414648192,0.039221253545648115,3,0.6666666666666667,0.3529439601061574
51.525596113803104,0.0347654758219118,Upton Park,1415.705848638477,51.535381114708535,0.035237134317064586,Plaistow,1796.6406281995,51.531232747860415,0.017015994843462036,PRINCE REGENT - DLR,2347.10105852921,51.509369678637576,0.03421726118998984,Custom House,2347.34377773977,51.50982669208105,0.028600872419654706,CUSTOM HOUSE - DLR,2410.309363603251,51.5097363194669,0.026552314998290878,1976.353951846451,0.05159200308968513,4,0.5,0.2757960015448426
51.49962330617616,-0.0240236684871515,SOUTH QUAY - DLR,474.9169939890634,51.5006124753315,-0.01900629922288873,HERON QUAYS - DLR,585.5559343825856,51.50333329307983,-0.021424319605413522,Canary Wharf,791.3193852225758,51.50343098588911,-0.01772685355334632,CANARY WHARF - DLR,843.0128003196196,51.50512355965997,-0.02092884206284268,CROSSHARBOUR - DLR,1017.3831031125043,51.49590414614073,-0.014456210976585209,690.0113457121795,0.015084315839663553,2,0.8333333333333334,0.42420882458649845
51.504121888645614,-0.312011239180961,South Ealing,619.6936663406101,51.500900326006715,-0.3074832071773945,Northfields,651.6882532741698,51.49965529858576,-0.31297296041616224,West Ealing,1582.9967753751114,51.51347124137933,-0.3211365656440236,Boston Manor,1776.2776350173856,51.495220105268935,-0.3255735048107276,Ealing Broadway,1804.7761696881855,51.5147471519823,-0.30151759673391815,1021.0436754945677,0.024479343810990768,4,0.5,0.2622396719054954
51.534330990873,0.0495740603738872,East Ham,791.5504467643837,51.53940799877854,0.05285335494738618,Upton Park,1301.980278182527,51.535381114708535,0.035237134317064586,Manor Park,2611.327148752175,51.5521985051404,0.04539047874751819,Barking,2877.337739301829,51.539886123317935,0.0802089530468054,Plaistow,2970.6597384921724,51.531232747860415,0.017015994843462036,1613.673500963286,0.041298769848868946,3,0.6666666666666667,0.35398271825776784
51.617401672523634,-0.0766926994003799,Wood Green,4148.644916354732,51.59747402372348,-0.10983386762894175,Tottenham Hale,4498.7542960114815,51.58805045886335,-0.060139591063478465,Bounds Green,4540.994335259531,51.60706647717479,-0.12431690931299394,Turnpike Lane,4582.874739549872,51.590254789519385,-0.10294685906251815,Seven Sisters,4931.7469004496415,51.58339989538407,-0.07248488928732598,4526.8780387681545,0.12397842273010318,2,0.8333333333333334,0.4786558780317183
51.58849597132365,0.0375749002256661,South Woodford,1040.8773314906525,51.59189362934642,0.027388706541122812,Snaresbrook,1843.0059595972348,51.58067843566125,0.021420000139433203,Redbridge,1907.262967213667,51.57625099831294,0.04543664415152093,Wanstead,2030.7084479381217,51.575602965168954,0.02864730241085162,Woodford,2675.1613102609394,51.6068623985304,0.03403805532136056,1727.7843842637778,0.04453735062780897,1,1.0,0.5222686753139045
51.52958893482189,-0.2101506056957402,Queen's Park,750.3999879782748,51.533980102591585,-0.20571712125706945,Kensal Green,1297.9944639402984,51.5305735728437,-0.22445465030672695,Westbourne Park,1494.3928517269824,51.52092167406287,-0.20112868965573463,Kilburn Park,1650.3981209784097,51.53494947143909,-0.1939956564604581,Ladbroke Grove,1775.0791205393916,51.517322062930354,-0.21087783236229768,1268.559149053281,0.03150408003222052,3,0.6666666666666667,0.3490853733494436
51.56324716329296,-0.0645507144623182,Seven Sisters,3000.7406297932293,51.58339989538407,-0.07248488928732598,Manor House,3038.407256011193,51.570753556351,-0.09603915207846561,Tottenham Hale,3608.8774136775337,51.58805045886335,-0.060139591063478465,Finsbury Park,3799.6483070946783,51.564572648553515,-0.10665342330316399,Arsenal,3907.4716430730173,51.558618236881735,-0.10725918161736345,3428.020849367243,0.09279175876377047,2,0.8333333333333334,0.4630625460485519
51.529145717407765,-0.1813340688571043,Maida Vale,412.01911267524986,51.52973090737325,-0.18580465252122327,Warwick Avenue,883.3054320220668,51.52320054302814,-0.18358218164957102,St. John's Wood,1091.4535085070197,51.53520692691539,-0.17412259638664518,Kilburn Park,1417.2156491534802,51.53494947143909,-0.1939956564604581,Paddington (H&C Line),1554.5700470255072,51.51851486174701,-0.17877271835790462,858.4772546119763,0.019865546504865064,3,0.6666666666666667,0.3432661065857659
51.52658157460475,-0.0228567053815006,Bow Road,214.34047840504527,51.52690410757654,-0.025175873417555176,BOW CHURCH - DLR,244.85745999422275,51.52766649951704,-0.020772671454633313,DEVONS ROAD - DLR,769.3611789683007,51.52246627159237,-0.017451963855542985,Mile End,1000.9175492295985,51.52523624361827,-0.033740882967349194,Bromley-by-Bow,1063.5106269916882,51.52476168287128,-0.011433996840445266,417.0618997293413,0.007337738091644865,4,0.5,0.2536688690458224
51.44371287843465,0.088685464438956,WOOLWICH ARSENAL - DLR,6926.5369714199305,51.489985357998016,0.0688912148850038,Woolwich,7094.254476013752,51.491668236437704,0.07214595050906773,Abbey Wood,7430.221010267666,51.491074357645864,0.12057216047674105,KING GEORGE V - DLR,8762.814149336773,51.50202586586268,0.06231897937750261,LONDON CITY AIRPORT - DLR,9410.965872695158,51.50366796473086,0.048170955147335826,7808.906242978975,0.2171256594411381,2,0.8333333333333334,0.5252294963872357
51.54666887780645,-0.1517903100110791,Chalk Farm,412.8811713409956,51.54386058053523,-0.15261667760159073,Kentish Town,1127.3676681964441,51.550296304938385,-0.140722210399805,Belsize Park,1270.0172328061733,51.55032802178578,-0.16459558981350675,Camden Town,1357.7516481989762,51.53923273585449,-0.14259744968174543,Tufnell Park,1901.2863342208213,51.55684688165748,-0.1384398274315375,933.029259255756,0.021981406817986937,1,1.0,0.5109907034089934
51.536525110600046,-0.0801040574546775,Old Street,1787.3246711072845,51.525087015961375,-0.0876110910136405,Angel,2334.817005450449,51.53148959741432,-0.10470051077650719,Highbury & Islington,2648.8685436250894,51.54742661432923,-0.10371049499403494,Bethnal Green,2658.664474338065,51.52723886838864,-0.05466345424549399,Moorgate,2753.7195642306433,51.518364706155445,-0.08928560399238544,2375.7618087195924,0.06292759677552777,6,0.16666666666666663,0.1147971317210972
51.56441417678391,-0.1366426293675769,Archway,146.8380409198799,51.564540856812656,-0.1350261547508563,Tufnell Park,1106.240511200323,51.55684688165748,-0.1384398274315375,Kentish Town,2074.4444706641298,51.550296304938385,-0.140722210399805,Highgate,2133.8145588696048,51.57784658975153,-0.14644230428628777,Holloway Road,2700.427448533612,51.55275818790897,-0.11323739717918851,553.3911999082135,0.011206899721066211,2,0.8333333333333334,0.4222701165271998
51.53835515985653,-0.1953868606249039,Kilburn Park,508.21886986443644,51.53494947143909,-0.1939956564604581,Queen's Park,1126.1277875098008,51.533980102591585,-0.20571712125706945,West Hampstead,1310.0275817391919,51.546804104148165,-0.19014461999570487,Kilburn,1500.1213338742673,51.54695520739804,-0.20469009526410165,Maida Vale,1517.3031373335689,51.52973090737325,-0.18580465252122327,1011.1889260607232,0.024199656184582037,2,0.8333333333333334,0.42876649475895773
51.54644093310637,-0.137377025173275,Kentish Town,633.8768958883057,51.550296304938385,-0.140722210399805,Camden Town,1143.7233469042392,51.53923273585449,-0.14259744968174543,Chalk Farm,1423.872722215265,51.54386058053523,-0.15261667760159073,Tufnell Park,1507.8447588651097,51.55684688165748,-0.1384398274315375,Mornington Crescent,1701.1711393287396,51.53470697367115,-0.13872430086651955,1135.0044046152523,0.02771366306441687,1,1.0,0.5138568315322084
51.54689505283001,-0.1662037836991749,Belsize Park,517.174652358648,51.55032802178578,-0.16459558981350675,Swiss Cottage,902.9217791613902,51.543707571353366,-0.1748146844405925,Chalk Farm,1301.3226636970594,51.54386058053523,-0.15261667760159073,Finchley Road,1340.9471301677413,51.54723304699958,-0.18106642213608887,Hampstead,1787.435563302101,51.55659225238286,-0.17849793364354744,977.5649562304504,0.023245374355764476,3,0.6666666666666667,0.3449560205112156
51.5362883941018,-0.0656945739108294,Bethnal Green,1643.9523086188788,51.52723886838864,-0.05466345424549399,Whitechapel,2389.406489212471,51.520237178793906,-0.05941223966206099,Whitechapel,2463.8496654286137,51.51953339230134,-0.06074218365991172,Old Street,2555.7428626885103,51.525087015961375,-0.0876110910136405,Stepney Green,2707.323627483721,51.52186290860425,-0.04656403435941572,2279.6520394816,0.06019990558324355,4,0.5,0.28009995279162175
51.55473288890739,-0.0937627051130169,Arsenal,1340.106547146091,51.558618236881735,-0.10725918161736345,Highbury & Islington,1385.9280700217148,51.54742661432923,-0.10371049499403494,Holloway Road,1778.756307318813,51.55275818790897,-0.11323739717918851,Finsbury Park,1837.0630018096194,51.564572648553515,-0.10665342330316399,Manor House,2325.84461508212,51.570753556351,-0.09603915207846561,1664.3163581625076,0.042736064690274286,2,0.8333333333333334,0.4380346990118038
51.57223338794435,-0.0641690322992668,Seven Sisters,1780.1704228295134,51.58339989538407,-0.07248488928732598,Tottenham Hale,2316.0256490271804,51.58805045886335,-0.060139591063478465,Manor House,2880.0338076567555,51.570753556351,-0.09603915207846561,Blackhorse Road,2921.8434791408513,51.58684229409946,-0.041768161396529516,Finsbury Park,3985.957933180609,51.564572648553515,-0.10665342330316399,2585.4936580730578,0.06887999602441475,2,0.8333333333333334,0.45110666467887406
51.56418431537333,-0.1222238593457283,Archway,1155.0228205223395,51.564540856812656,-0.1350261547508563,Finsbury Park,1404.505140466713,51.564572648553515,-0.10665342330316399,Arsenal,1570.7506623322595,51.558618236881735,-0.10725918161736345,Tufnell Park,1806.1998484508044,51.55684688165748,-0.1384398274315375,Holloway Road,1840.2175792376388,51.55275818790897,-0.11323739717918851,1509.8992717418007,0.03835355363122733,3,0.6666666666666667,0.35251011014894706
51.492520824658754,-0.1395756491060651,Victoria,643.5948787143759,51.49640213408183,-0.14306463520033438,Pimlico,728.0326023108336,51.48908299791676,-0.1336839727580515,St. James's Park,1152.223018375758,51.499562513712185,-0.13360214860579883,Sloane Square,1510.9459885074154,51.492337989718926,-0.1563109875356802,Vauxhall,1700.9686574970476,51.485698419511635,-0.12422721164969706,991.0877035228053,0.023629163422966403,3,0.6666666666666667,0.34514791504481657
51.53879498053211,-0.22420943394835,Kensal Green,1189.0706166362386,51.5305735728437,-0.22445465030672695,Willesden Green,1535.988824336382,51.54937464364035,-0.22269210604112535,Queen's Park,1807.214119599117,51.533980102591585,-0.20571712125706945,Willesden Junction,2053.871658743381,51.53240548064696,-0.24454944180503846,Kilburn,2119.0127626620215,51.54695520739804,-0.20469009526410165,1664.3474390317958,0.04273694679637108,2,0.8333333333333334,0.4380351400648522
51.554497790821294,-0.0793473537409144,Highbury & Islington,2422.9245407996805,51.54742661432923,-0.10371049499403494,Arsenal,2585.721630264656,51.558618236881735,-0.10725918161736345,Manor House,2790.9407337165526,51.570753556351,-0.09603915207846561,Finsbury Park,2860.2024370694376,51.564572648553515,-0.10665342330316399,Holloway Road,3065.6076914456394,51.55275818790897,-0.11323739717918851,2726.8895807564286,0.0728929534582556,2,0.8333333333333334,0.4531131433957945
51.48443322933952,-0.197516407606669,West Brompton,448.44244711188657,51.48728046887337,-0.1955480708404167,Fulham Broadway,586.128761236008,51.48076858389101,-0.19474266104252827,Earl's Court,1161.0250713429512,51.49198553743163,-0.1931516639864181,West Kensington,1164.5830269406895,51.49079150477593,-0.20543346956943115,Parsons Green,1418.3544790288108,51.47498606823488,-0.2017397326871696,786.0304208351472,0.017809433042428217,2,0.8333333333333334,0.4255713831878808
51.51993463362463,-0.1672869446866938,Edgware Road (Circle Line),42.5422488474285,51.51987407958044,-0.1677484069759043,Edgware Road (Bakerloo),276.02896943734856,51.52047083949832,-0.17022338612818863,Marylebone,424.7272330478443,51.522160589135,-0.1642153999007786,Paddington,922.334628263583,51.51656303002891,-0.17596514487950007,Baker Street,1025.979936414594,51.523003714101016,-0.1570331606949503,158.51785460000772,0.0,6,0.16666666666666663,0.08333333333333331
51.48016462848501,0.0615465471532041,WOOLWICH ARSENAL - DLR,1567.4373247776925,51.489985357998016,0.0688912148850038,Woolwich,1919.2373413637417,51.491668236437704,0.07214595050906773,KING GEORGE V - DLR,3162.266257078417,51.50202586586268,0.06231897937750261,LONDON CITY AIRPORT - DLR,3607.0962581494186,51.50366796473086,0.048170955147335826,PONTOON DOCK - DLR,4093.313529212878,51.50228212418493,0.033252979941393666,2504.024708064513,0.06656782589701936,2,0.8333333333333334,0.44995057961517637
51.54527466637133,-0.0653134851326031,Bethnal Green,2779.455318300995,51.52723886838864,-0.05466345424549399,Highbury & Islington,3476.055386525401,51.54742661432923,-0.10371049499403494,Old Street,3545.0412726936056,51.525087015961375,-0.0876110910136405,Whitechapel,3659.693346188844,51.520237178793906,-0.05941223966206099,Whitechapel,3745.323863294869,51.51953339230134,-0.06074218365991172,3401.8330000376222,0.09204852145784803,5,0.33333333333333337,0.2126909273955907
51.55542756280827,-0.1370099224949894,Tufnell Park,242.36808137674495,51.55684688165748,-0.1384398274315375,Kentish Town,814.0042707970262,51.550296304938385,-0.140722210399805,Archway,1329.9573159181189,51.564540856812656,-0.1350261547508563,Caledonian Road,1948.4977285673608,51.54852596233329,-0.11844747007964432,Holloway Road,2177.578730847561,51.55275818790897,-0.11323739717918851,706.3348072430932,0.015547591972760984,2,0.8333333333333334,0.4244404626530472
51.49342025678905,-0.1971619427489303,Earl's Court,417.24552009851936,51.49198553743163,-0.1931516639864181,West Kensington,837.866940768369,51.49079150477593,-0.20543346956943115,West Brompton,899.7285198063314,51.48728046887337,-0.1955480708404167,High Street Kensington,1110.984237363034,51.500446270423694,-0.19218216927430254,Gloucester Road,1224.0073787850497,51.49448969489053,-0.18371074399620252,778.9721089564898,0.017609111105371708,3,0.6666666666666667,0.3421378888860192
51.47856531529773,-0.4137598757705272,Hatton Cross,1935.0474734958666,51.46662778937479,-0.42344368101612345,Hounslow West,2626.445124932407,51.47361871639353,-0.385772979713366,Hayes & Harlington,3574.4838225426215,51.50303723137112,-0.41935690170324563,Heathrow Terminals 1-2-3,3644.3034249478624,51.4713042570714,-0.4524058201396179,Heathrow Terminals 1-2-3,3734.048110671126,51.47191531293728,-0.4537165537462638,2907.8332637774583,0.07802831580892103,2,0.8333333333333334,0.4556808245711272
51.54574648149152,-0.0941383184462224,Highbury & Islington,896.618396489673,51.54742661432923,-0.10371049499403494,Holloway Road,1998.3102292123783,51.55275818790897,-0.11323739717918851,Arsenal,2205.4425794140398,51.558618236881735,-0.10725918161736345,Caledonian Road,2228.3502083634658,51.54852596233329,-0.11844747007964432,Angel,2271.118045445037,51.53148959741432,-0.10470051077650719,1690.2041866487111,0.04347078710516557,3,0.6666666666666667,0.3550687268859162
51.49159313281335,-0.0819923880829043,Borough,1722.3676100963883,51.501192691784105,-0.093287413867766,Bermondsey,1822.5855085743622,51.49770348003495,-0.06433321766482115,Elephant & Castle,1836.0335358624463,51.49583866247047,-0.10116094487967293,London Bridge,2066.520905109128,51.50506641773977,-0.08962285051859702,Kennington,2212.496100321058,51.48834108236874,-0.10594020447433074,1915.8534874571408,0.0498749395158961,3,0.6666666666666667,0.3582708030912814
51.52060189920279,-0.2105029728052574,Ladbroke Grove,475.4884239713724,51.517322062930354,-0.21087783236229768,Westbourne Park,846.9553353798311,51.52092167406287,-0.20112868965573463,Latimer Road,1226.1937017962646,51.513460099025096,-0.21783010222149793,White City,1746.7179985772862,51.51221664617867,-0.22443847145144272,Kensal Green,1913.9358736736044,51.5305735728437,-0.22445465030672695,962.5902642049906,0.022820377647637235,4,0.5,0.2614101888238186
51.51139426485262,-0.1964524618438108,Notting Hill Gate,325.3450300205406,51.509157370677286,-0.196065916550476,Bayswater,783.5144506765303,51.51232538397531,-0.18789826772149676,Queensway,858.6346261222317,51.51025356764707,-0.1871140776304558,Holland Park,1030.836892241708,51.50715487958452,-0.20563658908430407,Royal Oak,1356.5825949096723,51.519049717126414,-0.18776186391624705,692.3450661625068,0.015150549155673794,4,0.5,0.2575752745778369
51.54551145863197,-0.0797258036935788,Highbury & Islington,2180.248320492308,51.54742661432923,-0.10371049499403494,Angel,3030.5964867793186,51.53148959741432,-0.10470051077650719,Old Street,3038.0673400025694,51.525087015961375,-0.0876110910136405,Arsenal,3123.1115867282842,51.558618236881735,-0.10725918161736345,Holloway Road,3197.9660713709823,51.55275818790897,-0.11323739717918851,2856.0326494199803,0.0765581626636365,3,0.6666666666666667,0.3716124146651516
51.59399664486943,-0.3086816119689796,Kenton,1931.0422583432496,51.58161346615873,-0.3167056317741808,Queensbury,2025.2138080368113,51.59419954633909,-0.28619819535279867,Canons Park,2350.561246143124,51.607711419828995,-0.2946706986107864,Harrow & Wealdstone,2375.0176253814284,51.592045896748125,-0.3348639494005961,Northwick Park,2397.481804015649,51.57847686666111,-0.31804395596062013,2197.595273200915,0.057871052643258876,3,0.6666666666666667,0.3622688596549628
51.55519777495621,-0.1225939909592724,Holloway Road,914.3019586036573,51.55275818790897,-0.11323739717918851,Caledonian Road,1034.7066831035988,51.54852596233329,-0.11844747007964432,Tufnell Park,1448.2093385609046,51.55684688165748,-0.1384398274315375,Arsenal,1468.1996643976327,51.558618236881735,-0.10725918161736345,Archway,1755.3596125315828,51.564540856812656,-0.1350261547508563,1249.535781436541,0.03096417786923359,2,0.8333333333333334,0.43214875560128346
51.52015882358929,-0.1816921023501185,Paddington (H&C Line),354.8032087251294,51.51851486174701,-0.17877271835790462,Warwick Avenue,471.74979801368715,51.52320054302814,-0.18358218164957102,Royal Oak,570.5950513857852,51.519049717126414,-0.18776186391624705,Paddington,676.331555961064,51.51618962783106,-0.1777269875659771,Paddington,733.0382155040054,51.51656303002891,-0.17596514487950007,524.4642634611479,0.010385924388464588,4,0.5,0.2551929621942323
51.56395268326358,-0.1078052813740563,Finsbury Park,137.17579800555356,51.564572648553515,-0.10665342330316399,Arsenal,772.9920624445125,51.558618236881735,-0.10725918161736345,Manor House,1446.331108929411,51.570753556351,-0.09603915207846561,Holloway Road,1691.311139403203,51.55275818790897,-0.11323739717918851,Highbury & Islington,2418.1981430496044,51.54742661432923,-0.10371049499403494,486.39159299282727,0.009305383994636183,2,0.8333333333333334,0.4213193586639848
51.53483095274375,0.0207581280102136,Plaistow,620.2504561947922,51.531232747860415,0.017015994843462036,Upton Park,1308.3303241142737,51.535381114708535,0.035237134317064586,ABBEY ROAD - DLR,1577.831229319788,51.532376547754104,0.0037132206864562978,WEST HAM - DLR,1706.9219501839098,51.52825289949919,0.005045971852253878,West Ham,1760.2392539932991,51.52828080305612,0.004310193355086798,1200.6760159697994,0.029577488951162405,4,0.5,0.2647887444755812
51.54734209363269,-0.1950312917515479,West Hampstead,447.4109725650897,51.546804104148165,-0.19014461999570487,Kilburn,872.6529845499144,51.54695520739804,-0.20469009526410165,Finchley Road,1259.2002735498802,51.54723304699958,-0.18106642213608887,Kilburn Park,1794.4960360912567,51.53494947143909,-0.1939956564604581,Swiss Cottage,1897.1057816150064,51.543707571353366,-0.1748146844405925,950.6524839162277,0.022481571526186152,3,0.6666666666666667,0.34457411909642643
51.52800672338903,-0.1092960014492899,Angel,652.2887612008427,51.53148959741432,-0.10470051077650719,Farringdon,1151.5177377272812,51.520472051074776,-0.10516628043747583,Farringdon,1330.9357828898735,51.519915625753825,-0.1022644932001967,King's Cross St. Pancras,1417.5739033064237,51.52978710018642,-0.12475052978005514,Chancery Lane,1425.3188466807865,51.51825060381962,-0.11154372015590731,1096.5245303116128,0.02662156581925202,7,0.0,0.01331078290962601
51.49364069883821,-0.2115589790369121,Barons Court,558.4452965031545,51.49029929831061,-0.2146606707385376,Kensington (Olympia),606.6248078745774,51.49773658225347,-0.2101063793267533,West Kensington,689.5740979395746,51.49079150477593,-0.20543346956943115,Hammersmith (Dist&Picc Line),1061.2906644931918,51.49200046267627,-0.2230186338960408,Hammersmith (H&C Line),1204.987437367949,51.49378497307084,-0.22490610415709966,750.5868091277288,0.016803507960684815,3,0.6666666666666667,0.3417350873136758
51.47991071460886,0.0759370184936211,WOOLWICH ARSENAL - DLR,1589.8032335617645,51.489985357998016,0.0688912148850038,Woolwich,1734.453726999736,51.491668236437704,0.07214595050906773,KING GEORGE V - DLR,3426.38909036988,51.50202586586268,0.06231897937750261,GALLIONS REACH - DLR,4220.766854610262,51.508981284149876,0.07178457988924161,LONDON CITY AIRPORT - DLR,4252.9273661287125,51.50366796473086,0.048170955147335826,2538.7573920198383,0.0675535741394767,2,0.8333333333333334,0.45044345373640504
51.47500028825245,-0.1690884747612648,Battersea Power Station,2410.4094399559294,51.479476819200244,-0.14337610628255198,Fulham Broadway,2462.136095913474,51.48076858389101,-0.19474266104252827,Sloane Square,2759.8657894809844,51.492337989718926,-0.1563109875356802,South Kensington,2784.608271610702,51.49408964921556,-0.17314093551479268,Parsons Green,2948.556345033963,51.47498606823488,-0.2017397326871696,2657.2831427528226,0.07091745326328,4,0.5,0.28545872663164
51.46601337217557,-0.1694482211902107,Clapham South,2730.7766849970426,51.45323750844449,-0.14718699803775498,Clapham Common,2967.2175843123273,51.46221120939256,-0.13716717677773801,Battersea Power Station,3055.2643251132117,51.479476819200244,-0.14337610628255198,Fulham Broadway,3125.787715741294,51.48076858389101,-0.19474266104252827,Parsons Green,3191.9537230952315,51.47498606823488,-0.2017397326871696,3005.307465829754,0.08079473096651643,2,0.8333333333333334,0.4570640321499249
51.59091198743357,-0.1066852098167014,Turnpike Lane,349.90232832879826,51.590254789519385,-0.10294685906251815,Wood Green,990.4281051275308,51.59747402372348,-0.10983386762894175,Bounds Green,2824.7312960882746,51.60706647717479,-0.12431690931299394,Manor House,3068.9050538696415,51.570753556351,-0.09603915207846561,Seven Sisters,3266.883846342667,51.58339989538407,-0.07248488928732598,1030.1691231010684,0.02473833312351597,2,0.8333333333333334,0.42903583322842465
51.456344790594855,-0.1266528009366542,Clapham Common,1273.5148132860015,51.46221120939256,-0.13716717677773801,Clapham North,1378.6590641163714,51.46573033892738,-0.12933358122662442,Brixton,1403.280088055367,51.46266775315543,-0.11486935481082039,Clapham South,1908.8311749612208,51.45323750844449,-0.14718699803775498,Stockwell,2263.150200021964,51.47182927610112,-0.123016885349951,1567.9241506240096,0.04000035761707847,2,0.8333333333333334,0.4366668454752059
51.54711945812323,-0.1806174447689193,Finchley Road,43.686687632457634,51.54723304699958,-0.18106642213608887,Swiss Cottage,719.1565470740196,51.543707571353366,-0.1748146844405925,West Hampstead,860.2050090782913,51.546804104148165,-0.19014461999570487,Hampstead,1383.1103731859598,51.55659225238286,-0.17849793364354744,Belsize Park,1517.2033293652612,51.55032802178578,-0.16459558981350675,186.39040476699992,0.0007910507974349659,3,0.6666666666666667,0.3337288587320508
51.46533150430221,-0.1262847732191633,Clapham North,281.35664718382475,51.46573033892738,-0.12933358122662442,Stockwell,984.9059185805947,51.47182927610112,-0.123016885349951,Clapham Common,1081.6107306792844,51.46221120939256,-0.13716717677773801,Brixton,1100.7311433342536,51.46266775315543,-0.11486935481082039,Nine Elms,2160.589976895033,51.48014022289899,-0.12946035642401071,728.2892723727758,0.016170681609125166,2,0.8333333333333334,0.42475200747122926
51.42062646617342,-0.1424965383217889,Tooting Broadway,2551.1358157069317,51.427675722454374,-0.16836472055651,Tooting Bec,2675.8064593175927,51.435899341737425,-0.1592083111530278,Colliers Wood,3232.7590681855345,51.418159079977876,-0.17803308894654438,Balham,3450.7948950095415,51.44362772683046,-0.1526657783980393,South Wimbledon,4663.686031207556,51.41498850026229,-0.19328192113707632,3166.068587842357,0.08535729208857729,1,1.0,0.5426786460442886
51.58145669232998,-0.0782108253885966,Seven Sisters,587.4721474288019,51.58339989538407,-0.07248488928732598,Tottenham Hale,1886.7976410932984,51.58805045886335,-0.060139591063478465,Manor House,2230.8737169722344,51.570753556351,-0.09603915207846561,Turnpike Lane,2566.055104637548,51.590254789519385,-0.10294685906251815,Blackhorse Road,3374.3099345582496,51.58684229409946,-0.041768161396529516,1485.2123776126687,0.037652914932219124,2,0.8333333333333334,0.43549312413277624
51.51831580194728,-0.066456159029978,Whitechapel,544.7565418827885,51.51953339230134,-0.06074218365991172,Aldgate East,593.2914370275018,51.515428289862534,-0.07112741698803417,Whitechapel,693.586231641141,51.520237178793906,-0.05941223966206099,Aldgate,1009.7974610148377,51.514493873055144,-0.07582285699189611,SHADWELL - DLR,1299.6501903307928,51.51169380098595,-0.05671793465551515,743.7474765216608,0.016609400873979847,5,0.33333333333333337,0.1749713671036566
51.48284118683116,-0.0967621669757062,Kennington,1148.5687060054033,51.48834108236874,-0.10594020447433074,Oval,1417.6986312533043,51.481838396899654,-0.11238107063105886,Elephant & Castle,1921.0550299229094,51.49583866247047,-0.10116094487967293,Vauxhall,2513.9456108064587,51.485698419511635,-0.12422721164969706,Borough,2672.2772705264388,51.501192691784105,-0.093287413867766,1743.0358044542147,0.044970201157501374,3,0.6666666666666667,0.35581843391208406
51.42085339237219,-0.1568702568393767,Tooting Broadway,1432.8685011649009,51.427675722454374,-0.16836472055651,Colliers Wood,1952.6715345562654,51.418159079977876,-0.17803308894654438,Tooting Bec,2185.951300111963,51.435899341737425,-0.1592083111530278,Balham,3315.123208570645,51.44362772683046,-0.1526657783980393,South Wimbledon,3399.7055978355374,51.41498850026229,-0.19328192113707632,2209.185657362015,0.05819999931581965,1,1.0,0.5290999996579098
51.44735806113557,-0.1270206381744712,Clapham South,2010.7218602662688,51.45323750844449,-0.14718699803775498,Clapham Common,2335.310079401988,51.46221120939256,-0.13716717677773801,Balham,2379.372011760976,51.44362772683046,-0.1526657783980393,Brixton,2471.157622586168,51.46266775315543,-0.11486935481082039,Clapham North,2664.9759024010577,51.46573033892738,-0.12933358122662442,2352.1353544574977,0.062257054418527226,2,0.8333333333333334,0.4477951938759303
51.53458185599517,0.0351661980865229,Upton Park,115.7625302552658,51.535381114708535,0.035237134317064586,Plaistow,1707.2608182890765,51.531232747860415,0.017015994843462036,East Ham,1741.2091015167318,51.53940799877854,0.05285335494738618,Forest Gate,2359.0608460512863,51.54923382053423,0.023665990638303193,Manor Park,2709.389959105184,51.5521985051404,0.04539047874751819,472.0808928555727,0.008899232039124266,3,0.6666666666666667,0.3377829493528955
51.617164273092165,-0.0622576477735804,Tottenham Hale,4214.629248781882,51.58805045886335,-0.060139591063478465,Blackhorse Road,4757.425439480104,51.58684229409946,-0.041768161396529516,Seven Sisters,4968.997224612868,51.58339989538407,-0.07248488928732598,Wood Green,5144.171167392242,51.59747402372348,-0.10983386762894175,Turnpike Lane,5345.228015813674,51.590254789519385,-0.10294685906251815,4853.464677441201,0.1332472775498485,2,0.8333333333333334,0.4832903054415909
51.47431820225734,-0.1259165548918058,Stockwell,445.10159790951786,51.47182927610112,-0.123016885349951,Nine Elms,900.6801316095093,51.48014022289899,-0.12946035642401071,Clapham North,1279.6589863878683,51.46573033892738,-0.12933358122662442,Oval,1636.0286331425878,51.481838396899654,-0.11238107063105886,Vauxhall,1652.7440564398828,51.485698419511635,-0.12422721164969706,933.7593105736623,0.022002126403160818,2,0.8333333333333334,0.4276677298682471
51.45680098783281,-0.1554225998551311,Clapham South,905.0588818580404,51.45323750844449,-0.14718699803775498,Clapham Common,1825.3017465253579,51.46221120939256,-0.13716717677773801,Balham,1921.1589267268666,51.44362772683046,-0.1526657783980393,Clapham North,2687.271992196728,51.46573033892738,-0.12933358122662442,Tooting Bec,3041.7966052017186,51.435899341737425,-0.1592083111530278,1739.643597526443,0.04487392693863008,1,1.0,0.522436963469315
51.53407835743692,0.0639817134064483,East Ham,1265.459335735755,51.53940799877854,0.05285335494738618,Barking,1687.4006698603025,51.539886123317935,0.0802089530468054,Upton Park,2599.400914055731,51.535381114708535,0.035237134317064586,BECKTON - DLR,2849.842316752102,51.514417517428555,0.06184131351015285,Manor Park,3110.8663072645263,51.5521985051404,0.04539047874751819,2049.256864421977,0.05366106052370838,4,0.5,0.27683053026185417
51.46578784746132,-0.1550602170223205,Clapham Common,1696.9587222407406,51.46221120939256,-0.13716717677773801,Clapham South,1949.2575003431496,51.45323750844449,-0.14718699803775498,Battersea Power Station,2243.2314883008135,51.479476819200244,-0.14337610628255198,Clapham North,2323.741268558123,51.46573033892738,-0.12933358122662442,Stockwell,3023.0860599466487,51.47182927610112,-0.123016885349951,2165.2340694397253,0.056952609376034614,2,0.8333333333333334,0.445142971354684
51.51117191413064,-0.1820499503118471,Queensway,475.8610051758905,51.51025356764707,-0.1871140776304558,Bayswater,553.4425108695643,51.51232538397531,-0.18789826772149676,Lancaster Gate,602.8276114510348,51.511688633407516,-0.1754206552699262,Paddington,823.785773863945,51.51618962783106,-0.1777269875659771,Paddington,953.5064075724506,51.51656303002891,-0.17596514487950007,638.5823359088313,0.013624709202578453,5,0.33333333333333337,0.17347902126795592
51.527538746725845,-0.0804821151585132,Old Street,734.3351398215041,51.525087015961375,-0.0876110910136405,Liverpool Street,1492.9257622953414,51.5173539500115,-0.08318729106258493,Liverpool Street,1529.7826334867157,51.5176887243615,-0.08666614877349453,Moorgate,1546.2182866073583,51.518364706155445,-0.08928560399238544,Aldgate,1932.7024964648529,51.514493873055144,-0.07582285699189611,1298.8906415846639,0.03236491806858927,5,0.33333333333333337,0.18284912570096132
51.45100962687355,-0.3715390646140155,Hounslow Central,2975.1821982699566,51.47131964602911,-0.36627277395717445,Hounslow East,3499.4750466890473,51.47326277254156,-0.3563132084539763,Hounslow West,3513.047839974202,51.47361871639353,-0.385772979713366,Osterley,4707.945397578991,51.481243488531945,-0.35219948980178173,Hatton Cross,5204.268956758359,51.46662778937479,-0.42344368101612345,3813.647039927265,0.1037362150021367,1,1.0,0.5518681075010683
51.45611404606407,-0.1122681864678741,Brixton,976.412269974505,51.46266775315543,-0.11486935481082039,Clapham North,2076.1044948397075,51.46573033892738,-0.12933358122662442,Clapham Common,2415.946887898517,51.46221120939256,-0.13716717677773801,Stockwell,2471.25800248138,51.47182927610112,-0.123016885349951,Clapham South,3182.112646724142,51.45323750844449,-0.14718699803775498,1894.9054399355268,0.04928041301590248,2,0.8333333333333334,0.4413068731746179
51.51161484799901,-0.2108551573153609,Latimer Road,683.584655902659,51.513460099025096,-0.21783010222149793,Holland Park,798.5655777818693,51.50715487958452,-0.20563658908430407,Ladbroke Grove,825.3009866322456,51.517322062930354,-0.21087783236229768,Wood Lane,1166.5607562774537,51.510141982020784,-0.2235661927939285,White City,1228.7245614845724,51.51221664617867,-0.22443847145144272,893.1962718748014,0.020850906872946516,3,0.6666666666666667,0.34375878676980665
51.51970867562555,-0.152881974020415,Baker Street,606.0473304906054,51.523003714101016,-0.1570331606949503,Regent's Park,787.7769714244027,51.52328012143714,-0.14628795246468157,Bond Street,823.5520190455954,51.51438111353607,-0.14965621167781878,Marble Arch,970.2331912266764,51.51360126611504,-0.15733420173928858,Great Portland Street,981.0751001217993,51.52384821061523,-0.144265756453953,808.5834886000816,0.018449511619134263,6,0.16666666666666663,0.09255808914290045
51.42107855679157,-0.1712441624081761,Colliers Wood,744.9729502913232,51.418159079977876,-0.17803308894654438,Tooting Broadway,988.8518702756586,51.427675722454374,-0.16836472055651,South Wimbledon,2178.5078640942124,51.41498850026229,-0.19328192113707632,Tooting Bec,2403.487478508662,51.435899341737425,-0.1592083111530278,Wimbledon Park,3137.614713517482,51.43405489769917,-0.19906206857886732,1409.4791307932821,0.03550352978698181,2,0.8333333333333334,0.4344184315601576
51.55496621697089,-0.1081782513421874,Arsenal,534.5883726569547,51.558618236881735,-0.10725918161736345,Holloway Road,556.7592827955561,51.55275818790897,-0.11323739717918851,Highbury & Islington,1162.331419077651,51.54742661432923,-0.10371049499403494,Caledonian Road,1313.2259364608583,51.54852596233329,-0.11844747007964432,Finsbury Park,1395.9954723494939,51.564572648553515,-0.10665342330316399,832.6582453296272,0.01913277724767775,2,0.8333333333333334,0.42623305529050554
51.48465360088149,-0.2119106164978599,Barons Court,853.3185274396815,51.49029929831061,-0.2146606707385376,West Kensington,1062.8847783549445,51.49079150477593,-0.20543346956943115,Hammersmith (Dist&Picc Line),1460.9324615121047,51.49200046267627,-0.2230186338960408,West Brompton,1525.309235965046,51.48728046887337,-0.1955480708404167,Fulham Broadway,1648.7407893978902,51.48076858389101,-0.19474266104252827,1231.7231781995679,0.03045863840798663,2,0.8333333333333334,0.43189598587066
51.4349825687751,0.0738993833557136,WOOLWICH ARSENAL - DLR,7967.173899988429,51.489985357998016,0.0688912148850038,Woolwich,8199.223338291733,51.491668236437704,0.07214595050906773,LEWISHAM - DLR,9101.602807494603,51.4656534958191,-0.014057517109202628,Abbey Wood,9142.073203535554,51.491074357645864,0.12057216047674105,ELVERSON ROAD - DLR,9501.59156071761,51.46869622022829,-0.016358693464723607,8741.588000423824,0.24359609876439475,2,0.8333333333333334,0.538464716048864
51.47408731008612,-0.1115262944686426,Stockwell,1087.8848275798557,51.47182927610112,-0.123016885349951,Oval,1123.5362542736864,51.481838396899654,-0.11238107063105886,Brixton,1678.7501668671716,51.46266775315543,-0.11486935481082039,Nine Elms,1840.8766347781766,51.48014022289899,-0.12946035642401071,Clapham North,2011.7425417801771,51.46573033892738,-0.12933358122662442,1451.275980844442,0.03668976611502311,2,0.8333333333333334,0.4350115497241782
51.59044296114529,-0.0778315893241066,Seven Sisters,1126.667962811542,51.58339989538407,-0.07248488928732598,Tottenham Hale,1630.8546855924044,51.58805045886335,-0.060139591063478465,Turnpike Lane,2262.569087965922,51.590254789519385,-0.10294685906251815,Wood Green,3056.599131672609,51.59747402372348,-0.10983386762894175,Manor House,3286.209219164508,51.570753556351,-0.09603915207846561,1942.3609874100462,0.0506272488255977,2,0.8333333333333334,0.4419802910794655
51.412091546716425,-0.1716027933552157,Colliers Wood,1052.5598672391561,51.418159079977876,-0.17803308894654438,South Wimbledon,2004.6061902726094,51.41498850026229,-0.19328192113707632,Tooting Broadway,2272.46346581276,51.427675722454374,-0.16836472055651,Morden,2506.71346823743,51.40253724508803,-0.19473027219670863,Wimbledon,3431.6650142340036,51.42143425544057,-0.20649073062441967,1938.5109312190064,0.0505179803875881,2,0.8333333333333334,0.44192565686046076
51.48237042718661,-0.0679769632996388,Bermondsey,2241.5900281843637,51.49770348003495,-0.06433321766482115,Canada Water,2775.4169116447433,51.497921984959426,-0.04996098075543696,Kennington,3534.6493129319074,51.48834108236874,-0.10594020447433074,Borough,3553.7785984864086,51.501192691784105,-0.093287413867766,Elephant & Castle,3573.2730849896457,51.49583866247047,-0.10116094487967293,3029.242378140817,0.08147402767086408,3,0.6666666666666667,0.3740703471687654
51.554260922768506,-0.0649321986949109,Highbury & Islington,3633.2190166360892,51.54742661432923,-0.10371049499403494,Manor House,3680.916648321127,51.570753556351,-0.09603915207846561,Arsenal,3867.298693932209,51.558618236881735,-0.10725918161736345,Bethnal Green,4015.9650758306925,51.52723886838864,-0.05466345424549399,Finsbury Park,4045.577812201649,51.564572648553515,-0.10665342330316399,3841.1971350280614,0.10451811420290316,3,0.6666666666666667,0.38559239043478494
51.48421109191548,-0.1831223822779931,Fulham Broadway,1161.3078349918173,51.48076858389101,-0.19474266104252827,West Brompton,1206.4490103367207,51.48728046887337,-0.1955480708404167,Earl's Court,1443.5115687849134,51.49198553743163,-0.1931516639864181,Gloucester Road,1487.3065526054233,51.49448969489053,-0.18371074399620252,South Kensington,1688.962713184711,51.49408964921556,-0.17314093551479268,1370.92679761761,0.03440937608669681,3,0.6666666666666667,0.3505380213766818
51.503063505136936,-0.2400074352317511,Goldhawk Road,1217.9542608420727,51.501992951126496,-0.2266214631541082,Stamford Brook,1295.1647195519938,51.49491901447832,-0.24597832114672852,Shepherd's Bush Market,1314.5879711790692,51.50609178517763,-0.2262724263347779,Ravenscourt Park,1342.3569936012552,51.494168694143745,-0.23575227913466715,Turnham Green,1758.1221998583223,51.494958689122086,-0.2545275752571731,1363.2919207024456,0.03419269065834978,4,0.5,0.26709634532917487
51.57247040767063,-0.078589864723043,Manor House,1591.9801054830964,51.570753556351,-0.09603915207846561,Seven Sisters,1673.5720714782913,51.58339989538407,-0.07248488928732598,Finsbury Park,2775.161825660812,51.564572648553515,-0.10665342330316399,Tottenham Hale,2800.0545814011994,51.58805045886335,-0.060139591063478465,Arsenal,3269.5781925680217,51.558618236881735,-0.10725918161736345,2223.212335005877,0.05859809042944442,2,0.8333333333333334,0.4459657118813889
51.553050034992445,0.0071405802364722,Maryland,1027.995226696871,51.54597754246028,0.005995874714128158,Leyton,1246.89076005415,51.55660540139774,-0.005459613057395526,Forest Gate,1588.8713087535853,51.54923382053423,0.023665990638303193,STRATFORD INTERNATIONAL - DLR,1907.3472298350662,51.54484877107612,-0.009426193778977777,STRATFORD - DLR,1927.7049714865227,51.541379421331804,-0.0031886752128283003,1450.4611259712121,0.036666639720294235,3,0.6666666666666667,0.3516666531934805
51.543816758568624,0.0211562240147192,Forest Gate,815.4359049583593,51.54923382053423,0.023665990638303193,Maryland,1402.3180734109371,51.54597754246028,0.005995874714128158,Upton Park,1760.879109698207,51.535381114708535,0.035237134317064586,Plaistow,1857.77372939271,51.531232747860415,0.017015994843462036,STRATFORD HIGH STREET - DLR,2143.003973692293,51.53803706311903,-0.0007247739857324261,1423.5870568301473,0.03590392681110599,4,0.5,0.267951963405553
51.5277736192207,-0.0948889610753191,Old Street,762.8429896864044,51.525087015961375,-0.0876110910136405,Angel,1035.3571415145495,51.53148959741432,-0.10470051077650719,Barbican,1148.5108158547628,51.52021035825423,-0.09877416007418292,Farringdon,1316.8026589618353,51.519915625753825,-0.1022644932001967,Farringdon,1405.137104028767,51.520472051074776,-0.10516628043747583,1082.5982840877205,0.026226325049581372,4,0.5,0.26311316252479067
51.5090912255891,-0.0524358654703873,SHADWELL - DLR,539.4068934481802,51.51169380098595,-0.05671793465551515,LIMEHOUSE - DLR,1241.1503117918471,51.51230947342043,-0.03968502529467449,Canada Water,1630.5848104819277,51.497921984959426,-0.04996098075543696,Whitechapel,1685.8364916258595,51.51953339230134,-0.06074218365991172,Whitechapel,1730.4071775389748,51.520237178793906,-0.05941223966206099,1125.1263980371762,0.02743331537703846,4,0.5,0.2637166576885192
51.52584513086413,0.0203602383285621,Plaistow,835.4818870617663,51.531232747860415,0.017015994843462036,WEST HAM - DLR,1424.6727175821,51.52825289949919,0.005045971852253878,West Ham,1490.0697788135333,51.52828080305612,0.004310193355086798,STAR LANE - DLR,1630.049345983707,51.52082126522908,0.004186014292672907,ABBEY ROAD - DLR,1773.9732866856586,51.532376547754104,0.0037132206864562978,1334.3567484659995,0.03337148158582419,4,0.5,0.2666857407929121
51.52846762652492,-0.1381106597040084,Euston,323.81024689090714,51.52808646670192,-0.13457316781860326,Euston Square,457.5186178792935,51.52563497355153,-0.13585149330288998,Warren Street,569.8735995238062,51.524528909457494,-0.13831645744152898,Great Portland Street,868.6120658968458,51.52384821061523,-0.144265756453953,Mornington Crescent,903.9590457324198,51.53470697367115,-0.13872430086651955,538.4325839983792,0.010782359269148362,5,0.33333333333333337,0.17205784630124088
51.56300844894229,-0.0501329193929452,Blackhorse Road,3528.182408839521,51.58684229409946,-0.041768161396529516,Seven Sisters,3571.051944321133,51.58339989538407,-0.07248488928732598,Tottenham Hale,3731.963069592283,51.58805045886335,-0.060139591063478465,Walthamstow Central,3888.7090407191436,51.583121461554015,-0.02149009721696701,Leyton,4131.923443885669,51.55660540139774,-0.005459613057395526,3757.731909052551,0.10214928777078836,2,0.8333333333333334,0.46774131055206086
51.55230226639955,0.0503817976920819,Manor Park,450.2632068711277,51.5521985051404,0.04539047874751819,East Ham,1877.9999162299725,51.53940799877854,0.05285335494738618,Ilford,1932.9323407530876,51.55901703762676,0.06892040799865062,Forest Gate,2449.3058931834057,51.54923382053423,0.023665990638303193,Upton Park,2802.4089498107146,51.535381114708535,0.035237134317064586,1238.89084838197,0.030662064042870037,3,0.6666666666666667,0.3486643653547684
51.57317084003505,-0.1218535356821122,Archway,1722.4533216700563,51.564540856812656,-0.1350261547508563,Finsbury Park,1849.9987851156438,51.564572648553515,-0.10665342330316399,Highgate,2316.521666900039,51.57784658975153,-0.14644230428628777,Manor House,2352.4100983591347,51.570753556351,-0.09603915207846561,Arsenal,2481.7031580416296,51.558618236881735,-0.10725918161736345,2100.103646798589,0.055104142965215805,3,0.6666666666666667,0.3608854048159413
51.48307391842524,-0.1111550602339868,Oval,210.1838988905562,51.481838396899654,-0.11238107063105886,Kennington,895.453158300051,51.48834108236874,-0.10594020447433074,Vauxhall,1239.7701144980813,51.485698419511635,-0.12422721164969706,Nine Elms,1706.4225699421293,51.48014022289899,-0.12946035642401071,Stockwell,1947.1890778496827,51.47182927610112,-0.123016885349951,642.6177972699529,0.013739239624395171,2,0.8333333333333334,0.42353628647886427
51.52892145569503,-0.1669260781919996,Marylebone,1007.7910474404206,51.522160589135,-0.1642153999007786,St. John's Wood,1116.8971646292598,51.53520692691539,-0.17412259638664518,Baker Street,1236.4011030925299,51.523003714101016,-0.1570331606949503,Edgware Road (Bakerloo),1257.697322604888,51.52047083949832,-0.17022338612818863,Edgware Road (Circle Line),1310.420779309174,51.51987407958044,-0.1677484069759043,1175.1921713880815,0.028854232002756237,5,0.33333333333333337,0.1810937826680448
51.50262778121078,-0.2112071593509765,Kensington (Olympia),714.2404794842172,51.49773658225347,-0.2101063793267533,Shepherd's Bush,730.2489413106753,51.50435400520262,-0.21881127614733645,Holland Park,825.3944109076674,51.50715487958452,-0.20563658908430407,Goldhawk Road,1394.165728928989,51.501992951126496,-0.2266214631541082,Shepherd's Bush Market,1448.9296374603175,51.50609178517763,-0.2262724263347779,927.9078376383029,0.021836055760038723,4,0.5,0.2609180278800194
51.47566648734075,-0.2122620718583938,Parsons Green,955.2807563052534,51.47498606823488,-0.2017397326871696,Putney Bridge,1118.754552527777,51.468255977268214,-0.2087033152868412,Fulham Broadway,1745.556141882866,51.48076858389101,-0.19474266104252827,Barons Court,2127.042366095116,51.49029929831061,-0.2146606707385376,West Brompton,2257.8893308370402,51.48728046887337,-0.1955480708404167,1459.1830087042224,0.03691417545885226,2,0.8333333333333334,0.4351237543960928
51.53604990882411,-0.051285287891245,Bethnal Green,1310.1428183602648,51.52723886838864,-0.05466345424549399,Stepney Green,2095.404261913812,51.52186290860425,-0.04656403435941572,Mile End,2224.8291894950935,51.52523624361827,-0.033740882967349194,Whitechapel,2401.3967582787764,51.520237178793906,-0.05941223966206099,Whitechapel,2536.303195467897,51.51953339230134,-0.06074218365991172,1999.4544724717946,0.052247618925062876,3,0.6666666666666667,0.3594571427958648
51.55402228480541,-0.0505172414439088,Bethnal Green,3891.27769699202,51.52723886838864,-0.05466345424549399,STRATFORD INTERNATIONAL - DLR,3935.159826712234,51.54484877107612,-0.009426193778977777,Leyton,4079.0226788428176,51.55660540139774,-0.005459613057395526,PUDDING MILL LANE - DLR,4369.980918685896,51.534196770231574,-0.013942896998014478,Mile End,4429.282953350557,51.52523624361827,-0.033740882967349194,4129.278875765088,0.11269416158181689,4,0.5,0.30634708079090844
51.54799938093088,-0.238273933487308,Dollis Hill,577.228873041221,51.551964185681975,-0.23901638523553653,Willesden Green,1418.8314880064506,51.54937464364035,-0.22269210604112535,Neasden,1487.007984131364,51.55442856977583,-0.25114679891952135,Willesden Junction,2324.8687405162364,51.53240548064696,-0.24454944180503846,Harlesden,2453.0875599172377,51.53670018373658,-0.25856671093683925,1266.6266612739394,0.03144923409994225,2,0.8333333333333334,0.4323912837166378
51.50284652673148,-0.2256072068485281,Goldhawk Road,153.66795133133246,51.501992951126496,-0.2266214631541082,Shepherd's Bush Market,473.10784541485924,51.50609178517763,-0.2262724263347779,Shepherd's Bush,650.8984506510293,51.50435400520262,-0.21881127614733645,Wood Lane,1070.9175702057198,51.510141982020784,-0.2235661927939285,Hammersmith (H&C Line),1311.8767498072777,51.49378497307084,-0.22490610415709966,421.81263515201243,0.007472568705348703,3,0.6666666666666667,0.33706961768600774
51.56348410716763,-0.0789687074622544,Manor House,1863.3092317103615,51.570753556351,-0.09603915207846561,Finsbury Park,2500.2371406246607,51.564572648553515,-0.10665342330316399,Arsenal,2645.39095444734,51.558618236881735,-0.10725918161736345,Seven Sisters,2938.788715100582,51.58339989538407,-0.07248488928732598,Highbury & Islington,3219.8768288065285,51.54742661432923,-0.10371049499403494,2543.875845812417,0.06769884096759235,2,0.8333333333333334,0.4505160871504629
51.546211218784,-0.1229639306542854,Caledonian Road,527.1340075586842,51.54852596233329,-0.11844747007964432,Holloway Road,1290.4941980705646,51.55275818790897,-0.11323739717918851,Kentish Town,1706.6192468914264,51.550296304938385,-0.140722210399805,Highbury & Islington,1744.8477048955256,51.54742661432923,-0.10371049499403494,Camden Town,2037.80128360335,51.53923273585449,-0.14259744968174543,1156.940764319571,0.02833623885073553,3,0.6666666666666667,0.34750145275870115
51.50034314630788,-0.0672169551332826,Bermondsey,462.02265010791365,51.49770348003495,-0.06433321766482115,Canada Water,1596.3897268837914,51.497921984959426,-0.04996098075543696,Tower Hill,1621.8901028445237,51.50994649895624,-0.07650026770114257,TOWER GATEWAY - DLR,1630.8327435468013,51.51062271552741,-0.0746485617990705,SHADWELL - DLR,1895.2747908930967,51.51169380098595,-0.05671793465551515,1099.3394498551038,0.026701456045881904,4,0.5,0.26335072802294096
51.56371928050983,-0.0933868969228448,Manor House,1044.9401200458612,51.570753556351,-0.09603915207846561,Finsbury Park,1202.081996251679,51.564572648553515,-0.10665342330316399,Arsenal,1451.8267693195705,51.558618236881735,-0.10725918161736345,Holloway Road,2390.547290130126,51.55275818790897,-0.11323739717918851,Highbury & Islington,2533.304761609785,51.54742661432923,-0.10371049499403494,1519.4217356812937,0.038623810663603306,2,0.8333333333333334,0.43597857199846834
51.57270565629846,-0.0930108937421558,Manor House,392.64998893546306,51.570753556351,-0.09603915207846561,Finsbury Park,1701.5091697357998,51.564572648553515,-0.10665342330316399,Arsenal,2408.2464967871247,51.558618236881735,-0.10725918161736345,Seven Sisters,2410.9523028649296,51.58339989538407,-0.07248488928732598,Turnpike Lane,2691.0791046467875,51.590254789519385,-0.10294685906251815,1153.1038424593967,0.028227343178147204,2,0.8333333333333334,0.4307803382557403
51.47544618627841,-0.1978706889019961,Parsons Green,355.6682191445009,51.47498606823488,-0.2017397326871696,Fulham Broadway,819.8517624069124,51.48076858389101,-0.19474266104252827,Putney Bridge,1427.6289582324616,51.468255977268214,-0.2087033152868412,West Brompton,1724.1223899058625,51.48728046887337,-0.1955480708404167,West Kensington,2321.7147265409412,51.49079150477593,-0.20543346956943115,870.697082365157,0.02021235741490942,1,1.0,0.5101061787074547
51.47385465291946,-0.0971362262460463,Oval,1796.6575813229986,51.481838396899654,-0.11238107063105886,Kennington,2240.6313825218836,51.48834108236874,-0.10594020447433074,Brixton,2276.4925946587723,51.46266775315543,-0.11486935481082039,Stockwell,2355.5884705765843,51.47182927610112,-0.123016885349951,Vauxhall,2986.1948866036387,51.485698419511635,-0.12422721164969706,2271.1160253134226,0.059957644980098264,2,0.8333333333333334,0.4466454891567158
51.55179490668464,0.079208230734617,Ilford,1396.810512687261,51.55901703762676,0.06892040799865062,Barking,1724.5996502937346,51.539886123317935,0.0802089530468054,Seven Kings,2325.529656896151,51.56394849951275,0.096099334795915,Upney,2801.305380024243,51.53835560347559,0.10158060702967472,East Ham,2976.0071902547684,51.53940799877854,0.05285335494738618,2067.1679669353325,0.054169395492745714,3,0.6666666666666667,0.3604180310797062
51.47477469139469,-0.1546976464985812,Battersea Power Station,1227.8333343592747,51.479476819200244,-0.14337610628255198,Nine Elms,2407.4188508799225,51.48014022289899,-0.12946035642401071,Clapham Common,2409.8818510674264,51.46221120939256,-0.13716717677773801,Sloane Square,2543.969743236137,51.492337989718926,-0.1563109875356802,Clapham North,2637.8080758979986,51.46573033892738,-0.12933358122662442,2068.7036318114656,0.05421297919490356,3,0.6666666666666667,0.36043982293078514
51.4736202308126,-0.0827463516841752,Oval,2928.0679779452694,51.481838396899654,-0.11238107063105886,Kennington,2986.246549401973,51.48834108236874,-0.10594020447433074,Brixton,3305.5478007026327,51.46266775315543,-0.11486935481082039,Elephant & Castle,3617.677690107102,51.49583866247047,-0.10116094487967293,Stockwell,3646.1080131614535,51.47182927610112,-0.123016885349951,3268.833044200894,0.08827384994436548,3,0.6666666666666667,0.3774702583055161
51.49319804829354,-0.1827650901490357,Gloucester Road,205.36338254633642,51.49448969489053,-0.18371074399620252,South Kensington,878.2667352543123,51.49408964921556,-0.17314093551479268,Earl's Court,953.8459590682356,51.49198553743163,-0.1931516639864181,High Street Kensington,1349.4904124918583,51.500446270423694,-0.19218216927430254,West Brompton,1436.6322570792129,51.48728046887337,-0.1955480708404167,588.6852129662518,0.012208579043803767,3,0.6666666666666667,0.33943762285523527
51.45725012894592,-0.1841931490247982,East Putney,2440.761429452126,51.45914982307664,-0.2110399264406896,Southfields,2684.480358747724,51.44507974989173,-0.20662949274631476,Putney Bridge,2726.6257351480435,51.468255977268214,-0.2087033152868412,Parsons Green,3014.873362722925,51.47498606823488,-0.2017397326871696,Clapham South,3393.242958013743,51.45323750844449,-0.14718699803775498,2816.3212043879566,0.07543111221178805,2,0.8333333333333334,0.4543822227725607
51.58169201627298,-0.0926346954372717,Turnpike Lane,1548.019458769147,51.590254789519385,-0.10294685906251815,Manor House,1611.3374057442688,51.570753556351,-0.09603915207846561,Seven Sisters,1832.1595728149632,51.58339989538407,-0.07248488928732598,Wood Green,2758.458310101173,51.59747402372348,-0.10983386762894175,Finsbury Park,2779.429486333706,51.564572648553515,-0.10665342330316399,1972.6195748758892,0.051486017743429154,2,0.8333333333333334,0.4424096755383813
51.580497680478175,-0.0205173272139089,Walthamstow Central,389.4355880501271,51.583121461554015,-0.02149009721696701,Blackhorse Road,2122.9868946033944,51.58684229409946,-0.041768161396529516,Leytonstone,3130.792609079288,51.56832221916004,0.008210470401397503,Leyton,3712.1540139088866,51.55660540139774,-0.005459613057395526,Tottenham Hale,3732.8880617624122,51.58805045886335,-0.060139591063478465,1283.5205487577468,0.031928699491008926,2,0.8333333333333334,0.43263101641217117
51.517595501089886,-0.0232458946852674,DEVONS ROAD - DLR,877.1374681133472,51.52246627159237,-0.017451963855542985,LANGDON PARK - DLR,902.0272337291937,51.51508019962456,-0.014097500105968193,WESTFERRY - DLR,1215.4001408232643,51.50950472196647,-0.02689269973073619,ALL SAINTS - DLR,1322.697755688931,51.511024538643504,-0.013048862135469543,Bow Road,1357.374452085336,51.52690410757654,-0.025175873417555176,1095.4804476563606,0.026591933711243354,3,0.6666666666666667,0.34662930018895505
51.54331663669528,0.049977824333976,East Ham,621.8980528596553,51.53940799877854,0.05285335494738618,Manor Park,1349.4143404888957,51.5521985051404,0.04539047874751819,Upton Park,1756.2360463213558,51.535381114708535,0.035237134317064586,Forest Gate,2522.1420950040547,51.54923382053423,0.023665990638303193,Barking,2770.998869216216,51.539886123317935,0.0802089530468054,1360.243880519071,0.034106184235247965,3,0.6666666666666667,0.35038642545095733
51.491356794682304,-0.0675970576412269,Bermondsey,963.93103602174,51.49770348003495,-0.06433321766482115,Canada Water,1853.5807413550765,51.497921984959426,-0.04996098075543696,Borough,2720.410235373098,51.501192691784105,-0.093287413867766,Tower Hill,2805.810539938154,51.50994649895624,-0.07650026770114257,London Bridge,2807.6616803387997,51.50506641773977,-0.08962285051859702,1881.7663053584176,0.04890751126049955,4,0.5,0.27445375563024976
51.5520494712341,0.0647951197179978,Ilford,1074.0850562955666,51.55901703762676,0.06892040799865062,Manor Park,1749.6328114822202,51.5521985051404,0.04539047874751819,East Ham,2121.734965503292,51.53940799877854,0.05285335494738618,Barking,2241.8708006570973,51.539886123317935,0.0802089530468054,Seven Kings,3305.3173729711225,51.56394849951275,0.096099334795915,1836.5576110885395,0.047624443387667026,3,0.6666666666666667,0.3571455550271669
51.45657377120254,-0.1410376058852114,Clapham South,735.8129341485278,51.45323750844449,-0.14718699803775498,Clapham Common,887.0400031514812,51.46221120939256,-0.13716717677773801,Clapham North,1694.442056997767,51.46573033892738,-0.12933358122662442,Balham,2146.772992836309,51.44362772683046,-0.1526657783980393,Brixton,2522.882244940791,51.46266775315543,-0.11486935481082039,1269.4420775895398,0.031529138425460505,2,0.8333333333333334,0.4324312358793969
51.46556055815221,-0.1406724005454612,Clapham Common,578.6469662796521,51.46221120939256,-0.13716717677773801,Clapham North,1024.4644415570067,51.46573033892738,-0.12933358122662442,Stockwell,1834.2867198392673,51.47182927610112,-0.123016885349951,Clapham South,1876.6839569739632,51.45323750844449,-0.14718699803775498,Battersea Power Station,2027.168780205154,51.479476819200244,-0.14337610628255198,1169.4227233981333,0.028690489309466084,2,0.8333333333333334,0.4310119113213997
51.48398718866214,-0.1687285419737132,South Kensington,1514.2256214167194,51.49408964921556,-0.17314093551479268,Sloane Square,1647.727949580949,51.492337989718926,-0.1563109875356802,Gloucester Road,2033.706854651324,51.49448969489053,-0.18371074399620252,Battersea Power Station,2380.2169016340863,51.479476819200244,-0.14337610628255198,Fulham Broadway,2394.495656673378,51.48076858389101,-0.19474266104252827,1925.4711152969473,0.05014789739476006,4,0.5,0.27507394869738006
51.41970114466602,-0.0850035638530758,Brixton,6774.216619123489,51.46266775315543,-0.11486935481082039,Balham,7026.980222563101,51.44362772683046,-0.1526657783980393,Tooting Bec,7105.305161383076,51.435899341737425,-0.1592083111530278,Clapham South,7423.366049362602,51.45323750844449,-0.14718699803775498,Tooting Broadway,7624.223627155872,51.427675722454374,-0.16836472055651,7178.36164249774,0.19923017424008596,2,0.8333333333333334,0.5162817537867097
51.52682351984289,-0.0372627588106815,Mile End,391.9519254390017,51.52523624361827,-0.033740882967349194,Bow Road,1090.3645175730314,51.52690410757654,-0.025175873417555176,Stepney Green,1103.917578514027,51.52186290860425,-0.04656403435941572,BOW CHURCH - DLR,1492.4674774466112,51.52766649951704,-0.020772671454633313,Bethnal Green,1570.7720873832302,51.52723886838864,-0.05466345424549399,880.1292995289296,0.02048005315370185,4,0.5,0.2602400265768509
51.51783736893052,-0.0376491164382725,LIMEHOUSE - DLR,820.235322984963,51.51230947342043,-0.03968502529467449,Stepney Green,992.8822408062103,51.52186290860425,-0.04656403435941572,Mile End,1126.5704844644235,51.52523624361827,-0.033740882967349194,WESTFERRY - DLR,1547.2807154581355,51.50950472196647,-0.02689269973073619,Bow Road,1727.808686559333,51.52690410757654,-0.025175873417555176,1152.3276258546791,0.028205313376049253,4,0.5,0.26410265668802463
51.56228168360443,-0.006880736465361,Leyton,830.8178149052424,51.55660540139774,-0.005459613057395526,Leytonstone,1616.5851983617492,51.56832221916004,0.008210470401397503,STRATFORD INTERNATIONAL - DLR,2531.4966250672005,51.54484877107612,-0.009426193778977777,Maryland,2628.1203547154496,51.54597754246028,0.005995874714128158,Stratford,3024.3789462032787,51.541458210643015,-0.003776950428858115,1707.4223239414916,0.04395945502949237,4,0.5,0.2719797275147462
51.56078035788046,0.0796180868851305,Ilford,997.4812972916101,51.55901703762676,0.06892040799865062,Seven Kings,1554.6651924992436,51.56394849951275,0.096099334795915,Newbury Park,2350.851773438466,51.57570671131438,0.08994710104866553,Gants Hill,2578.7472792445565,51.57653618620388,0.06622053509738708,Goodmayes,2995.2555018859607,51.5657880265678,0.11186181352036285,1790.3342242542785,0.04631257752694328,2,0.8333333333333334,0.43982295543013833
51.49614820197061,-0.3843372095179053,Southall,1586.2878607716855,51.50614613228283,-0.3771035436303124,Hounslow West,3260.351053155439,51.47361871639353,-0.385772979713366,Hayes & Harlington,3313.8343711186617,51.50303723137112,-0.41935690170324563,Osterley,3614.1404518244585,51.481243488531945,-0.35219948980178173,Hounslow Central,3943.285197640133,51.47131964602911,-0.36627277395717445,2826.1841978979146,0.07571103381330652,2,0.8333333333333334,0.45452218357331997
51.46463375605232,-0.0831230407371134,Brixton,2881.7092679596963,51.46266775315543,-0.11486935481082039,Oval,3629.2602086480274,51.481838396899654,-0.11238107063105886,Stockwell,3750.45639528584,51.47182927610112,-0.123016885349951,Kennington,3999.836663072754,51.48834108236874,-0.10594020447433074,Clapham North,4177.051238542184,51.46573033892738,-0.12933358122662442,3626.86184334119,0.0984350646652206,2,0.8333333333333334,0.46588419899927697
51.552802548338256,0.0215545264833928,Forest Gate,550.0858614239206,51.54923382053423,0.023665990638303193,Maryland,1715.2925913874278,51.54597754246028,0.005995874714128158,Manor Park,2150.7975706484704,51.5521985051404,0.04539047874751819,Leyton,2496.7500891124805,51.55660540139774,-0.005459613057395526,Leytonstone,2546.401651184743,51.56832221916004,0.008210470401397503,1366.469516451192,0.03428287399772533,2,0.8333333333333334,0.43380810366552935
51.50240726862682,-0.1968072942032087,High Street Kensington,504.6420075386792,51.500446270423694,-0.19218216927430254,Notting Hill Gate,978.3969779920184,51.509157370677286,-0.196065916550476,Holland Park,1051.7815963326518,51.50715487958452,-0.20563658908430407,Kensington (Olympia),1377.2766563964235,51.49773658225347,-0.2101063793267533,Queensway,1432.6618059513198,51.51025356764707,-0.1871140776304558,929.6233323424754,0.021884743212230957,3,0.6666666666666667,0.34427570493944887
51.542809439306616,0.078798587060887,Barking,441.4829308431097,51.539886123317935,0.0802089530468054,Upney,2153.1259109444813,51.53835560347559,0.10158060702967472,East Ham,2390.903544204438,51.53940799877854,0.05285335494738618,Ilford,2507.424874815395,51.55901703762676,0.06892040799865062,Manor Park,3304.212949009892,51.5521985051404,0.04539047874751819,1298.9558101633575,0.03236676761790695,3,0.6666666666666667,0.3495167171422868
51.5729391337718,-0.1074321178855674,Manor House,1074.2353103346957,51.570753556351,-0.09603915207846561,Finsbury Park,1211.9331002537456,51.564572648553515,-0.10665342330316399,Arsenal,2071.040608471619,51.558618236881735,-0.10725918161736345,Turnpike Lane,2536.4988998728186,51.590254789519385,-0.10294685906251815,Archway,2767.579837664416,51.564540856812656,-0.1350261547508563,1669.7598526177358,0.04289055649686687,3,0.6666666666666667,0.3547786115817668
51.55632901179597,-0.1946755384342939,West Hampstead,1436.6619741310908,51.546804104148165,-0.19014461999570487,Hampstead,1458.8026728600967,51.55659225238286,-0.17849793364354744,Kilburn,1628.6694396504527,51.54695520739804,-0.20469009526410165,Finchley Road,1798.7246779860686,51.54723304699958,-0.18106642213608887,Golders Green,2308.744910855867,51.572288875812,-0.19399749568271848,1675.2467299526652,0.04304627955289221,3,0.6666666666666667,0.35485647310977947
51.45269844211907,0.0890955993022278,WOOLWICH ARSENAL - DLR,5692.735582123128,51.489985357998016,0.0688912148850038,Woolwich,5839.919910858706,51.491668236437704,0.07214595050906773,Abbey Wood,6235.571713632753,51.491074357645864,0.12057216047674105,KING GEORGE V - DLR,7532.284060317926,51.50202586586268,0.06231897937750261,LONDON CITY AIRPORT - DLR,8245.643771421188,51.50366796473086,0.048170955147335826,6567.661983871608,0.18189790829903965,2,0.8333333333333334,0.5076156208161865
51.50327871637559,-0.2544078430364184,Turnham Green,1203.1634689735088,51.494958689122086,-0.2545275752571731,Stamford Brook,1428.3554463702915,51.49491901447832,-0.24597832114672852,Chiswick Park,1783.042956260052,51.49466825400271,-0.2685489968417927,East Acton,2034.7415164218855,51.516598790970214,-0.24713925086544353,Ravenscourt Park,2137.908009806122,51.494168694143745,-0.23575227913466715,1638.6474466676516,0.04200755535813072,3,0.6666666666666667,0.35433711101239873
51.60360002232223,-0.351645736368326,Harrow & Wealdstone,2252.895818939141,51.592045896748125,-0.3348639494005961,North Harrow,2871.2049803785644,51.58494912254143,-0.36258290453469627,Pinner,3079.2315936305017,51.592828064261916,-0.3811403328062982,West Harrow,3478.0785091158095,51.57956835045778,-0.3532684142764812,Harrow-on-the-Hill,3746.201618724656,51.57941628030986,-0.3367300744303407,2991.562369947894,0.08040463142438548,2,0.8333333333333334,0.4568689823788594
51.49206051098262,-0.1107836336674348,Kennington,693.169000633787,51.48834108236874,-0.10594020447433074,Lambeth North,989.2641363468947,51.49884347246329,-0.11220756213772885,Elephant & Castle,1026.1625655549524,51.49583866247047,-0.10116094487967293,Oval,1485.2342165339905,51.481838396899654,-0.11238107063105886,Vauxhall,1522.9640613210665,51.485698419511635,-0.12422721164969706,1050.8804237058232,0.02532614050967717,3,0.6666666666666667,0.34599640358817196
51.54756295930543,-0.2094453231781762,Kilburn,437.65617725253486,51.54695520739804,-0.20469009526410165,Willesden Green,1222.7200484476862,51.54937464364035,-0.22269210604112535,West Hampstead,1743.6498225814396,51.546804104148165,-0.19014461999570487,Queen's Park,1992.741524885578,51.533980102591585,-0.20571712125706945,Kilburn Park,2295.196571001482,51.53494947143909,-0.1939956564604581,1083.7122789403372,0.0262579413355409,2,0.8333333333333334,0.42979563733443715
51.44758696852954,-0.141402622203702,Clapham South,969.9561519671549,51.45323750844449,-0.14718699803775498,Balham,1167.7676123985962,51.44362772683046,-0.1526657783980393,Clapham Common,2149.1208836655433,51.46221120939256,-0.13716717677773801,Tooting Bec,2333.597287263903,51.435899341737425,-0.1592083111530278,Clapham North,2841.2300847320075,51.46573033892738,-0.12933358122662442,1595.864069472611,0.040793320404948104,1,1.0,0.5203966602024741
51.58948364225039,-0.0201267225024175,Walthamstow Central,928.2694815292534,51.583121461554015,-0.02149009721696701,Blackhorse Road,1986.5694732192082,51.58684229409946,-0.041768161396529516,Tottenham Hale,3610.340160807769,51.58805045886335,-0.060139591063478465,Snaresbrook,3953.70688476393,51.58067843566125,0.021420000139433203,Leytonstone,3985.551656520878,51.56832221916004,0.008210470401397503,2117.3257522021513,0.05559292350848775,2,0.8333333333333334,0.44446312842091057
51.46510068596563,-0.1118973365028351,Brixton,442.5512706894537,51.46266775315543,-0.11486935481082039,Stockwell,1398.3444728373863,51.47182927610112,-0.123016885349951,Clapham North,1577.5646832249781,51.46573033892738,-0.12933358122662442,Clapham Common,2320.5306495979107,51.46221120939256,-0.13716717677773801,Oval,2420.8227132519974,51.481838396899654,-0.11238107063105886,1122.9233626690313,0.02737079103411658,2,0.8333333333333334,0.43035206218372496
51.5715117027414,-0.0209077293084521,Walthamstow Central,1679.7955008766564,51.583121461554015,-0.02149009721696701,Leyton,2566.2674949924963,51.55660540139774,-0.005459613057395526,Leytonstone,2664.434593505531,51.56832221916004,0.008210470401397503,Blackhorse Road,2906.5079977840487,51.58684229409946,-0.041768161396529516,STRATFORD INTERNATIONAL - DLR,3992.3675761649674,51.54484877107612,-0.009426193778977777,2557.7683271525943,0.06809312345615746,3,0.6666666666666667,0.3673798950614121
51.562035887922114,0.0075362521852468,Leytonstone,911.143826364872,51.56832221916004,0.008210470401397503,Leyton,1410.398906497376,51.55660540139774,-0.005459613057395526,Maryland,2326.455947093883,51.54597754246028,0.005995874714128158,Forest Gate,2354.157977325228,51.54923382053423,0.023665990638303193,Wanstead,2733.1427854244826,51.575602965168954,0.02864730241085162,1651.7793529147855,0.04238025196631329,2,0.8333333333333334,0.43785679264982336
51.3842203587698,-0.115228087415326,Colliers Wood,7507.278214762956,51.418159079977876,-0.17803308894654438,Morden,7664.606318680302,51.40253724508803,-0.19473027219670863,Tooting Broadway,7911.067752000371,51.427675722454374,-0.16836472055651,South Wimbledon,8345.396970043194,51.41498850026229,-0.19328192113707632,Tooting Bec,8465.694617966377,51.435899341737425,-0.1592083111530278,7961.410301452929,0.22145387685738138,1,1.0,0.6107269384286906
51.57340077503303,-0.1362751456604994,Highgate,1119.2168885699193,51.57784658975153,-0.14644230428628777,Archway,1286.190116940222,51.564540856812656,-0.1350261547508563,Tufnell Park,2401.826270155779,51.55684688165748,-0.1384398274315375,Finsbury Park,2959.0962250078846,51.564572648553515,-0.10665342330316399,East Finchley,3265.56774398128,51.58715662440678,-0.1650189133944944,1830.5039454131052,0.04745263431274327,3,0.6666666666666667,0.357059650489705
51.54778205508886,-0.2238595375798032,Willesden Green,253.20954642951267,51.54937464364035,-0.22269210604112535,Dollis Hill,1494.3300604735737,51.551964185681975,-0.23901638523553653,Kilburn,1732.4777690130404,51.54695520739804,-0.20469009526410165,Kensal Green,2489.0302428690215,51.5305735728437,-0.22445465030672695,Queen's Park,2580.6894931699803,51.533980102591585,-0.20571712125706945,835.4276667241076,0.019211376191420312,2,0.8333333333333334,0.42627235476237685
51.59966468877837,-0.0918817129195788,Wood Green,1647.6041748484483,51.59747402372348,-0.10983386762894175,Turnpike Lane,1686.7816406680518,51.590254789519385,-0.10294685906251815,Seven Sisters,2930.026513382292,51.58339989538407,-0.07248488928732598,Bounds Green,3110.8605484675404,51.60706647717479,-0.12431690931299394,Tottenham Hale,3315.9175445878764,51.58805045886335,-0.060139591063478465,2310.4177343223055,0.06107306671459213,2,0.8333333333333334,0.44720320002396274
51.53722464685698,-0.1233336785621886,King's Cross St. Pancras,1083.0969120174718,51.52978710018642,-0.12475052978005514,Mornington Crescent,1434.9608844800746,51.53470697367115,-0.13872430086651955,Euston,1665.4812084670164,51.52808646670192,-0.13457316781860326,Caledonian Road,1692.6212334738304,51.54852596233329,-0.11844747007964432,Camden Town,1761.334334060632,51.53923273585449,-0.14259744968174543,1479.6665981136964,0.03749552017397932,6,0.16666666666666663,0.10208109342032298
51.59989839058653,-0.1063114649706054,Wood Green,472.8309719956599,51.59747402372348,-0.10983386762894175,Turnpike Lane,1427.1409302132972,51.590254789519385,-0.10294685906251815,Bounds Green,1924.4787105317253,51.60706647717479,-0.12431690931299394,Arnos Grove,3393.6116557657856,51.616455185489194,-0.13301987853029287,Seven Sisters,3869.950034932244,51.58339989538407,-0.07248488928732598,1285.9036716953046,0.03199633489892267,2,0.8333333333333334,0.432664834116128
51.538575954856135,-0.209798055861767,Queen's Park,759.6956027588049,51.533980102591585,-0.20571712125706945,Kilburn,1296.277103356569,51.54695520739804,-0.20469009526410165,Kilburn Park,1518.5353545276598,51.53494947143909,-0.1939956564604581,Kensal Green,1756.779979602428,51.5305735728437,-0.22445465030672695,Willesden Green,1946.8545279668242,51.54937464364035,-0.22269210604112535,1305.7700010389722,0.032560161157204,2,0.8333333333333334,0.43294674724526866
51.49274833217497,-0.1539719418649041,Sloane Square,219.32583535902083,51.492337989718926,-0.1563109875356802,Victoria,1117.3763209791373,51.49640213408183,-0.14306463520033438,Knightsbridge,1401.197978704271,51.501242419344685,-0.16144167367807052,Hyde Park Corner,1446.7927986818734,51.502752822369175,-0.15412506985660604,South Kensington,1741.2012516085247,51.49408964921556,-0.17314093551479268,672.6256666532776,0.014590892912766124,4,0.5,0.2572954464563831
51.51948094964586,-0.1384771918169203,Goodge Street,408.86985542014844,51.52060354235549,-0.13431760526600453,Oxford Circus,664.4372377019225,51.51532129085606,-0.14160538350234023,Warren Street,730.1206275755353,51.524528909457494,-0.13831645744152898,Tottenham Court Road,789.4942749036333,51.51532907518833,-0.13279502264105517,Great Portland Street,819.485131869856,51.52384821061523,-0.144265756453953,640.4223481081979,0.013676930585583539,7,0.0,0.006838465292791769
51.5379082620969,-0.1665650245722165,St. John's Wood,785.5699015021839,51.53520692691539,-0.17412259638664518,Swiss Cottage,1121.0354177736242,51.543707571353366,-0.1748146844405925,Chalk Farm,1524.1087429804816,51.54386058053523,-0.15261667760159073,Belsize Park,1804.7530726858174,51.55032802178578,-0.16459558981350675,Finchley Road,1878.347238860353,51.54723304699958,-0.18106642213608887,1279.5610000992854,0.03181632354747335,3,0.6666666666666667,0.34924149510707003
51.501047087758,-0.1104120146374312,Lambeth North,357.5027324172196,51.49884347246329,-0.11220756213772885,Waterloo,498.0391327532965,51.503426597300624,-0.11440137433854106,Southwark,653.2094234133698,51.50428895407712,-0.10537192376614549,Elephant & Castle,1124.514474064921,51.49583866247047,-0.10116094487967293,Westminster,1373.8723328454003,51.50096556953619,-0.12563362390059174,628.6856136283453,0.013343830344882754,6,0.16666666666666663,0.0900052485057747
51.50057956005311,-0.0816151132675976,London Bridge,971.246065917487,51.50506641773977,-0.08962285051859702,Borough,1057.2151032285365,51.501192691784105,-0.093287413867766,Tower Hill,1431.0559065023144,51.50994649895624,-0.07650026770114257,Monument,1521.1184056856255,51.51072118598294,-0.08608780452629167,TOWER GATEWAY - DLR,1582.595256358971,51.51062271552741,-0.0746485617990705,1261.4935500775348,0.0313035512800743,5,0.33333333333333337,0.18231844230670383
51.54479577387247,-0.0364894424571342,STRATFORD INTERNATIONAL - DLR,2440.3237378198846,51.54484877107612,-0.009426193778977777,PUDDING MILL LANE - DLR,2546.3164879366163,51.534196770231574,-0.013942896998014478,Bow Road,2781.3441343748746,51.52690410757654,-0.025175873417555176,Mile End,2839.4421104704943,51.52523624361827,-0.033740882967349194,BOW CHURCH - DLR,2854.0503711437505,51.52766649951704,-0.020772671454633313,2681.532588545127,0.07160567674180746,4,0.5,0.2858028383709037
51.58025349878085,-0.0060944555338717,Walthamstow Central,1447.7833986372914,51.583121461554015,-0.02149009721696701,Leytonstone,2153.8121473460774,51.56832221916004,0.008210470401397503,Snaresbrook,2479.914496352378,51.58067843566125,0.021420000139433203,Wanstead,3201.9318137701002,51.575602965168954,0.02864730241085162,Blackhorse Road,3352.165209235407,51.58684229409946,-0.041768161396529516,2305.3480284063226,0.0609291833998767,2,0.8333333333333334,0.44713125836660506
51.4554112294826,-0.0691155005225102,Brixton,4264.4873279930125,51.46266775315543,-0.11486935481082039,DEPTFORD BRIDGE - DLR,5024.118185747413,51.474302836694164,-0.02243708367150416,ELVERSON ROAD - DLR,5138.44491973983,51.46869622022829,-0.016358693464723607,LEWISHAM - DLR,5189.684007908418,51.4656534958191,-0.014057517109202628,Stockwell,5416.901207835029,51.47182927610112,-0.123016885349951,4972.930164029104,0.13663782731530308,3,0.6666666666666667,0.4016522469909849
51.50010496604219,-0.0528189939832753,Canada Water,407.6802497549329,51.497921984959426,-0.04996098075543696,Bermondsey,1095.7611479263485,51.49770348003495,-0.06433321766482115,SHADWELL - DLR,1712.435470892414,51.51169380098595,-0.05671793465551515,LIMEHOUSE - DLR,2125.98660487176,51.51230947342043,-0.03968502529467449,TOWER GATEWAY - DLR,2488.884823217901,51.51062271552741,-0.0746485617990705,1036.993668365096,0.024932020530692413,2,0.8333333333333334,0.4291326769320129
51.42984031477884,-0.1565086234894374,Tooting Bec,909.5110899228348,51.435899341737425,-0.1592083111530278,Tooting Broadway,1116.5087842989528,51.427675722454374,-0.16836472055651,Balham,2023.7482534872695,51.44362772683046,-0.1526657783980393,Colliers Wood,2576.774697734861,51.418159079977876,-0.17803308894654438,Clapham South,3486.660055819719,51.45323750844449,-0.14718699803775498,1580.1967624770502,0.04034866659256844,1,1.0,0.5201743332962843
51.608884777953776,-0.1059375260727147,Bounds Green,1675.744345130236,51.60706647717479,-0.12431690931299394,Wood Green,1687.0665386798792,51.59747402372348,-0.10983386762894175,Arnos Grove,2672.8845123908377,51.616455185489194,-0.13301987853029287,Turnpike Lane,2707.5896460551635,51.590254789519385,-0.10294685906251815,Southgate,3908.875988380441,51.632261218475584,-0.12773657427020435,2284.37505135209,0.060333949374861535,1,1.0,0.5301669746874308
51.43006555120089,-0.1708853458647161,Tooting Broadway,413.93546923411367,51.427675722454374,-0.16836472055651,Tooting Bec,1351.1504098022858,51.435899341737425,-0.1592083111530278,Colliers Wood,1838.9858454528367,51.418159079977876,-0.17803308894654438,Balham,2560.779356281982,51.44362772683046,-0.1526657783980393,Wimbledon Park,2611.3760971445568,51.43405489769917,-0.19906206857886732,1117.7756618669193,0.02722469414667462,2,0.8333333333333334,0.430279013740004
51.46486810319728,-0.097510091855764,Brixton,1600.016960862194,51.46266775315543,-0.11486935481082039,Stockwell,2514.090591446958,51.47182927610112,-0.123016885349951,Oval,2797.49348865595,51.481838396899654,-0.11238107063105886,Clapham North,2877.192295815015,51.46573033892738,-0.12933358122662442,Kennington,3478.721490999974,51.48834108236874,-0.10594020447433074,2481.0973162508176,0.06591712363014153,2,0.8333333333333334,0.44962522848173747
51.58215734894111,-0.1214830198367541,Turnpike Lane,2039.590823539572,51.590254789519385,-0.10294685906251815,Highgate,2333.6249447676105,51.57784658975153,-0.14644230428628777,Wood Green,2451.0352193378067,51.59747402372348,-0.10983386762894175,Manor House,2824.1510778812194,51.570753556351,-0.09603915207846561,Archway,2824.8208990678613,51.564540856812656,-0.1350261547508563,2457.127284475446,0.0652368302003389,2,0.8333333333333334,0.4492850817668361
51.44546332567648,-0.0119717409276296,LEWISHAM - DLR,2925.827421154897,51.4656534958191,-0.014057517109202628,ELVERSON ROAD - DLR,3383.064900244568,51.46869622022829,-0.016358693464723607,DEPTFORD BRIDGE - DLR,4276.366175764332,51.474302836694164,-0.02243708367150416,GREENWICH - DLR,4725.1646427755395,51.47812532354829,-0.013428987645855905,CUTTY SARK - DLR,5237.073713419701,51.48167337063602,-0.011056580657622243,3925.2747710383683,0.1069043214431421,1,1.0,0.553452160721571
51.49297407340445,-0.1683684227001075,South Kensington,460.0224971333535,51.49408964921556,-0.17314093551479268,Sloane Square,1092.309386281069,51.492337989718926,-0.1563109875356802,Knightsbridge,1349.253496941538,51.501242419344685,-0.16144167367807052,Gloucester Road,1402.1568119697954,51.49448969489053,-0.18371074399620252,Hyde Park Corner,1911.1114223853722,51.502752822369175,-0.15412506985660604,986.7983043729245,0.023507425993212004,3,0.6666666666666667,0.34508704632993936
51.42773388813174,-0.0271267198054072,LEWISHAM - DLR,5609.356064150548,51.4656534958191,-0.014057517109202628,ELVERSON ROAD - DLR,6003.016922920382,51.46869622022829,-0.016358693464723607,DEPTFORD BRIDGE - DLR,6747.720680702319,51.474302836694164,-0.02243708367150416,GREENWICH - DLR,7391.538679778159,51.47812532354829,-0.013428987645855905,CUTTY SARK - DLR,7934.257003924359,51.48167337063602,-0.011056580657622243,6627.957158076078,0.18360914553245256,1,1.0,0.5918045727662262
51.49182770493204,-0.0963879139123157,Elephant & Castle,722.5436654658587,51.49583866247047,-0.10116094487967293,Kennington,998.9306802282871,51.48834108236874,-0.10594020447433074,Borough,1382.876878607355,51.501192691784105,-0.093287413867766,Lambeth North,1751.701412565513,51.49884347246329,-0.11220756213772885,Southwark,1976.0691849374791,51.50428895407712,-0.10537192376614549,1194.706377047623,0.029408064639375578,3,0.6666666666666667,0.3480373656530212
51.49407628338843,-0.2403535968250384,Ravenscourt Park,415.556000474492,51.494168694143745,-0.23575227913466715,Stamford Brook,522.1379212473742,51.49491901447832,-0.24597832114672852,Turnham Green,1285.7617680092926,51.494958689122086,-0.2545275752571731,Hammersmith (H&C Line),1395.0251425961048,51.49378497307084,-0.22490610415709966,Hammersmith (Dist&Picc Line),1593.3306046222674,51.49200046267627,-0.2230186338960408,775.9378000874996,0.01752299439067937,3,0.6666666666666667,0.34209483052867307
51.46439764458637,-0.0687361846059235,Brixton,4174.741075538387,51.46266775315543,-0.11486935481082039,DEPTFORD BRIDGE - DLR,4420.266972970902,51.474302836694164,-0.02243708367150416,Oval,4679.4327432840155,51.481838396899654,-0.11238107063105886,ELVERSON ROAD - DLR,4771.709925483177,51.46869622022829,-0.016358693464723607,Kennington,4824.507677955051,51.48834108236874,-0.10594020447433074,4560.749120182011,0.1249397178323413,3,0.6666666666666667,0.395803192249504
51.44781411250938,-0.1557847951252186,Balham,667.7717575453099,51.44362772683046,-0.1526657783980393,Clapham South,1103.8802459314054,51.45323750844449,-0.14718699803775498,Tooting Bec,1750.4927701657923,51.435899341737425,-0.1592083111530278,Clapham Common,2676.49787800288,51.46221120939256,-0.13716717677773801,Tooting Broadway,3126.170367104373,51.427675722454374,-0.16836472055651,1363.0724844271203,0.0341864628378044,1,1.0,0.5170932314189022
51.57102172482661,0.0079321294120901,Leytonstone,391.2021092365434,51.56832221916004,0.008210470401397503,Snaresbrook,1851.4326669720222,51.58067843566125,0.021420000139433203,Wanstead,1980.9190867139953,51.575602965168954,0.02864730241085162,Leyton,2409.092972718602,51.55660540139774,-0.005459613057395526,Walthamstow Central,3176.547415900157,51.583121461554015,-0.02149009721696701,1154.450981365699,0.02826557632508573,2,0.8333333333333334,0.43079945482920956
51.57126759919002,-0.0064876979738734,Leytonstone,1391.4481867178565,51.56832221916004,0.008210470401397503,Leyton,2122.419653144855,51.55660540139774,-0.005459613057395526,Walthamstow Central,2183.1311319340166,51.583121461554015,-0.02149009721696701,Snaresbrook,2859.5392937117404,51.58067843566125,0.021420000139433203,Wanstead,3227.77996571317,51.575602965168954,0.02864730241085162,2166.9309198800092,0.05700076768540611,2,0.8333333333333334,0.4451670505093697
51.53922772370509,-0.2530327327980945,Harlesden,618.5649759161479,51.53670018373658,-0.25856671093683925,Willesden Junction,1248.4307440504474,51.53240548064696,-0.24454944180503846,Neasden,2204.687467725554,51.55442856977583,-0.25114679891952135,Stonebridge Park,2229.824671580079,51.5441943356176,-0.2764435319759384,Dollis Hill,2233.6096716681473,51.551964185681975,-0.23901638523553653,1327.1748156987114,0.03316765116454413,2,0.8333333333333334,0.43325049224893875
51.555655580472326,-0.151426044479937,Tufnell Park,1183.2477670865453,51.55684688165748,-0.1384398274315375,Kentish Town,1237.6636087948075,51.550296304938385,-0.140722210399805,Belsize Park,1415.304594751099,51.55032802178578,-0.16459558981350675,Chalk Farm,1709.036629016981,51.54386058053523,-0.15261667760159073,Archway,1958.6103774950545,51.564540856812656,-0.1350261547508563,1447.0279641496186,0.036569203160653166,1,1.0,0.5182846015803266
51.48260668973305,-0.0823694675105803,Kennington,2283.9628484193036,51.48834108236874,-0.10594020447433074,Elephant & Castle,2557.223670409759,51.49583866247047,-0.10116094487967293,Oval,2712.098811960682,51.481838396899654,-0.11238107063105886,Bermondsey,2723.497232643971,51.49770348003495,-0.06433321766482115,Borough,2862.734448721288,51.501192691784105,-0.093287413867766,2612.2018416892665,0.0696380009368128,3,0.6666666666666667,0.3681523338017398
51.49063718477817,-0.0244122532609847,MUDCHUTE - DLR,849.9580749073441,51.49088632239823,-0.015005815070749464,CROSSHARBOUR - DLR,1178.090150642525,51.49590414614073,-0.014456210976585209,ISLAND GARDENS - DLR,1312.3239289941519,51.488057595407675,-0.010476000802058107,SOUTH QUAY - DLR,1522.8425958052073,51.5006124753315,-0.01900629922288873,CUTTY SARK - DLR,1770.436866453578,51.48167337063602,-0.011056580657622243,1247.235469856316,0.03089889273030717,1,1.0,0.5154494463651536
51.47168132287454,0.032365497847011,CUTTY SARK - DLR,4179.1192226314915,51.48167337063602,-0.011056580657622243,WOOLWICH ARSENAL - DLR,4229.059353569719,51.489985357998016,0.0688912148850038,GREENWICH - DLR,4239.4380926928,51.47812532354829,-0.013428987645855905,LEWISHAM - DLR,4282.682630755691,51.4656534958191,-0.014057517109202628,ELVERSON ROAD - DLR,4421.864376470536,51.46869622022829,-0.016358693464723607,4268.863803611339,0.11665572117435971,1,1.0,0.5583278605871799
51.53768215944319,-0.1521543866920328,Camden Town,890.5351550820378,51.53923273585449,-0.14259744968174543,Chalk Farm,894.4220488638776,51.54386058053523,-0.15261667760159073,Mornington Crescent,1285.3407647032016,51.53470697367115,-0.13872430086651955,St. John's Wood,2013.24541298749,51.53520692691539,-0.17412259638664518,Kentish Town,2095.216920434101,51.550296304938385,-0.140722210399805,1252.2062319745587,0.031039967921272362,2,0.8333333333333334,0.4321866506273029
51.54306392241036,0.0643883111298532,East Ham,1166.8765854688438,51.53940799877854,0.05285335494738618,Barking,1498.8931772403344,51.539886123317935,0.0802089530468054,Manor Park,2163.1877130878033,51.5521985051404,0.04539047874751819,Ilford,2343.0227407866523,51.55901703762676,0.06892040799865062,Upton Park,2854.1401297004563,51.535381114708535,0.035237134317064586,1809.2371702892324,0.046849062005228606,3,0.6666666666666667,0.3567578643359477
51.43927607543876,-0.1849060700856464,Wimbledon Park,1485.567108852777,51.43405489769917,-0.19906206857886732,Southfields,2134.9858508164425,51.44507974989173,-0.20662949274631476,Tooting Broadway,2247.0529612934583,51.427675722454374,-0.16836472055651,Tooting Bec,2373.2864121459947,51.435899341737425,-0.1592083111530278,Balham,2980.7351698451466,51.44362772683046,-0.1526657783980393,2133.6497069364727,0.05605621363919023,2,0.8333333333333334,0.4446947734862618
51.42938455496237,-0.1277557417312457,Tooting Bec,2995.007635371722,51.435899341737425,-0.1592083111530278,Balham,3051.4047649858326,51.44362772683046,-0.1526657783980393,Tooting Broadway,3679.243950077516,51.427675722454374,-0.16836472055651,Clapham South,3870.575908899152,51.45323750844449,-0.14718699803775498,Clapham Common,4822.5505904525835,51.46221120939256,-0.13716717677773801,3573.6736420570323,0.09692553041780212,1,1.0,0.548462765208901
51.48864053477476,0.0907382636143043,Woolwich,1734.6918427613211,51.491668236437704,0.07214595050906773,WOOLWICH ARSENAL - DLR,1981.9596141212044,51.489985357998016,0.0688912148850038,Abbey Wood,2716.34050320582,51.491074357645864,0.12057216047674105,KING GEORGE V - DLR,3213.800966407305,51.50202586586268,0.06231897937750261,GALLIONS REACH - DLR,3402.9454028092446,51.508981284149876,0.07178457988924161,2434.0543079981417,0.06458199609537836,2,0.8333333333333334,0.4489576647143559
51.58192556849525,-0.1070587607440476,Turnpike Lane,1260.2107347634299,51.590254789519385,-0.10294685906251815,Manor House,1896.3334593695438,51.570753556351,-0.09603915207846561,Wood Green,2262.3713651379694,51.59747402372348,-0.10983386762894175,Finsbury Park,2509.7294435975655,51.564572648553515,-0.10665342330316399,Seven Sisters,3122.2665440310852,51.58339989538407,-0.07248488928732598,2014.833162011987,0.05268408148594763,2,0.8333333333333334,0.4430087074096405
51.548850983856326,-0.2959333027896417,Wembley Central,502.48635814493315,51.552283310508486,-0.2968034507467562,Alperton,1227.951021878539,51.540732340720886,-0.29992632086466714,Sudbury Town,1806.4788856766895,51.550807259547014,-0.31572362027950107,Stonebridge Park,1881.8589961591529,51.5441943356176,-0.2764435319759384,North Wembley,2084.86480568027,51.562395692182534,-0.30386008561883754,1144.4087186661536,0.02798056688501181,2,0.8333333333333334,0.4306569501091726
51.508851202086944,-0.0380352738825212,LIMEHOUSE - DLR,521.7984618509669,51.51230947342043,-0.03968502529467449,WESTFERRY - DLR,1009.9401837612248,51.50950472196647,-0.02689269973073619,WEST INDIA QUAY - DLR,1623.5602517808663,51.50748498872734,-0.02017792360781738,CANARY WHARF - DLR,1635.1821700018354,51.50512355965997,-0.02092884206284268,HERON QUAYS - DLR,1698.2340224014758,51.50333329307983,-0.021424319605413522,1058.6634281886638,0.025547029946262775,1,1.0,0.5127735149731314
51.44712739038173,-0.1126388444949472,Brixton,2256.2698556063765,51.46266775315543,-0.11486935481082039,Clapham North,3084.0812123493156,51.46573033892738,-0.12933358122662442,Clapham Common,3109.4354868531195,51.46221120939256,-0.13716717677773801,Clapham South,3244.2522702153888,51.45323750844449,-0.14718699803775498,Balham,3652.2788177497205,51.44362772683046,-0.1526657783980393,2992.0484190296265,0.08041842598252219,2,0.8333333333333334,0.45687587965792775
51.52534532893332,0.0491705056684984,Upton Park,1919.861937964321,51.535381114708535,0.035237134317064586,BECKTON - DLR,1950.4813478746864,51.514417517428555,0.06184131351015285,East Ham,2060.652117883202,51.53940799877854,0.05285335494738618,BECKTON PARK - DLR,2452.70007970271,51.50877403246807,0.05495716048801019,ROYAL ALBERT - DLR,2466.786805240167,51.508411071047796,0.045890633937065085,2144.130500916937,0.05635366903477926,3,0.6666666666666667,0.361510167850723
51.59919196665637,-0.0630227968698399,Tottenham Hale,1632.0372393099763,51.58805045886335,-0.060139591063478465,Seven Sisters,2437.6842205295156,51.58339989538407,-0.07248488928732598,Blackhorse Road,2618.162790137168,51.58684229409946,-0.041768161396529516,Turnpike Lane,3821.2938532710186,51.590254789519385,-0.10294685906251815,Wood Green,4223.347762117283,51.59747402372348,-0.10983386762894175,2626.913828184672,0.07005554179975204,2,0.8333333333333334,0.4516944375665427
