lat,lon,nearest_station_1,nearest_station_1_dist,nearest_station_1_lat,nearest_station_1_long,nearest_station_2,nearest_station_2_dist,nearest_station_2_lat,nearest_station_2_long,nearest_station_3,nearest_station_3_dist,nearest_station_3_lat,nearest_station_3_long,nearest_station_4,nearest_station_4_dist,nearest_station_4_lat,nearest_station_4_long,nearest_station_5,nearest_station_5_dist,nearest_station_5_lat,nearest_station_5_long,harmonic_mean_adj_dist,harmonic_mean_adj_dist_norm,line_unique_count,line_unique_count_norm,connectivity_score
51.51451738801217,-0.41251138696763134,Hayes & Harlington,1772.0197885070563,51.50303632210459,-0.4193768852119428,Southall,3414.83577177063,51.50614548639833,-0.3771245451315028,West Drayton,5386.750841858881,51.509888266756654,-0.47175014048199965,South Ruislip,6245.381164849402,51.55686021118094,-0.39886613068870685,Northolt,6281.377790398631,51.548259260589994,-0.36865042407239057,3670.7286794751667,0.0729062843901628,2,0.8,0.4364531421950814
51.34873110146516,-0.14540536313387087,Morden,8971.614506037376,51.40253820130652,-0.19475485350439264,Colliers Wood,10465.652169288129,51.41815971696416,-0.17805799608697154,South Wimbledon,10516.296239354659,51.41498929257676,-0.19330652029319118,Tooting Broadway,11603.932733092144,51.42767600459317,-0.16838983681417344,Wimbledon,11878.916832533958,51.42143496760067,-0.2065150560922177,10582.810782051682,0.2749019355930239,2,0.8,0.537450967796512
51.459389977955524,-0.32805674013522895,Richmond,2443.8406795144465,51.463118722979786,-0.3016691259076597,Hounslow East,3247.705610762055,51.47326292270873,-0.35633446056928547,Osterley,3840.4174961664344,51.4812434687809,-0.3522207467968353,Hounslow Central,3860.544222730656,51.47131979963469,-0.3662939172379908,Kew Gardens,4645.085938584304,51.47699774458654,-0.28504091647405505,3443.9955174008837,0.06628033405525477,2,0.8,0.4331401670276274
51.426501984002556,0.044745173864830456,LEWISHAM - DLR,7766.503357144606,51.46565346553587,-0.014083062226242563,ELVERSON ROAD - DLR,8230.864508333034,51.46869615376942,-0.016384302059126953,GREENWICH - DLR,9131.653610832629,51.47812506248977,-0.0134548920388944,DEPTFORD BRIDGE - DLR,9201.342523568217,51.4743026334533,-0.02246289169111558,WOOLWICH ARSENAL - DLR,9435.765467345112,51.48998499909446,0.06886448006159107,8704.421386838638,0.22000870899822203,1,1.0,0.6100043544991111
51.48759984039206,0.14830845866878686,Abbey Wood,2556.5165581135298,51.491073973350574,0.12054450171194857,Woolwich,6903.749769891589,51.491667870973096,0.07211914694673671,WOOLWICH ARSENAL - DLR,7180.898144364841,51.48998499909446,0.06886448006159107,GALLIONS REACH - DLR,7570.248569834133,51.508980646475905,0.07175759149661497,Dagenham Heathway,7812.409007525465,51.54161732780605,0.14751917346847765,5345.524150319646,0.12184977156875539,3,0.6,0.3609248857843777
51.462445244113255,0.04635146985188126,WOOLWICH ARSENAL - DLR,4471.652565388951,51.48998499909446,0.06886448006159107,Woolwich,4824.402880412279,51.491667870973096,0.07211914694673671,LEWISHAM - DLR,5478.849739799989,51.46565346553587,-0.014083062226242563,ELVERSON ROAD - DLR,5738.503922308767,51.46869615376942,-0.016384302059126953,GREENWICH - DLR,5858.32965894971,51.47812506248977,-0.0134548920388944,5217.08750708569,0.11809639552325359,2,0.8,0.4590481977616268
51.53676005826249,-0.09451373705589021,Angel,1195.7319845984575,51.53148758749647,-0.10472643840232035,Highbury & Islington,1752.171275086219,51.5474243924603,-0.10373671479788171,Old Street,1798.655883316317,51.52508527631206,-0.08763720259182553,Barbican,2424.5839652005943,51.520208600153815,-0.09879996291215272,Farringdon,2535.159162919861,51.5199138534531,-0.10229023129298688,1805.123596716723,0.01838666092696799,5,0.19999999999999996,0.10919333046348398
51.54356758210127,0.03556712813997883,Upton Park,1184.5022090838388,51.53538004104193,0.03521015765496934,Forest Gate,1352.0219110332534,51.5492323681362,0.023638956467786507,Manor Park,1529.0072047017925,51.5521974107032,0.0453638119732596,East Ham,1668.6960867741793,51.53940709913807,0.052826568311649,Plaistow,2447.4898145292323,51.53123134107084,0.01698872064506072,1540.4803636841696,0.01065284333054291,3,0.6,0.30532642166527146
51.525596113803104,0.03476547582191181,Upton Park,1415.4982313750447,51.53538004104193,0.03521015765496934,Plaistow,1798.757427718696,51.53123134107084,0.01698872064506072,PRINCE REGENT - DLR,2347.2901442127854,51.509369041856736,0.03419020393459334,Custom House,2348.0566936555933,51.50982599790279,0.028573800978762626,CUSTOM HOUSE - DLR,2411.1918197867967,51.50973560413286,0.026525239812880297,1977.0314095190515,0.02341041933703117,4,0.4,0.21170520966851558
51.58849597132365,0.03757490022566612,South Woodford,1042.882718302212,51.591892453017074,0.027362518469825348,Snaresbrook,1844.980234785317,51.58067707711797,0.021393426338283436,Redbridge,1906.5448085613452,51.576249813818855,0.04541027413893245,Wanstead,2031.804349018828,51.57560161289604,0.028620677765270462,Woodford,2675.273723205364,51.60686112070409,0.03401185348011002,1729.2853775133124,0.016170398121242928,1,1.0,0.5080851990606214
51.44371287843465,0.08868546443895604,WOOLWICH ARSENAL - DLR,6927.141876521744,51.48998499909446,0.06886448006159107,Woolwich,7094.74592837473,51.491667870973096,0.07211914694673671,Abbey Wood,7429.287325274525,51.491073973350574,0.12054450171194857,KING GEORGE V - DLR,8763.451389619553,51.5020253612449,0.06229214246817125,LONDON CITY AIRPORT - DLR,9411.882439928773,51.503667439663054,0.048144105991576286,7809.200213410382,0.19384715865584048,2,0.8,0.49692357932792025
51.57223338794435,-0.06416903229926689,Seven Sisters,1780.9217137793958,51.58339794718637,-0.0725100279127818,Tottenham Hale,2315.4246541708303,51.588048703622064,-0.06016465065370944,Manor House,2882.352352480096,51.57075126410129,-0.09606483069595965,Blackhorse Road,2920.074512416592,51.586840594392974,-0.041793873795219,Finsbury Park,3988.2416867848565,51.56457021452156,-0.10667934765407905,2585.9490106109793,0.041205159841574586,2,0.8,0.4206025799207873
51.48016462848501,0.06154654715320412,WOOLWICH ARSENAL - DLR,1566.382396547005,51.48998499909446,0.06886448006159107,Woolwich,1918.002933629919,51.491667870973096,0.07211914694673671,KING GEORGE V - DLR,3162.16693310407,51.5020253612449,0.06229214246817125,LONDON CITY AIRPORT - DLR,3607.854032449251,51.503667439663054,0.048144105991576286,PONTOON DOCK - DLR,4094.771439885613,51.5022815457314,0.03322630989810302,2503.235258604011,0.038787969485306745,2,0.8,0.4193939847426534
51.47856531529773,-0.41375987577052725,Hatton Cross,1935.906657421137,51.46662784627763,-0.42346421038625753,Hounslow West,2624.6720089635533,51.47361867347103,-0.38579398315426044,Hayes & Harlington,3574.7208406439404,51.50303632210459,-0.4193768852119428,Heathrow Terminals 1-2-3,3646.0821958559955,51.47130365988795,-0.4524258114844233,Heathrow Terminals 1-2-3,3735.842142873031,51.471914675198775,-0.45373649957876755,2908.261456565325,0.05062427718496762,2,0.8,0.42531213859248385
51.49159313281335,-0.08199238808290431,Borough,1723.6072758697594,51.5011913652754,-0.0933129512735988,Bermondsey,1820.4881981112094,51.49770238120657,-0.06435917646629304,Elephant & Castle,1838.1572401327567,51.49583746787788,-0.10118627610280032,London Bridge,2067.141369659795,51.50506500549169,-0.08964851723570844,Kennington,2214.78726908682,51.48834003191997,-0.10596541286235016,1916.6081097635806,0.021644635366180696,3,0.6,0.3108223176830903
51.59399664486943,-0.30868161196897964,Kenton,1932.091621062733,51.58161162102015,-0.31672815541742494,Queensbury,2023.1341061081305,51.59419745209295,-0.2862217775472735,Canons Park,2349.2007425985616,51.60770907048488,-0.29469410620588665,Harrow & Wealdstone,2377.113357483044,51.59204382510434,-0.3348864548890388,Northwick Park,2398.4868501346127,51.57847500401296,-0.31806633884631424,2197.6660615827473,0.029858149494187466,3,0.6,0.3149290747470937
51.47991071460886,0.07593701849362115,WOOLWICH ARSENAL - DLR,1590.7317739342313,51.48998499909446,0.06886448006159107,Woolwich,1734.8897478807237,51.491667870973096,0.07211914694673671,KING GEORGE V - DLR,3427.2161194240443,51.5020253612449,0.06229214246817125,GALLIONS REACH - DLR,4220.939089998297,51.508980646475905,0.07175759149661497,LONDON CITY AIRPORT - DLR,4254.316321513864,51.503667439663054,0.048144105991576286,2539.6199709106345,0.03985126033560865,2,0.8,0.4199256301678044
51.47500028825245,-0.16908847476126487,Battersea Power Station,2408.2552451870833,51.47947593806482,-0.1434008238398742,Fulham Broadway,2464.172515253582,51.48076777565934,-0.19476643999333534,Sloane Square,2758.8424314952895,51.49233693461083,-0.1563353394945677,South Kensington,2784.7869709019774,51.49408858708188,-0.17316504691138462,Parsons Green,2950.7614394023353,51.47498535708651,-0.20176352486363486,2657.433741222158,0.043294198208969514,4,0.4,0.22164709910448477
51.456344790594855,-0.12665280093665424,Clapham Common,1275.184791967802,51.46221051259463,-0.13719253566731915,Clapham North,1378.9855314500112,51.46572960060881,-0.12935895070321768,Brixton,1401.4734041521579,51.46266709356466,-0.1148949328839154,Clapham South,1911.097565347592,51.45323695245536,-0.14721241263243376,Stockwell,2262.7340516993,51.47182845729258,-0.12304218836550214,1568.3281227681846,0.011466654009762014,2,0.8,0.405733327004881
51.42062646617342,-0.14249653832178893,Tooting Broadway,2553.2795036037346,51.42767600459317,-0.16838983681417344,Tooting Bec,2677.1422536029218,51.43589927439103,-0.15923362533504307,Colliers Wood,3235.0692158178563,51.41815971696416,-0.17805799608697154,Balham,3451.4404377329015,51.44362737290878,-0.15269122947563088,South Wimbledon,4665.972975240419,51.41498929257676,-0.19330652029319118,3167.865430784768,0.05821082969535523,1,1.0,0.5291054148476776
51.48284118683116,-0.09676216697570628,Kennington,1150.1279893157869,51.48834003191997,-0.10596541286235016,Oval,1419.994868665044,51.48183745351276,-0.1124062491167189,Elephant & Castle,1921.3936882866021,51.49583746787788,-0.10118627610280032,Vauxhall,2516.1853386770345,51.48569743810505,-0.12425212298282715,Borough,2671.870152645345,51.5011913652754,-0.0933129512735988,1744.6839423161905,0.016620399015154098,3,0.6,0.30831019950757704
51.42085339237219,-0.15687025683937672,Tooting Broadway,1434.5786027923166,51.42767600459317,-0.16838983681417344,Colliers Wood,1954.9148256002866,51.41815971696416,-0.17805799608697154,Tooting Bec,2186.233551061956,51.43589927439103,-0.15923362533504307,Balham,3314.9187610430836,51.44362737290878,-0.15269122947563088,South Wimbledon,3401.919541930532,51.41498929257676,-0.19330652029319118,2210.798848983655,0.030241936304556256,1,1.0,0.5151209681522781
51.44735806113557,-0.1270206381744712,Clapham South,2012.799008966128,51.45323695245536,-0.14721241263243376,Clapham Common,2336.1706887352916,51.46221051259463,-0.13719253566731915,Balham,2381.6413805359566,51.44362737290878,-0.15269122947563088,Brixton,2470.080612251787,51.46266709356466,-0.1148949328839154,Clapham North,2665.1045203840918,51.46572960060881,-0.12935895070321768,2353.1461525971736,0.03440183137867091,2,0.8,0.4172009156893355
51.53407835743692,0.06398171340644833,East Ham,1267.3068359788701,51.53940709913807,0.052826568311649,Barking,1685.231183055225,51.539885097485445,0.08018208014455507,Upton Park,2601.812795850374,51.53538004104193,0.03521015765496934,BECKTON - DLR,2850.1369367676175,51.514416825474704,0.06181424352749826,Manor Park,3112.066102758141,51.5521974107032,0.0453638119732596,2050.018010984515,0.025543347718568254,4,0.4,0.21277167385928414
51.46578784746132,-0.15506021702232053,Clapham Common,1694.8435590318875,51.46221051259463,-0.13719253566731915,Clapham South,1948.5304984849638,51.45323695245536,-0.14721241263243376,Battersea Power Station,2242.083400245234,51.47947593806482,-0.1434008238398742,Clapham North,2321.4883783731557,51.46572960060881,-0.12935895070321768,Stockwell,3020.8999298312415,51.47182845729258,-0.12304218836550214,2163.536275689838,0.02886075562291348,2,0.8,0.41443037781145675
51.45100962687355,-0.37153906461401554,Hounslow Central,2974.89242095103,51.47131979963469,-0.3662939172379908,Hounslow East,3498.737566324353,51.47326292270873,-0.35633446056928547,Hounslow West,3513.7641691499493,51.47361867347103,-0.38579398315426044,Osterley,4707.250125955656,51.4812434687809,-0.3522207467968353,Hatton Cross,5206.001616853404,51.46662784627763,-0.42346421038625753,3813.6401620217944,0.07708266678160053,1,1.0,0.5385413333908002
51.4349825687751,0.07389938335571365,WOOLWICH ARSENAL - DLR,7967.303128229006,51.48998499909446,0.06886448006159107,Woolwich,8199.26400117465,51.491667870973096,0.07211914694673671,LEWISHAM - DLR,9103.664585610048,51.46565346553587,-0.014083062226242563,Abbey Wood,9140.978762822904,51.491073973350574,0.12054450171194857,ELVERSON ROAD - DLR,9503.617904393304,51.46869615376942,-0.016384302059126953,8742.15148910454,0.2211113169337254,2,0.8,0.5105556584668627
51.47408731008612,-0.11152629446864264,Stockwell,1090.1119359648947,51.47182845729258,-0.12304218836550214,Oval,1123.5743951254956,51.48183745351276,-0.1124062491167189,Brixton,1679.2849188531432,51.46266709356466,-0.1148949328839154,Nine Elms,1842.8387196054996,51.48013931574214,-0.12948529538068784,Clapham North,2013.6521550170694,51.46572960060881,-0.12935895070321768,1452.6031046239798,0.00808475691224518,2,0.8,0.4040423784561226
51.412091546716425,-0.1716027933552157,Colliers Wood,1053.914806893906,51.41815971696416,-0.17805799608697154,South Wimbledon,2006.8525533360962,51.41498929257676,-0.19330652029319118,Tooting Broadway,2272.2890730349486,51.42767600459317,-0.16838983681417344,Morden,2508.544598519275,51.40253820130652,-0.19475485350439264,Wimbledon,3433.7998096520178,51.42143496760067,-0.2065150560922177,1940.179644404473,0.02233347954062461,2,0.8,0.4111667397703123
51.48237042718661,-0.06797696329963888,Bermondsey,2241.132344419657,51.49770238120657,-0.06435917646629304,Canada Water,2773.964138451165,51.49792096344705,-0.049987164956990765,Kennington,3536.8632060261166,51.48834003191997,-0.10596541286235016,Borough,3555.173816016772,51.5011913652754,-0.0933129512735988,Elephant & Castle,3575.1469437696223,51.49583746787788,-0.10118627610280032,3029.5257664162,0.054168052110161645,3,0.6,0.3270840260550808
51.48421109191548,-0.18312238227799313,Fulham Broadway,1163.3114463376435,51.48076777565934,-0.19476643999333534,West Brompton,1208.4096261975149,51.487279564113926,-0.19557175970385998,Earl's Court,1444.7683446222472,51.49198454803539,-0.19317540262977842,Gloucester Road,1487.259879442878,51.49448863919927,-0.18373468987431105,South Kensington,1687.7064686512406,51.49408858708188,-0.17316504691138462,1372.0436187154378,0.005730521882166772,3,0.6,0.30286526094108335
51.503063505136936,-0.24000743523175117,Goldhawk Road,1215.8997895705043,51.50199179519617,-0.22664486415404567,Stamford Brook,1296.1825604504345,51.4949181050598,-0.24600122518353934,Shepherd's Bush Market,1312.5622046895392,51.50609054189476,-0.22629592219219624,Ravenscourt Park,1341.9138902614754,51.494167735828476,-0.23577535697187463,Turnham Green,1759.7891777082148,51.4949578319235,-0.2545503301237331,1362.674328364064,0.00545671785644072,4,0.4,0.20272835892822036
51.55402228480541,-0.05051724144390889,Bethnal Green,3891.6938782515113,51.527237667207054,-0.05469030192583057,STRATFORD INTERNATIONAL - DLR,3932.9634364111143,51.54484702873076,-0.00945375181569676,Leyton,4076.616457867668,51.55660356521063,-0.00548715538242508,PUDDING MILL LANE - DLR,4368.2919554022155,51.53419514928636,-0.013970419425652433,Mile End,4428.638316831936,51.52523491887216,-0.033768063294587126,4127.981787875773,0.08626884837959864,4,0.4,0.24313442418979933
51.56371928050983,-0.09338689692284487,Manor House,1045.1736210515212,51.57075126410129,-0.09606483069595965,Finsbury Park,1204.3751694568175,51.56457021452156,-0.10667934765407905,Arsenal,1453.9989112339244,51.55861585603557,-0.10728530327692844,Holloway Road,2392.5044084756983,51.55275576448648,-0.11326351342118741,Highbury & Islington,2534.454693365987,51.5474243924603,-0.10373671479788171,1520.969189063963,0.010082657333812308,2,0.8,0.4050413286669062
51.473854652919464,-0.09713622624604637,Oval,1798.351964762778,51.48183745351276,-0.1124062491167189,Kennington,2241.3410302960383,51.48834003191997,-0.10596541286235016,Brixton,2278.2030243257404,51.46266709356466,-0.1148949328839154,Stockwell,2357.895538548108,51.47182845729258,-0.12304218836550214,Vauxhall,2988.0193789874857,51.48569743810505,-0.12425212298282715,2272.7836453742275,0.03205335276717659,2,0.8,0.4160266763835883
51.551794906684634,0.07920823073461704,Ilford,1398.2945698204571,51.55901595033399,0.06889387475453736,Barking,1724.6286779970665,51.539885097485445,0.08018208014455507,Seven Kings,2323.8390372269096,51.56394753983007,0.09607290430467301,Upney,2799.6793603818905,51.53835457119145,0.10155366360748233,East Ham,2978.0214790194473,51.53940709913807,0.052826568311649,2067.575453327916,0.02605643870142709,3,0.6,0.3130282193507135
51.47477469139469,-0.15469764649858125,Battersea Power Station,1225.914209675276,51.47947593806482,-0.1434008238398742,Nine Elms,2405.272026569109,51.48013931574214,-0.12948529538068784,Clapham Common,2408.5052343725306,51.46221051259463,-0.13719253566731915,Sloane Square,2543.982850201769,51.49233693461083,-0.1563353394945677,Clapham North,2635.9300616566593,51.46572960060881,-0.12935895070321768,2066.8642309543657,0.026035654251190053,3,0.6,0.313017827125595
51.457250128945915,-0.18419314902479822,East Putney,2442.9527905911755,51.459149587092405,-0.2110636822805433,Southfields,2686.191969883625,51.44507985784133,-0.2066534771013345,Putney Bridge,2728.3862937267354,51.46825546825846,-0.2087270375114135,Parsons Green,3015.984333013682,51.47498535708651,-0.20176352486363486,Clapham South,3391.073606471177,51.45323695245536,-0.14721241263243376,2817.5514400660495,0.04797340750757137,2,0.8,0.4239867037537857
51.5520494712341,0.06479511971799781,Ilford,1073.1131346899797,51.55901595033399,0.06889387475453736,Manor Park,1752.0334463315494,51.5521974107032,0.0453638119732596,East Ham,2123.086165966157,51.53940709913807,0.052826568311649,Barking,2240.500904028263,51.539885097485445,0.08018208014455507,Seven Kings,3303.18746219898,51.56394753983007,0.09607290430467301,1836.403852292749,0.019300781375930262,3,0.6,0.3096503906879651
51.48398718866214,-0.16872854197371326,South Kensington,1514.6775631509815,51.49408858708188,-0.17316504691138462,Sloane Square,1646.151858272877,51.49233693461083,-0.1563353394945677,Gloucester Road,2035.0622064923068,51.49448863919927,-0.18373468987431105,Battersea Power Station,2378.1549582905945,51.47947593806482,-0.1434008238398742,Fulham Broadway,2396.6592884173588,51.48076777565934,-0.19476643999333534,1925.4386488304724,0.021902695161017945,4,0.4,0.21095134758050899
51.41970114466602,-0.08500356385307582,Brixton,6775.207994426115,51.46266709356466,-0.1148949328839154,Balham,7029.044027635291,51.44362737290878,-0.15269122947563088,Tooting Bec,7107.530141093842,51.43589927439103,-0.15923362533504307,Clapham South,7425.176295308092,51.45323695245536,-0.14721241263243376,Tooting Broadway,7626.540374429724,51.42767600459317,-0.16838983681417344,7180.218469446163,0.17546607245326132,2,0.8,0.48773303622663067
51.49614820197061,-0.3843372095179053,Southall,1585.4441756280692,51.50614548639833,-0.3771245451315028,Hounslow West,3260.502387221634,51.47361867347103,-0.38579398315426044,Hayes & Harlington,3315.6086473439477,51.50303632210459,-0.4193768852119428,Osterley,3612.673021316536,51.4812434687809,-0.3522207467968353,Hounslow Central,3942.575129260981,51.47131979963469,-0.3662939172379908,2825.676601910096,0.04821085366828827,2,0.8,0.42410542683414415
51.556329011795974,-0.1946755384342939,West Hampstead,1436.3616742192125,51.546801915703966,-0.19016960275566852,Hampstead,1456.5522560037252,51.5565898798849,-0.17852309354375814,Kilburn,1630.2045104391652,51.546953022454446,-0.20471489160119855,Finchley Road,1797.4520769454755,51.54723083836693,-0.18109153879636952,Golders Green,2308.336868154654,51.57228620318889,-0.19402225224523736,1674.6314199968156,0.014573214873774974,3,0.6,0.30728660743688746
51.45269844211907,0.0890955993022278,WOOLWICH ARSENAL - DLR,5693.487179366857,51.48998499909446,0.06886448006159107,Woolwich,5840.530989534111,51.491667870973096,0.07211914694673671,Abbey Wood,6234.461251680842,51.491073973350574,0.12054450171194857,KING GEORGE V - DLR,7533.036600425183,51.5020253612449,0.06229214246817125,LONDON CITY AIRPORT - DLR,8246.702328350717,51.503667439663054,0.048144105991576286,6568.0188984205215,0.15757542110099493,2,0.8,0.4787877105504975
51.50327871637559,-0.2544078430364184,Turnham Green,1203.331369703605,51.4949578319235,-0.2545503301237331,Stamford Brook,1427.380479913189,51.4949181050598,-0.24600122518353934,Chiswick Park,1784.626131105192,51.49466748590177,-0.26857152550054486,East Acton,2033.936589515373,51.51659745054098,-0.2471625219934364,Ravenscourt Park,2136.3713690634404,51.494167735828476,-0.23577535697187463,1638.4350027574437,0.013515426675808984,3,0.6,0.30675771333790447
51.5715117027414,-0.020907729308452184,Walthamstow Central,1679.5970504956092,51.58311960662003,-0.0215170203946605,Leyton,2565.1603184999162,51.55660356521063,-0.00548715538242508,Leytonstone,2662.048220739241,51.568320494028455,0.008183219874044318,Blackhorse Road,2907.894991441792,51.586840594392974,-0.041793873795219,STRATFORD INTERNATIONAL - DLR,3991.995456000149,51.54484702873076,-0.00945375181569676,2557.2003063860566,0.040365020337301764,3,0.6,0.32018251016865085
51.384220358769795,-0.11522808741532609,Colliers Wood,7509.043597635216,51.41815971696416,-0.17805799608697154,Morden,7666.766474509644,51.40253820130652,-0.19475485350439264,Tooting Broadway,7912.501906508925,51.42767600459317,-0.16838983681417344,South Wimbledon,8347.358242663546,51.41498929257676,-0.19330652029319118,Tooting Bec,8466.820669570336,51.43589927439103,-0.15923362533504307,7963.120165344666,0.1983452477211439,1,1.0,0.5991726238605719
51.57340077503303,-0.13627514566049942,Highgate,1120.8967935314367,51.57784395375154,-0.14646788226539453,Archway,1286.3747654189856,51.56453819250787,-0.13505202452388373,Tufnell Park,2402.4020638636694,51.55684430975304,-0.13846565572304778,Finsbury Park,2957.1678788903337,51.56457021452156,-0.10667934765407905,East Finchley,3267.1739828271498,51.58715402026014,-0.1650441219039346,1831.496736985275,0.01915737799365689,3,0.6,0.30957868899682844
51.59966468877837,-0.09188171291957883,Wood Green,1649.874724244056,51.5974714659873,-0.10985901912398979,Turnpike Lane,1688.377059172135,51.59025232853629,-0.10297211354184564,Seven Sisters,2928.9498898942556,51.58339794718637,-0.0725100279127818,Bounds Green,3112.8591611186557,51.60706378685743,-0.12434197787111509,Tottenham Hale,3314.144868883772,51.588048703622064,-0.06016465065370944,2311.8226014461648,0.03319421007138764,2,0.8,0.41659710503569386
51.537224646856984,-0.12333367856218866,King's Cross St. Pancras,1083.6819920054802,51.529785143075884,-0.12477613021792856,Mornington Crescent,1437.2868817110955,51.534704942339104,-0.13874979864115178,Euston,1667.1427094706387,51.52808458451346,-0.13459860915117344,Caledonian Road,1691.7179250982192,51.54852353192346,-0.11847347641237985,Camden Town,1763.5744461523718,51.53923059833878,-0.14262297026124665,1480.819283450257,0.008909334128182142,6,0.0,0.004454667064091071
51.4554112294826,-0.0691155005225102,Brixton,4266.7285389126855,51.46266709356466,-0.1148949328839154,DEPTFORD BRIDGE - DLR,5022.156966750612,51.4743026334533,-0.02246289169111558,ELVERSON ROAD - DLR,5136.283579397653,51.46869615376942,-0.016384302059126953,LEWISHAM - DLR,5187.453290860275,51.46565346553587,-0.014083062226242563,Stockwell,5418.973586999286,51.47182845729258,-0.12304218836550214,4972.689271559535,0.11095420884125021,3,0.6,0.3554771044206251
51.608884777953776,-0.10593752607271474,Bounds Green,1678.0162614017206,51.60706378685743,-0.12434197787111509,Wood Green,1687.8882988815492,51.5974714659873,-0.10985901912398979,Arnos Grove,2674.7825787989714,51.61645247794506,-0.1330451742909319,Turnpike Lane,2707.7274249578704,51.59025232853629,-0.10297211354184564,Southgate,3909.6894543099775,51.63225854371172,-0.1277625393853033,2285.8727104804775,0.03243586185641152,1,1.0,0.5162179309282058
51.58215734894111,-0.12148301983675411,Turnpike Lane,2037.4804112837198,51.59025232853629,-0.10297211354184564,Highgate,2335.951691400211,51.57784395375154,-0.14646788226539453,Wood Green,2449.6994649907024,51.5974714659873,-0.10985901912398979,Manor House,2822.5033971124626,51.57075126410129,-0.09606483069595965,Archway,2826.166663621996,51.56453819250787,-0.13505202452388373,2456.714853626258,0.03742847760453188,2,0.8,0.41871423880226594
51.44546332567648,-0.0119717409276296,LEWISHAM - DLR,2926.008458783814,51.46565346553587,-0.014083062226242563,ELVERSON ROAD - DLR,3383.3684163979588,51.46869615376942,-0.016384302059126953,DEPTFORD BRIDGE - DLR,4276.91081769994,51.4743026334533,-0.02246289169111558,GREENWICH - DLR,4725.2603413096795,51.47812506248977,-0.0134548920388944,CUTTY SARK - DLR,5237.067807806539,51.48167303702902,-0.011082584411792822,3925.52597451548,0.08035236861957476,1,1.0,0.5401761843097874
51.42773388813174,-0.027126719805407224,LEWISHAM - DLR,5608.943818997524,51.46565346553587,-0.014083062226242563,ELVERSON ROAD - DLR,6002.718904985771,51.46869615376942,-0.016384302059126953,DEPTFORD BRIDGE - DLR,6747.656102818629,51.4743026334533,-0.02246289169111558,GREENWICH - DLR,7391.228029286011,51.47812506248977,-0.0134548920388944,CUTTY SARK - DLR,7933.909691952538,51.48167303702902,-0.011082584411792822,6627.65849375585,0.15931830243811682,1,1.0,0.5796591512190584
51.48260668973305,-0.08236946751058039,Kennington,2286.0660233701924,51.48834003191997,-0.10596541286235016,Elephant & Castle,2558.654858652486,51.49583746787788,-0.10118627610280032,Oval,2714.412606745596,51.48183745351276,-0.1124062491167189,Bermondsey,2722.0078291705477,51.49770238120657,-0.06435917646629304,Borough,2863.402780886336,51.5011913652754,-0.0933129512735988,2613.3165638484597,0.04200493719606712,3,0.6,0.32100246859803355
51.47168132287454,0.032365497847011,CUTTY SARK - DLR,4181.2711073665305,51.48167303702902,-0.011082584411792822,WOOLWICH ARSENAL - DLR,4227.21002551213,51.48998499909446,0.06886448006159107,GREENWICH - DLR,4241.684735549245,51.47812506248977,-0.0134548920388944,LEWISHAM - DLR,4284.9661332138485,51.46565346553587,-0.014083062226242563,ELVERSON ROAD - DLR,4424.178136447145,51.46869615376942,-0.016384302059126953,4270.275993320394,0.09042719173614905,1,1.0,0.5452135958680745
51.54306392241036,0.06438831112985323,East Ham,1169.0939824355387,51.53940709913807,0.052826568311649,Barking,1496.6376375375144,51.539885097485445,0.08018208014455507,Manor Park,2165.014621184994,51.5521974107032,0.0453638119732596,Ilford,2342.4640474951734,51.55901595033399,0.06889387475453736,Upton Park,2856.4199533521005,51.53538004104193,0.03521015765496934,1810.0151929167293,0.018529610785661572,3,0.6,0.3092648053928308
51.439276075438755,-0.18490607008564644,Wimbledon Park,1487.4751338922563,51.434055248289106,-0.19908634010842738,Southfields,2137.033044293666,51.44507985784133,-0.2066534771013345,Tooting Broadway,2245.56679855021,51.42767600459317,-0.16838983681417344,Tooting Bec,2371.110049074,51.43589927439103,-0.15923362533504307,Balham,2978.566247547259,51.44362737290878,-0.15269122947563088,2134.001746998461,0.027997651529609886,2,0.8,0.41399882576480496
51.42938455496237,-0.12775574173124574,Tooting Bec,2997.2171295796093,51.43589927439103,-0.15923362533504307,Balham,3053.119020152607,51.44362737290878,-0.15269122947563088,Tooting Broadway,3681.5695533007724,51.42767600459317,-0.16838983681417344,Clapham South,3871.62650034552,51.45323695245536,-0.14721241263243376,Clapham Common,4822.954278097071,51.46221051259463,-0.13719253566731915,3575.435130177496,0.07012146756360343,1,1.0,0.5350607337818017
51.48864053477476,0.09073826361430433,Woolwich,1737.046947082048,51.491667870973096,0.07211914694673671,WOOLWICH ARSENAL - DLR,1984.389842952692,51.48998499909446,0.06886448006159107,Abbey Wood,2713.907680492937,51.491073973350574,0.12054450171194857,KING GEORGE V - DLR,3215.7240451237817,51.5020253612449,0.06229214246817125,GALLIONS REACH - DLR,3404.132538045139,51.508980646475905,0.07175759149661497,2435.6645491243235,0.036813312752207304,2,0.8,0.4184066563761037
51.581925568495244,-0.1070587607440476,Turnpike Lane,1259.1916993016505,51.59025232853629,-0.10297211354184564,Manor House,1895.4396752005057,51.57075126410129,-0.09606483069595965,Wood Green,2262.2670267677013,51.5974714659873,-0.10985901912398979,Finsbury Park,2510.0585749725287,51.56457021452156,-0.10667934765407905,Seven Sisters,3119.9499620315296,51.58339794718637,-0.0725100279127818,2013.943062495981,0.02448910927002106,2,0.8,0.41224455463501053
51.44712739038173,-0.11263884449494721,Brixton,2256.4373257324874,51.46266709356466,-0.1148949328839154,Clapham North,3085.1803850203396,51.46572960060881,-0.12935895070321768,Clapham Common,3111.060214405959,51.46221051259463,-0.13719253566731915,Clapham South,3246.4732068959725,51.45323695245536,-0.14721241263243376,Balham,3654.5821073549623,51.44362737290878,-0.15269122947563088,2993.301914362732,0.053109462169239376,2,0.8,0.4265547310846197
51.52534532893332,0.049170505668498427,Upton Park,1921.3745007191344,51.53538004104193,0.03521015765496934,BECKTON - DLR,1949.143166371004,51.514416825474704,0.06181424352749826,East Ham,2060.1542282794694,51.53940709913807,0.052826568311649,BECKTON PARK - DLR,2452.2887624982877,51.50877344229744,0.05493012781653366,ROYAL ALBERT - DLR,2467.187612091316,51.508410493809826,0.04586359758395505,2144.0737223258034,0.02829199051241614,3,0.6,0.31414599525620807
51.437908359171075,-0.09863052804361479,Brixton,3870.2572412462873,51.46266709356466,-0.1148949328839154,Clapham North,4888.258884952338,51.46572960060881,-0.12935895070321768,Clapham South,4918.0161313233275,51.45323695245536,-0.14721241263243376,Clapham Common,4948.868059232403,51.46221051259463,-0.13719253566731915,Balham,4955.2381511498215,51.44362737290878,-0.15269122947563088,4672.200060831266,0.1021728441381508,2,0.8,0.4510864220690754
51.55654994816955,-0.20909240751969158,Kilburn,1442.8358411248362,51.546953022454446,-0.20471489160119855,Willesden Green,1608.0840120351477,51.54937241454188,-0.22271672855408042,West Hampstead,2213.0305315517594,51.546801915703966,-0.19016960275566852,Golders Green,2650.1642908400026,51.57228620318889,-0.19402225224523736,Hampstead,2755.669750712173,51.5565898798849,-0.17852309354375814,1994.3918267068718,0.023917752543287492,2,0.8,0.4119588762716438
51.38513042249841,-0.17267757388336416,Morden,3213.376081431118,51.40253820130652,-0.19475485350439264,South Wimbledon,4703.764524448583,51.41498929257676,-0.19330652029319118,Colliers Wood,4801.022010131092,51.41815971696416,-0.17805799608697154,Wimbledon,6076.865572550035,51.42143496760067,-0.2065150560922177,Tooting Broadway,6164.641482719264,51.42767600459317,-0.16838983681417344,4722.069408204268,0.10363020404044658,2,0.8,0.4518151020202233
51.53580965482367,-0.03687620086269615,Mile End,1554.7532472384396,51.52523491887216,-0.033768063294587126,Bow Road,1663.6474743489603,51.526902665586434,-0.02520321216907312,BOW CHURCH - DLR,1868.1205611709338,51.5276649933369,-0.020800084864193928,Bethnal Green,2029.3983753957123,51.527237667207054,-0.05469030192583057,PUDDING MILL LANE - DLR,2079.042499349947,51.53419514928636,-0.013970419425652433,1815.9876809957234,0.018704148153840118,4,0.4,0.20935207407692008
51.438371315924634,-0.1273882850626859,Balham,2409.7459836694525,51.44362737290878,-0.15269122947563088,Clapham South,2798.2897994671307,51.45323695245536,-0.14721241263243376,Tooting Bec,2900.3546150301754,51.43589927439103,-0.15923362533504307,Clapham Common,3559.394713322652,51.46221051259463,-0.13719253566731915,Brixton,3690.3209568524326,51.46266709356466,-0.1148949328839154,2995.7092391686574,0.053179812771939595,2,0.8,0.42658990638596983
51.383754770476116,-0.08650448373731344,Colliers Wood,9660.936677006532,51.41815971696416,-0.17805799608697154,Tooting Broadway,9756.542796850217,51.42767600459317,-0.16838983681417344,Tooting Bec,10006.098104533394,51.43589927439103,-0.15923362533504307,Morden,10162.975418786447,51.40253820130652,-0.19475485350439264,Balham,10525.497621460621,51.44362737290878,-0.15269122947563088,10013.061519004521,0.2582518333946339,1,1.0,0.629125916697317
51.617637298023304,-0.09112794829783095,Bounds Green,3358.716958539473,51.60706378685743,-0.12434197787111509,Wood Green,3368.9013782521374,51.5974714659873,-0.10985901912398979,Arnos Grove,3777.5610486315572,51.61645247794506,-0.1330451742909319,Southgate,3917.2151004258017,51.63225854371172,-0.1277625393853033,Turnpike Lane,4101.394050817762,51.59025232853629,-0.10297211354184564,3680.8296076990946,0.07320146947970117,1,1.0,0.5366007347398506
51.429613316014716,-0.142132088293095,Tooting Bec,1793.2754977248576,51.43589927439103,-0.15923362533504307,Balham,2240.0404111180073,51.44362737290878,-0.15269122947563088,Tooting Broadway,2390.132614520847,51.42767600459317,-0.16838983681417344,Clapham South,3446.9208479050253,51.45323695245536,-0.14721241263243376,Colliers Wood,3645.9083287652434,51.41815971696416,-0.17805799608697154,2516.5586791906644,0.039177327276159295,1,1.0,0.5195886636380797
51.3929751362817,-0.10049406080170536,Colliers Wood,7904.219841746829,51.41815971696416,-0.17805799608697154,Tooting Broadway,7929.8426565092595,51.42767600459317,-0.16838983681417344,Tooting Bec,8169.655568670173,51.43589927439103,-0.15923362533504307,Morden,8638.191872288566,51.40253820130652,-0.19475485350439264,Balham,8713.64937321751,51.44362737290878,-0.15269122947563088,8256.926027327878,0.20693130117620842,1,1.0,0.6034656505881042
51.45747205332223,-0.19857870130711489,East Putney,1153.6718733823543,51.459149587092405,-0.2110636822805433,Putney Bridge,1808.8606665669745,51.46825546825846,-0.2087270375114135,Southfields,1934.8353529683757,51.44507985784133,-0.2066534771013345,Parsons Green,2548.8580763850086,51.47498535708651,-0.20176352486363486,Fulham Broadway,3386.314020390197,51.48076777565934,-0.19476643999333534,1905.4075612552147,0.021317315456463006,1,1.0,0.5106586577282315
51.61204384907735,0.22639968592315948,Harold Wood,2791.46199262255,51.593439600882554,0.23465343804517522,Gidea Park,4701.877874126476,51.58205913427199,0.20622610724443255,Brentwood,6706.07541362654,51.61355363968187,0.3008362166569427,Romford,6706.621325162171,51.57468932135223,0.18228349307035963,Upminster Bridge,7790.844419442636,51.558496054141195,0.23582667980199254,5012.5469970381,0.11211899350295243,2,0.8,0.4560594967514762
51.516610355525586,0.03436496120395907,PRINCE REGENT - DLR,1047.3371697995683,51.509369041856736,0.03419020393459334,Custom House,1111.620665785662,51.50982599790279,0.028573800978762626,CUSTOM HOUSE - DLR,1220.2004120882552,51.50973560413286,0.026525239812880297,ROYAL ALBERT - DLR,1575.7005522161269,51.508410493809826,0.04586359758395505,ROYAL VICTORIA - DLR,1842.026735389786,51.50923086828426,0.017726499393994184,1298.2137271001975,0.003572949559711559,2,0.8,0.4017864747798558
51.48213239924783,-0.053584655803786414,Canada Water,2306.2282515692987,51.49792096344705,-0.049987164956990765,Bermondsey,2452.7579888614937,51.49770238120657,-0.06435917646629304,DEPTFORD BRIDGE - DLR,3029.9061689576656,51.4743026334533,-0.02246289169111558,GREENWICH - DLR,3669.7283977561447,51.47812506248977,-0.0134548920388944,MUDCHUTE - DLR,3703.8029812375235,51.490885808029404,-0.015032189977413828,2917.410811293137,0.05089165390863841,2,0.8,0.4254458269543192
51.46415976885547,-0.054349524921107846,DEPTFORD BRIDGE - DLR,3232.0266649629853,51.4743026334533,-0.02246289169111558,ELVERSON ROAD - DLR,3491.437015217717,51.46869615376942,-0.016384302059126953,LEWISHAM - DLR,3643.64396926498,51.46565346553587,-0.014083062226242563,GREENWICH - DLR,4209.565552248712,51.47812506248977,-0.0134548920388944,CUTTY SARK - DLR,4656.564932055173,51.48167303702902,-0.011082584411792822,3780.5076192253837,0.07611441590453515,1,1.0,0.5380572079522675
51.45588153766494,-0.09788376393716477,Brixton,1823.3348723024947,51.46266709356466,-0.1148949328839154,Clapham North,3180.0491991738068,51.46572960060881,-0.12935895070321768,Stockwell,3237.687454890317,51.47182845729258,-0.12304218836550214,Clapham Common,3667.165199620064,51.46221051259463,-0.13719253566731915,Oval,3976.108465410443,51.48183745351276,-0.1124062491167189,2948.181061345298,0.05179087018019344,2,0.8,0.42589543509009675
51.44826311001163,-0.18454970181482055,Southfields,2049.699676339808,51.44507985784133,-0.2066534771013345,Wimbledon Park,2438.6726240868834,51.434055248289106,-0.19908634010842738,East Putney,2866.478096012717,51.459149587092405,-0.2110636822805433,Tooting Bec,2903.602802701528,51.43589927439103,-0.15923362533504307,Balham,2955.874971232971,51.44362737290878,-0.15269122947563088,2591.3386297538896,0.041362663703992796,2,0.8,0.4206813318519964
51.41163960060988,-0.14286079984480768,Tooting Broadway,3271.9624901792977,51.42767600459317,-0.16838983681417344,Colliers Wood,3319.4424419753564,51.41815971696416,-0.17805799608697154,Tooting Bec,3807.669140880006,51.43589927439103,-0.15923362533504307,South Wimbledon,4587.368705094288,51.41498929257676,-0.19330652029319118,Balham,4710.318582866627,51.44362737290878,-0.15269122947563088,3846.7456436752786,0.07805012683571175,1,1.0,0.5390250634178558
51.52082078474622,-0.22490868266509995,Latimer Road,1240.3864184901709,51.513458663999614,-0.21785393577321283,White City,1245.0866403205646,51.5122152625013,-0.22446214525403546,Ladbroke Grove,1361.2771059981671,51.51732053919889,-0.21090185775767434,Kensal Green,1410.616516285895,51.530571777558116,-0.2244787816465951,Wood Lane,1549.0205308104892,51.510140640931624,-0.223589832503072,1351.9210756451566,0.0051424695223975005,4,0.4,0.20257123476119876
51.600130319485075,-0.12074141107353221,Wood Green,1052.8235055567704,51.5974714659873,-0.10985901912398979,Bounds Green,1053.8014759464381,51.60706378685743,-0.12434197787111509,Turnpike Lane,2145.2604659807566,51.59025232853629,-0.10297211354184564,Arnos Grove,2607.480819253977,51.61645247794506,-0.1330451742909319,Highgate,3969.6212273163237,51.57784395375154,-0.14646788226539453,1666.4771584907407,0.014334918317317112,2,0.8,0.4071674591586586
51.367379235893026,-0.18775038865381033,Morden,5123.579333440644,51.40253820130652,-0.19475485350439264,South Wimbledon,6903.075343130488,51.41498929257676,-0.19330652029319118,Colliers Wood,7395.396009725774,51.41815971696416,-0.17805799608697154,Wimbledon,7999.033005643987,51.42143496760067,-0.2065150560922177,Tooting Broadway,8893.513863908027,51.42767600459317,-0.16838983681417344,7015.42795574129,0.17065030686571686,2,0.8,0.4853251534328584
51.401961812475925,-0.10012173972438212,Tooting Broadway,7206.656800291255,51.42767600459317,-0.16838983681417344,Tooting Bec,7256.171060838132,51.43589927439103,-0.15923362533504307,Colliers Wood,7427.2246502981725,51.41815971696416,-0.17805799608697154,Balham,7674.179131108086,51.44362737290878,-0.15269122947563088,Clapham South,8550.037807727706,51.45323695245536,-0.14721241263243376,7593.247758363185,0.18753625896761847,1,1.0,0.5937681294838092
51.45702644043177,-0.16980778138787878,Clapham South,2113.671834523913,51.45323695245536,-0.14721241263243376,Balham,2479.171536233378,51.44362737290878,-0.15269122947563088,Clapham Common,3040.2450162761984,51.46221051259463,-0.13719253566731915,Tooting Bec,3201.1137305927805,51.43589927439103,-0.15923362533504307,East Putney,3739.662803819716,51.459149587092405,-0.2110636822805433,2800.827320714216,0.047484669189777264,2,0.8,0.42374233459488864
51.463678724824874,-0.02557680072563396,LEWISHAM - DLR,1076.7872646782366,51.46565346553587,-0.014083062226242563,ELVERSON ROAD - DLR,1102.6925854537142,51.46869615376942,-0.016384302059126953,DEPTFORD BRIDGE - DLR,1561.9004099438882,51.4743026334533,-0.02246289169111558,GREENWICH - DLR,2358.639539968367,51.47812506248977,-0.0134548920388944,CUTTY SARK - DLR,2912.9394456834793,51.48167303702902,-0.011082584411792822,1541.7469487520416,0.010689857456213273,1,1.0,0.5053449287281067
51.551020597340006,0.12244628305348945,Becontree,1605.8276359081235,51.54034470776378,0.1273417848283317,Goodmayes,2340.0074759371523,51.56578721328644,0.11183537935333984,Chadwell Heath,2513.945094832557,51.568019572273315,0.12827514956634728,Upney,2627.6958116047517,51.53835457119145,0.10155366360748233,Dagenham Heathway,2638.353170527057,51.54161732780605,0.14751917346847765,2265.0590883327263,0.031827613705241835,2,0.8,0.4159138068526209
51.429154031676006,-0.11337958525932676,Balham,4123.747138530944,51.44362737290878,-0.15269122947563088,Tooting Bec,4258.025837932838,51.43589927439103,-0.15923362533504307,Clapham South,4634.406131121389,51.45323695245536,-0.14721241263243376,Brixton,4848.283250238239,51.46266709356466,-0.1148949328839154,Tooting Broadway,4977.4667090944495,51.42767600459317,-0.16838983681417344,4544.257016496085,0.09843389281005128,2,0.8,0.4492169464050257
51.59846958805764,-0.019735915035015015,Walthamstow Central,2225.6614777743566,51.58311960662003,-0.0215170203946605,Blackhorse Road,2603.0915989753476,51.586840594392974,-0.041793873795219,Tottenham Hale,3941.1456692173483,51.588048703622064,-0.06016465065370944,South Woodford,4347.59407848127,51.591892453017074,0.027362518469825348,Snaresbrook,4510.928970569377,51.58067707711797,0.021393426338283436,3249.089541849979,0.06058448743907258,2,0.8,0.43029224371953634
51.66209476135729,-0.06034129457894059,Oakwood,6727.768927077279,51.64733362819432,-0.13126893872170828,Southgate,7443.817894493301,51.63225854371172,-0.1277625393853033,Cockfosters,8134.176131474648,51.65152862765704,-0.14916314678277617,Arnos Grove,9293.394326761432,51.61645247794506,-0.1330451742909319,Bounds Green,9823.853264500069,51.60706378685743,-0.12434197787111509,8125.961599778008,0.20310405427219888,1,1.0,0.6015520271360995
51.55075895586442,0.13685853535840287,Dagenham Heathway,1634.6189819128888,51.54161732780605,0.14751917346847765,Becontree,1733.449079831108,51.54034470776378,0.1273417848283317,Chadwell Heath,2613.433180712882,51.568019572273315,0.12827514956634728,Dagenham East,2793.576288777622,51.54416043622838,0.16597604681459355,Goodmayes,3132.459764432778,51.56578721328644,0.11183537935333984,2223.7161768601454,0.030619426620425043,2,0.8,0.41530971331021255
51.46623713224148,-0.18383641158948222,Parsons Green,2054.7105093628757,51.47498535708651,-0.20176352486363486,Putney Bridge,2267.0215156333675,51.46825546825846,-0.2087270375114135,Fulham Broadway,2321.558616359304,51.48076777565934,-0.19476643999333534,East Putney,2664.458670028485,51.459149587092405,-0.2110636822805433,West Brompton,3222.179514600025,51.487279564113926,-0.19557175970385998,2445.946085546435,0.03711377585639645,1,1.0,0.5185568879281982
51.55676911408796,-0.2235094597054823,Willesden Green,1072.019566914875,51.54937241454188,-0.22271672855408042,Dollis Hill,1563.20166006619,51.55196194099086,-0.23904076572437893,Kilburn,2210.426154987944,51.546953022454446,-0.20471489160119855,Neasden,2516.474239525577,51.554426400499004,-0.2511708953836603,Brent Cross,3008.228933909881,51.576668983672164,-0.21378475842151334,1815.0560536635621,0.01867692268590649,2,0.8,0.40933846134295326
51.43814071891893,-0.1130093107151177,Brixton,3550.870307015542,51.46266709356466,-0.1148949328839154,Balham,3672.959354313871,51.44362737290878,-0.15269122947563088,Clapham South,3783.9997665325104,51.45323695245536,-0.14721241263243376,Clapham Common,4109.780151626816,51.46221051259463,-0.13719253566731915,Tooting Bec,4190.409336673621,51.43589927439103,-0.15923362533504307,3845.8167715488344,0.07802298188469976,2,0.8,0.4390114909423499
51.55153857281172,0.09362112927435086,Seven Kings,1808.1505288389997,51.56394753983007,0.09607290430467301,Upney,2036.4343274293844,51.53835457119145,0.10155366360748233,Barking,2075.775483152357,51.539885097485445,0.08018208014455507,Ilford,2477.6770595891808,51.55901595033399,0.06889387475453736,Goodmayes,2634.82383113608,51.56578721328644,0.11183537935333984,2165.4496976586406,0.028916672626050646,3,0.6,0.31445833631302533
51.393207124908855,-0.1148587692910893,Colliers Wood,6759.638336785518,51.41815971696416,-0.17805799608697154,Tooting Broadway,6948.466312382263,51.42767600459317,-0.16838983681417344,Morden,7352.209071348756,51.40253820130652,-0.19475485350439264,Tooting Bec,7363.137822811081,51.43589927439103,-0.15923362533504307,South Wimbledon,7763.101299607488,51.41498929257676,-0.19330652029319118,7220.286834900204,0.17663701276508229,1,1.0,0.5883185063825411
51.558863386967346,-0.3676897286005217,Northolt,1535.8594700898288,51.548259260589994,-0.36865042407239057,South Harrow,1628.5934022678073,51.564549549948175,-0.3520927569079474,Rayners Lane,2385.841441439232,51.575195361923186,-0.3714462140203309,Sudbury Hill,2813.6663878253476,51.55696518658866,-0.3366239412564384,South Ruislip,2825.0943388540636,51.55686021118094,-0.39886613068870685,2088.8635832367354,0.026678553658976596,3,0.6,0.3133392768294883
51.43696129386587,-0.04111734324008051,LEWISHAM - DLR,4814.913400269527,51.46565346553587,-0.014083062226242563,ELVERSON ROAD - DLR,5104.46463058379,51.46869615376942,-0.016384302059126953,DEPTFORD BRIDGE - DLR,5656.965804641062,51.4743026334533,-0.02246289169111558,GREENWICH - DLR,6456.168738479977,51.47812506248977,-0.0134548920388944,CUTTY SARK - DLR,7012.181306434153,51.48167303702902,-0.011082584411792822,5695.618436575226,0.13208077320981468,1,1.0,0.5660403866049073
51.40172798924509,-0.08575441191075116,Tooting Bec,8280.065940676135,51.43589927439103,-0.15923362533504307,Tooting Broadway,8361.645932750273,51.42767600459317,-0.16838983681417344,Balham,8563.689628355249,51.44362737290878,-0.15269122947563088,Colliers Wood,8679.150123908354,51.41815971696416,-0.17805799608697154,Brixton,9197.705391158883,51.46266709356466,-0.1148949328839154,8604.679235832902,0.21709388818941427,2,0.8,0.5085469440947071
51.525092776314395,0.06357532640346603,BECKTON - DLR,1552.0930576461947,51.514416825474704,0.06181424352749826,East Ham,2285.9029940860387,51.53940709913807,0.052826568311649,CYPRUS - DLR,2400.1150228524143,51.50849812994545,0.06393910837272368,GALLIONS REACH - DLR,2444.272278023964,51.508980646475905,0.07175759149661497,BECKTON PARK - DLR,2485.641046583658,51.50877344229744,0.05493012781653366,2164.6593365038884,0.028893575458833826,3,0.6,0.3144467877294169
51.45420459524227,0.0028016970413025652,LEWISHAM - DLR,2251.2208340596076,51.46565346553587,-0.014083062226242563,ELVERSON ROAD - DLR,2719.541372594662,51.46869615376942,-0.016384302059126953,DEPTFORD BRIDGE - DLR,3695.389278526957,51.4743026334533,-0.02246289169111558,GREENWICH - DLR,3758.0163184282846,51.47812506248977,-0.0134548920388944,CUTTY SARK - DLR,4165.6046574719985,51.48167303702902,-0.011082584411792822,3147.268917896737,0.0576089262498254,1,1.0,0.5288044631249127
51.5911438420912,-0.12111231167786626,Wood Green,1365.5520490783,51.5974714659873,-0.10985901912398979,Turnpike Lane,1639.1261220696813,51.59025232853629,-0.10297211354184564,Bounds Green,2320.5503303407645,51.60706378685743,-0.12434197787111509,Highgate,2986.1817583436123,51.57784395375154,-0.14646788226539453,Manor House,3713.4566556784553,51.57075126410129,-0.09606483069595965,2103.0629711326255,0.027093510333701745,2,0.8,0.4135467551668509
51.41186645427164,-0.15723170313820828,Colliers Wood,2091.582480108871,51.41815971696416,-0.17805799608697154,Tooting Broadway,2498.903375981289,51.42767600459317,-0.16838983681417344,South Wimbledon,3293.281707031465,51.41498929257676,-0.19330652029319118,Tooting Bec,3480.0676403555217,51.43589927439103,-0.15923362533504307,Morden,3651.8730241907297,51.40253820130652,-0.19475485350439264,2868.430155232866,0.04946026473090428,1,1.0,0.5247301323654522
51.47965503592437,0.09032727851698413,Woolwich,2391.8506693808386,51.491667870973096,0.07211914694673671,WOOLWICH ARSENAL - DLR,2446.8962676066903,51.48998499909446,0.06886448006159107,Abbey Wood,3189.215881806312,51.491073973350574,0.12054450171194857,KING GEORGE V - DLR,4107.593084648921,51.5020253612449,0.06229214246817125,GALLIONS REACH - DLR,4560.313921176553,51.508980646475905,0.07175759149661497,3119.037342591212,0.056783899093941874,2,0.8,0.42839194954697096
51.5659736225367,-0.2375792733958514,Dollis Hill,2030.5000117036898,51.55196194099086,-0.23904076572437893,Neasden,2071.0463573224515,51.554426400499004,-0.2511708953836603,Brent Cross,2643.8472083042207,51.576668983672164,-0.21378475842151334,Hendon Central,2685.0491491720145,51.58317142482077,-0.2263467398232382,Willesden Green,2749.224577078012,51.54937241454188,-0.22271672855408042,2392.635828244241,0.03555586031376498,2,0.8,0.4177779301568825
51.61787114953497,-0.10556339298985562,Bounds Green,2302.4513675992825,51.60706378685743,-0.12434197787111509,Arnos Grove,2482.5782832031164,51.61645247794506,-0.1330451742909319,Southgate,2884.7334051478892,51.63225854371172,-0.1277625393853033,Wood Green,2975.343989552318,51.5974714659873,-0.10985901912398979,Turnpike Lane,4000.899379171918,51.59025232853629,-0.10297211354184564,2825.1482645819974,0.04819541377028644,1,1.0,0.5240977068851432
51.61644143177543,-0.018953691275973007,Blackhorse Road,4749.341107912544,51.586840594392974,-0.041793873795219,Walthamstow Central,4824.443064277411,51.58311960662003,-0.0215170203946605,Woodford,4966.191296719866,51.60686112070409,0.03401185348011002,South Woodford,5477.344065173592,51.591892453017074,0.027362518469825348,Tottenham Hale,5534.795262133742,51.588048703622064,-0.06016465065370944,5089.367866430134,0.11436397284615636,2,0.8,0.4571819864230782
51.47143101885967,0.04675356377599176,WOOLWICH ARSENAL - DLR,3344.574465594964,51.48998499909446,0.06886448006159107,Woolwich,3716.348424227192,51.491667870973096,0.07211914694673671,PONTOON DOCK - DLR,4625.659271146202,51.5022815457314,0.03322630989810302,KING GEORGE V - DLR,4641.576124935416,51.5020253612449,0.06229214246817125,LONDON CITY AIRPORT - DLR,4663.630113799924,51.503667439663054,0.048144105991576286,4118.182846166464,0.08598248841131455,2,0.8,0.4429912442056573
51.59434751107784,0.21109564452768106,Gidea Park,1830.555774759034,51.58205913427199,0.20622610724443255,Harold Wood,2126.1406949945276,51.593439600882554,0.23465343804517522,Romford,3849.9041658930273,51.57468932135223,0.18228349307035963,Upminster Bridge,5643.703253095364,51.558496054141195,0.23582667980199254,Hornchurch,5872.733455655087,51.55404895710733,0.21910684007400003,3079.136746964914,0.05561786161387319,2,0.8,0.4278089308069366
51.56000580071072,0.12286464798596286,Chadwell Heath,1257.3932545523949,51.568019572273315,0.12827514956634728,Goodmayes,1299.0215308649097,51.56578721328644,0.11183537935333984,Seven Kings,2481.3888910908963,51.56394753983007,0.09607290430467301,Becontree,2871.925299662566,51.54034470776378,0.1273417848283317,Dagenham Heathway,3466.073710650219,51.54161732780605,0.14751917346847765,1919.5215337971765,0.021729775990404026,2,0.8,0.41086488799520204
51.43860015013352,-0.1417674496300115,Balham,1226.0183508995997,51.44362737290878,-0.15269122947563088,Tooting Bec,1626.2175071413133,51.43589927439103,-0.15923362533504307,Clapham South,2173.0617510896855,51.45323695245536,-0.14721241263243376,Tooting Broadway,2878.5815276884523,51.42767600459317,-0.16838983681417344,Clapham Common,3439.2279016253933,51.46221051259463,-0.13719253566731915,1977.137308859518,0.023413514092840204,1,1.0,0.5117067570464201
51.46858201128636,-0.3421183796751352,Hounslow East,1451.3769839868082,51.47326292270873,-0.35633446056928547,Osterley,2045.5944096810042,51.4812434687809,-0.3522207467968353,Hounslow Central,2218.9695637263953,51.47131979963469,-0.3662939172379908,Richmond,3737.884895090059,51.463118722979786,-0.3016691259076597,Hounslow West,4011.0486521900693,51.47361867347103,-0.38579398315426044,2330.613030119243,0.033743333305150225,2,0.8,0.41687166665257513
51.402193875269326,-0.11448926014376223,Tooting Broadway,6110.2112707481565,51.42767600459317,-0.16838983681417344,Colliers Wood,6195.133989039841,51.41815971696416,-0.17805799608697154,Tooting Bec,6334.393810762182,51.43589927439103,-0.15923362533504307,Balham,6915.870923125826,51.44362737290878,-0.15269122947563088,Morden,7260.209934157671,51.40253820130652,-0.19475485350439264,6533.575243168206,0.15656885484943017,1,1.0,0.5782844274247151
51.55378187698884,-0.03610248345668661,STRATFORD INTERNATIONAL - DLR,2728.1190928391993,51.54484702873076,-0.00945375181569676,Leyton,2790.0044204038177,51.55660356521063,-0.00548715538242508,Stratford,3394.8478605920395,51.54143718776305,-0.004077736594981249,Stratford,3414.370707555987,51.541456474970374,-0.0038044932283004124,PUDDING MILL LANE - DLR,3465.0015401796713,51.53419514928636,-0.013970419425652433,3123.0106557024646,0.056900013451009646,3,0.6,0.32845000672550484
51.42039777824903,-0.12812300830997855,Tooting Bec,3596.465508779315,51.43589927439103,-0.15923362533504307,Tooting Broadway,3789.5193208407673,51.42767600459317,-0.16838983681417344,Balham,4026.933796538271,51.44362737290878,-0.15269122947563088,Colliers Wood,4526.549866120383,51.41815971696416,-0.17805799608697154,Clapham South,5052.579313542211,51.45323695245536,-0.14721241263243376,4135.300760703957,0.0864827348266381,1,1.0,0.5432413674133191
51.50432826329152,-0.3264125221254335,Boston Manor,1319.2156363771,51.495219674970095,-0.3255952087308763,Northfields,1386.7644658661375,51.49965470504596,-0.31299492833767906,West Ealing,1404.4527609223587,51.51347049215326,-0.3211587871947293,Hanwell,1521.502066260232,51.51178190030973,-0.3383131005158024,South Ealing,1776.9326529671937,51.50089966685759,-0.30750525770727977,1465.7757261626368,0.008469707817958241,2,0.8,0.4042348539089791
51.49986501931261,-0.038421231280350375,Canada Water,1081.1558115384053,51.49792096344705,-0.049987164956990765,HERON QUAYS - DLR,1611.6619742191128,51.50333239231443,-0.021451061501281746,WESTFERRY - DLR,1737.934663786576,51.50950359754111,-0.02691955650225653,CANARY WHARF - DLR,1750.1400356114868,51.50512260005705,-0.02095564721391252,SOUTH QUAY - DLR,1753.3006489160653,51.50061170089832,-0.019032982341807152,1532.545968468407,0.010420972049975885,2,0.8,0.405210486024988
51.42797498366043,-0.04150170518043267,LEWISHAM - DLR,5985.69845956057,51.46565346553587,-0.014083062226242563,ELVERSON ROAD - DLR,6311.0803355928765,51.46869615376942,-0.016384302059126953,DEPTFORD BRIDGE - DLR,6916.9425775815935,51.4743026334533,-0.02246289169111558,GREENWICH - DLR,7682.374803010014,51.47812506248977,-0.0134548920388944,CUTTY SARK - DLR,8237.482223325633,51.48167303702902,-0.011082584411792822,6928.534763978082,0.1681109783978502,1,1.0,0.5840554891989251
51.43623248883493,0.0020154614232785577,LEWISHAM - DLR,4496.48587389679,51.46565346553587,-0.014083062226242563,ELVERSON ROAD - DLR,4980.387226830831,51.46869615376942,-0.016384302059126953,DEPTFORD BRIDGE - DLR,5933.090839545667,51.4743026334533,-0.02246289169111558,GREENWICH - DLR,6217.412829711232,51.47812506248977,-0.0134548920388944,CUTTY SARK - DLR,6677.058899699177,51.48167303702902,-0.011082584411792822,5541.180181199395,0.12756753747240257,1,1.0,0.5637837687362013
51.446894956322765,-0.09825724262242892,Brixton,2731.6150135835237,51.46266709356466,-0.1148949328839154,Clapham North,3913.2970645209234,51.46572960060881,-0.12935895070321768,Clapham Common,4156.885592838382,51.46221051259463,-0.13719253566731915,Stockwell,4244.30140371739,51.47182845729258,-0.12304218836550214,Clapham South,4517.50115874199,51.45323695245536,-0.14721241263243376,3790.2940686440857,0.07640041080360581,2,0.8,0.43820020540180293
51.59488757821124,0.18224474629520204,Gidea Park,2847.77863201098,51.58205913427199,0.20622610724443255,Romford,2921.159567757371,51.57468932135223,0.18228349307035963,Harold Wood,4725.564328165992,51.593439600882554,0.23465343804517522,Chadwell Heath,6224.625412159202,51.568019572273315,0.12827514956634728,Elm Park,6697.8892170028375,51.549719886941844,0.1986662037147443,4115.0615925659295,0.08589127426711708,2,0.8,0.44294563713355856
51.36601501285517,-0.1016098697123642,Morden,9946.42391370951,51.40253820130652,-0.19475485350439264,Colliers Wood,10232.094958463325,51.41815971696416,-0.17805799608697154,Tooting Broadway,10770.41835523521,51.42767600459317,-0.16838983681417344,South Wimbledon,10907.883963995653,51.41498929257676,-0.19330652029319118,Tooting Bec,11370.885325284176,51.43589927439103,-0.15923362533504307,10621.62064633408,0.2760360980194071,1,1.0,0.6380180490097036
51.53278866766502,0.13601678845170134,Becontree,1343.9868540713856,51.54034470776378,0.1273417848283317,Dagenham Heathway,1645.132273805946,51.54161732780605,0.14751917346847765,Dagenham East,3163.119798363377,51.54416043622838,0.16597604681459355,Upney,3210.8638790122814,51.53835457119145,0.10155366360748233,Barking,5139.309588092062,51.539885097485445,0.08018208014455507,2299.830081465193,0.03284374593523151,2,0.8,0.4164218729676158
51.63560984400521,-0.09037340049807369,Southgate,3399.500631006451,51.63225854371172,-0.1277625393853033,Oakwood,4051.523076258032,51.64733362819432,-0.13126893872170828,Arnos Grove,4735.761150107902,51.61645247794506,-0.1330451742909319,Bounds Green,5137.321002119601,51.60706378685743,-0.12434197787111509,Cockfosters,5768.8000537597645,51.65152862765704,-0.14916314678277617,4463.72309743119,0.09608040493418125,1,1.0,0.5480402024670906
51.484872206489044,-0.22630500748956828,Hammersmith (Dist&Picc Line),1071.9431001404448,51.49199951963806,-0.22304188389888033,Hammersmith (H&C Line),1294.688700618271,51.49378399419851,-0.2249293587788519,Barons Court,1310.1201078402578,51.49029837209941,-0.21468405012348488,Ravenscourt Park,1593.060767702704,51.494167735828476,-0.23577535697187463,West Kensington,2067.608247363015,51.490790555082114,-0.20545700029973243,1396.6739356283695,0.006450307444653932,3,0.6,0.30322515372232695
51.44642479851022,-0.06949462012699385,Brixton,4726.747607826188,51.46266709356466,-0.1148949328839154,LEWISHAM - DLR,5726.68024548644,51.46565346553587,-0.014083062226242563,ELVERSON ROAD - DLR,5778.891315635001,51.46869615376942,-0.016384302059126953,DEPTFORD BRIDGE - DLR,5857.037911597165,51.4743026334533,-0.02246289169111558,Stockwell,6074.269428012197,51.47182845729258,-0.12304218836550214,5589.15012166083,0.12896938994143767,3,0.6,0.36448469497071884
51.44521855004806,0.0024084775018899177,LEWISHAM - DLR,3309.5604279715417,51.46565346553587,-0.014083062226242563,ELVERSON ROAD - DLR,3796.061261450218,51.46869615376942,-0.016384302059126953,DEPTFORD BRIDGE - DLR,4768.514906398213,51.4743026334533,-0.02246289169111558,GREENWICH - DLR,4969.854572296884,51.47812506248977,-0.0134548920388944,CUTTY SARK - DLR,5410.886143106901,51.48167303702902,-0.011082584411792822,4305.443624142844,0.09145491513176592,1,1.0,0.5457274575658829
51.58416363404397,-0.25130982906865285,Colindale,1636.1273432105684,51.59544539419721,-0.24993805686952955,Hendon Central,2253.504912939941,51.58317142482077,-0.2263467398232382,Kingsbury,2463.5280371206018,51.584641087244194,-0.2786447440288867,Burnt Oak,2931.7012420131205,51.602834176714175,-0.26399369483295404,Queensbury,3463.4254913178734,51.59419745209295,-0.2862217775472735,2391.5379712542785,0.03552377702332889,2,0.8,0.41776188851166446
51.43647718621227,-0.01236193874958717,LEWISHAM - DLR,4222.170116178214,51.46565346553587,-0.014083062226242563,ELVERSON ROAD - DLR,4673.473833337909,51.46869615376942,-0.016384302059126953,DEPTFORD BRIDGE - DLR,5545.700915271252,51.4743026334533,-0.02246289169111558,GREENWICH - DLR,6023.690988070121,51.47812506248977,-0.0134548920388944,CUTTY SARK - DLR,6536.995175252736,51.48167303702902,-0.011082584411792822,5262.4647051145985,0.11942247882631415,1,1.0,0.559711239413157
51.454449449152314,-0.011581341101162032,LEWISHAM - DLR,1635.9494236924775,51.46565346553587,-0.014083062226242563,ELVERSON ROAD - DLR,2105.470497618851,51.46869615376942,-0.016384302059126953,DEPTFORD BRIDGE - DLR,3034.6554414884818,51.4743026334533,-0.02246289169111558,GREENWICH - DLR,3428.0194678020994,51.47812506248977,-0.0134548920388944,CUTTY SARK - DLR,3937.1884042967854,51.48167303702902,-0.011082584411792822,2549.137493895999,0.040129396246718595,1,1.0,0.5200646981233593
51.59822524997637,-0.005307358248848445,Walthamstow Central,2627.6122645175824,51.58311960662003,-0.0215170203946605,South Woodford,3081.8902082374093,51.591892453017074,0.027362518469825348,Snaresbrook,3496.5489450840487,51.58067707711797,0.021393426338283436,Blackhorse Road,3675.9250887247754,51.586840594392974,-0.041793873795219,Woodford,3754.8016877484583,51.60686112070409,0.03401185348011002,3269.2299610845257,0.06117306220401417,2,0.8,0.4305865311020071
51.405050467342775,-0.3012838917927611,Richmond,8397.01506942242,51.463118722979786,-0.3016691259076597,Wimbledon,8891.136366623883,51.42143496760067,-0.2065150560922177,Morden,9641.92412744339,51.40253820130652,-0.19475485350439264,South Wimbledon,9869.948333404245,51.41498929257676,-0.19330652029319118,Wimbledon Park,10147.505011377387,51.434055248289106,-0.19908634010842738,9343.361920234565,0.2386808264887109,2,0.8,0.5193404132443554
51.60865100130855,-0.09150492843878681,Wood Green,2312.0967861379295,51.5974714659873,-0.10985901912398979,Turnpike Lane,2854.1242307294274,51.59025232853629,-0.10297211354184564,Bounds Green,2965.710012744796,51.60706378685743,-0.12434197787111509,Arnos Grove,3906.5629889328643,51.61645247794506,-0.1330451742909319,Seven Sisters,4032.8582023786967,51.58339794718637,-0.0725100279127818,3078.8025931981274,0.05560809645097115,2,0.8,0.4278040482254856
51.427246411603335,0.0016226486665953188,LEWISHAM - DLR,5732.676530815728,51.46565346553587,-0.014083062226242563,ELVERSON ROAD - DLR,6211.153899456144,51.46869615376942,-0.016384302059126953,DEPTFORD BRIDGE - DLR,7144.536332968738,51.4743026334533,-0.02246289169111558,GREENWICH - DLR,7482.846391941106,51.47812506248977,-0.0134548920388944,CUTTY SARK - DLR,7954.1525162324815,51.48167303702902,-0.011082584411792822,6804.888978306237,0.16449760826933799,1,1.0,0.582248804134669
51.59521226446426,-0.3952621314050573,Pinner,1316.0270862740545,51.592825567877355,-0.38116191894249885,Northwood Hills,1411.8514503049498,51.60019223372048,-0.4087463545441836,Eastcote,2710.8131978097977,51.576511969832765,-0.39736801686353984,North Harrow,3294.9351760675086,51.58494710527484,-0.3626047009909967,Northwood,3447.9152148493317,51.611014101617926,-0.4239354593141582,2057.128914533374,0.025751153640384068,2,0.8,0.41287557682019205
51.53356778586372,0.0927963858444101,Upney,1050.2695318255437,51.53835457119145,0.10155366360748233,Barking,1459.1105820769997,51.539885097485445,0.08018208014455507,Becontree,3266.161467778956,51.54034470776378,0.1273417848283317,East Ham,3702.4722467058014,51.53940709913807,0.052826568311649,BECKTON - DLR,3934.8377507228556,51.514416825474704,0.06181424352749826,2026.0261342993358,0.02484221965285922,3,0.6,0.3124211098264296
51.559744075496205,0.13727973625566864,Chadwell Heath,1446.081203835229,51.568019572273315,0.12827514956634728,Goodmayes,2454.4095272131394,51.56578721328644,0.11183537935333984,Dagenham Heathway,2779.341420650978,51.54161732780605,0.14751917346847765,Becontree,2945.1856043806115,51.54034470776378,0.1273417848283317,Dagenham East,3431.244570136799,51.54416043622838,0.16597604681459355,2392.65571461013,0.035556441464186544,2,0.8,0.4177782207320933
51.48066716157147,0.032764976359749606,PONTOON DOCK - DLR,3126.0797896917124,51.5022815457314,0.03322630989810302,WEST SILVERTOWN - DLR,3349.7527122766205,51.50289292553245,0.02231692734681443,WOOLWICH ARSENAL - DLR,3527.0109574410744,51.48998499909446,0.06886448006159107,LONDON CITY AIRPORT - DLR,3604.360892294309,51.503667439663054,0.048144105991576286,North Greenwich,3855.443661039662,51.50053431205634,0.004287576712352386,3475.2138479936175,0.06719264483570614,2,0.8,0.43359632241785306
51.625911152592764,-0.047437074165698256,Tottenham Hale,5594.19289062685,51.588048703622064,-0.06016465065370944,Blackhorse Road,5673.062642256973,51.586840594392974,-0.041793873795219,Seven Sisters,6549.590305230271,51.58339794718637,-0.0725100279127818,Walthamstow Central,6613.965333047854,51.58311960662003,-0.0215170203946605,Wood Green,6964.458011591694,51.5974714659873,-0.10985901912398979,6230.598289343813,0.1477147894348419,2,0.8,0.47385739471742094
51.46689782402008,-0.22700208557729804,Putney Bridge,1662.2400516047696,51.46825546825846,-0.2087270375114135,East Putney,1824.3249092283602,51.459149587092405,-0.2110636822805433,Parsons Green,2561.910083134027,51.47498535708651,-0.20176352486363486,Fulham Broadway,3535.1927483179506,51.48076777565934,-0.19476643999333534,Barons Court,3562.029936435562,51.49029837209941,-0.21468405012348488,2376.777893961655,0.035092435007958916,2,0.8,0.41754621750397947
51.550495545311904,0.15127056931745111,Dagenham Heathway,1327.7993007567047,51.54161732780605,0.14751917346847765,Dagenham East,1611.736541090557,51.54416043622838,0.16597604681459355,Becontree,2609.79099391989,51.54034470776378,0.1273417848283317,Chadwell Heath,3274.1634112685006,51.568019572273315,0.12827514956634728,Goodmayes,4186.761680291537,51.56578721328644,0.11183537935333984,2172.9524802094447,0.029135930647684712,2,0.8,0.4145679653238424
51.41141098578492,-0.1284900849285905,Tooting Broadway,4306.618046139835,51.42767600459317,-0.16838983681417344,Tooting Bec,4501.7571896884165,51.43589927439103,-0.15923362533504307,Colliers Wood,4587.229990269832,51.41815971696416,-0.17805799608697154,Balham,5146.9268362067705,51.44362737290878,-0.15269122947563088,South Wimbledon,5884.063126330526,51.41498929257676,-0.19330652029319118,4823.582237147603,0.10659677036352458,1,1.0,0.5532983851817623
51.51685929293028,0.01996255482857938,ROYAL VICTORIA - DLR,1121.4973133408748,51.50923086828426,0.017726499393994184,CANNING TOWN - DLR,1148.1006796514753,51.513908158084384,0.008150268942793047,Canning Town,1154.2157326306535,51.51412171801386,0.00794669828970189,CUSTOM HOUSE - DLR,1188.27666168785,51.50973560413286,0.026525239812880297,Custom House,1279.97599739625,51.50982599790279,0.028573800978762626,1175.9510914542025,0.0,3,0.6,0.3
51.392741387778926,-0.08612954478675393,Tooting Broadway,8992.420420732557,51.42767600459317,-0.16838983681417344,Colliers Wood,9090.69151235008,51.41815971696416,-0.17805799608697154,Tooting Bec,9091.245548726121,51.43589927439103,-0.15923362533504307,Balham,9506.38943619374,51.44362737290878,-0.15269122947563088,Morden,9927.826520424187,51.40253820130652,-0.19475485350439264,9308.859675421578,0.23767254804156077,1,1.0,0.6188362740207803
51.385353539603685,-0.18704041185399392,Morden,2581.1635488962343,51.40253820130652,-0.19475485350439264,South Wimbledon,4322.864036483242,51.41498929257676,-0.19330652029319118,Colliers Wood,4813.089600075468,51.41815971696416,-0.17805799608697154,Wimbledon,5506.933777346238,51.42143496760067,-0.2065150560922177,Tooting Broadway,6348.352870383992,51.42767600459317,-0.16838983681417344,4289.535122182964,0.09099001205837069,2,0.8,0.44549500602918535
51.3577180770768,-0.14504241755664782,Morden,7889.584074987148,51.40253820130652,-0.19475485350439264,Colliers Wood,9236.712077285993,51.41815971696416,-0.17805799608697154,South Wimbledon,9362.683308094525,51.41498929257676,-0.19330652029319118,Tooting Broadway,10334.638480621283,51.42767600459317,-0.16838983681417344,Wimbledon,10762.414246205668,51.42143496760067,-0.2065150560922177,9407.374164878362,0.24055149220851774,2,0.8,0.5202757461042589
51.413828876153964,-0.2865780698728943,Richmond,7256.8765493792935,51.463118722979786,-0.3016691259076597,Wimbledon,7322.238505563104,51.42143496760067,-0.2065150560922177,Wimbledon Park,8433.22117619848,51.434055248289106,-0.19908634010842738,South Wimbledon,8435.726373728194,51.41498929257676,-0.19330652029319118,Morden,8463.199836722084,51.40253820130652,-0.19475485350439264,7940.903190981278,0.19769598862125315,2,0.8,0.4988479943106266
51.428921746210214,-0.09900362033265438,Brixton,5086.851840724599,51.46266709356466,-0.1148949328839154,Balham,5298.0227611286955,51.44362737290878,-0.15269122947563088,Tooting Bec,5536.989936302851,51.43589927439103,-0.15923362533504307,Clapham South,5598.745272090962,51.45323695245536,-0.14721241263243376,Clapham Common,5923.08131874895,51.46221051259463,-0.13719253566731915,5474.167233923173,0.1256091805369377,2,0.8,0.4628045902684689
51.383519337413645,-0.07214297186329134,Tooting Broadway,10795.894952026452,51.42767600459317,-0.16838983681417344,Colliers Wood,10810.9980272583,51.41815971696416,-0.17805799608697154,Tooting Bec,10927.464152139091,51.43589927439103,-0.15923362533504307,Balham,11340.628505280762,51.44362737290878,-0.15269122947563088,Morden,11428.449149478733,51.40253820130652,-0.19475485350439264,11054.164750769338,0.2886765769304996,1,1.0,0.6443382884652498
51.37476813733701,-0.08687922889461171,Colliers Wood,10363.721473804711,51.41815971696416,-0.17805799608697154,Morden,10554.165021977118,51.40253820130652,-0.19475485350439264,Tooting Broadway,10625.282569202125,51.42767600459317,-0.16838983681417344,Tooting Bec,10998.78415702951,51.43589927439103,-0.15923362533504307,South Wimbledon,11248.445757674353,51.41498929257676,-0.19330652029319118,10748.638016901277,0.27974799786391735,1,1.0,0.6398739989319586
51.454692539588805,-0.025964581386253006,LEWISHAM - DLR,1914.331683272543,51.46565346553587,-0.014083062226242563,ELVERSON ROAD - DLR,2202.295792794959,51.46869615376942,-0.016384302059126953,DEPTFORD BRIDGE - DLR,2853.483026197265,51.4743026334533,-0.02246289169111558,GREENWICH - DLR,3572.106982892964,51.47812506248977,-0.0134548920388944,CUTTY SARK - DLR,4126.819950404635,51.48167303702902,-0.011082584411792822,2703.930161048601,0.04465298915821808,1,1.0,0.5223264945791091
51.45999752433769,-0.3712191998833286,Hounslow Central,1696.6016857045215,51.47131979963469,-0.3662939172379908,Hounslow East,2342.4237256932774,51.47326292270873,-0.35633446056928547,Hounslow West,2369.055904447354,51.47361867347103,-0.38579398315426044,Osterley,3518.8907204591146,51.4812434687809,-0.3522207467968353,Hatton Cross,4815.462491232246,51.46662784627763,-0.42346421038625753,2590.3035571881132,0.04133241519799078,1,1.0,0.5206662075989954
51.53209964933694,-0.3830647647159154,Northolt,2673.935349467542,51.548259260589994,-0.36865042407239057,Greenford,3629.3440073838046,51.54259127112355,-0.3465040750206399,Southall,3791.154624656914,51.50614548639833,-0.3771245451315028,South Ruislip,3853.5462943107286,51.55686021118094,-0.39886613068870685,Ruislip Gardens,4838.451002897069,51.56077549009729,-0.4107169346271762,3624.5979659592067,0.07155818068149367,2,0.8,0.43577909034074686
51.33029943060207,-0.11743999195897784,Morden,12573.992522487782,51.40253820130652,-0.19475485350439264,Colliers Wood,13839.215573842044,51.41815971696416,-0.17805799608697154,South Wimbledon,14040.451445645747,51.41498929257676,-0.19330652029319118,Tooting Broadway,14817.108371185755,51.42767600459317,-0.16838983681417344,Wimbledon,15448.974906789379,51.42143496760067,-0.2065150560922177,14075.419009196605,0.3769683842793949,2,0.8,0.5884841921396975
51.44182109174909,-0.3574767538577915,Hounslow Central,4339.3502612774855,51.47131979963469,-0.3662939172379908,Hounslow East,4547.7754062220465,51.47326292270873,-0.35633446056928547,Hounslow West,5261.7250475771625,51.47361867347103,-0.38579398315426044,Osterley,5720.363083507697,51.4812434687809,-0.3522207467968353,Richmond,5908.262594911647,51.463118722979786,-0.3016691259076597,5078.940512270458,0.11405924842845573,2,0.8,0.4570296242142279
51.376143349762316,-0.17303546370968378,Morden,4293.031073361807,51.40253820130652,-0.19475485350439264,South Wimbledon,5909.149562767946,51.41498929257676,-0.19330652029319118,Colliers Wood,6092.851357050671,51.41815971696416,-0.17805799608697154,Wimbledon,7215.774378519121,51.42143496760067,-0.2065150560922177,Tooting Broadway,7463.8667557085355,51.42767600459317,-0.16838983681417344,5960.501515661821,0.1398215999619696,2,0.8,0.46991079998098484
51.4286876986201,-0.08462784840642121,Brixton,5623.724106669587,51.46266709356466,-0.1148949328839154,Balham,6520.184038495665,51.44362737290878,-0.15269122947563088,Clapham South,6677.887170270097,51.45323695245536,-0.14721241263243376,Clapham North,6710.574628939683,51.46572960060881,-0.12935895070321768,Clapham Common,6787.038712411248,51.46221051259463,-0.13719253566731915,6432.5710257245855,0.15361715196540998,2,0.8,0.476808575982705
51.52291237832271,-0.36897550163542997,Southall,2533.597901188798,51.50614548639833,-0.3771245451315028,Hanwell,3200.5028074213665,51.51178190030973,-0.3383131005158024,Greenford,3493.6036948018063,51.54259127112355,-0.3465040750206399,Northolt,3665.4085115605617,51.548259260589994,-0.36865042407239057,West Ealing,4524.830916036551,51.51347049215326,-0.3211587871947293,3362.005555399286,0.0638842954201759,2,0.8,0.431942147710088
51.46989214521286,0.1330775349365548,Abbey Wood,3265.69479370793,51.491073973350574,0.12054450171194857,Woolwich,6341.757543194205,51.491667870973096,0.07211914694673671,WOOLWICH ARSENAL - DLR,6485.940252989507,51.48998499909446,0.06886448006159107,KING GEORGE V - DLR,7902.106848493242,51.5020253612449,0.06229214246817125,GALLIONS REACH - DLR,7912.345832888891,51.508980646475905,0.07175759149661497,5740.452377405693,0.13339098060313614,2,0.8,0.4666954903015681
51.66185520475966,-0.045892186280443115,Oakwood,7961.840353257309,51.64733362819432,-0.13126893872170828,Southgate,8518.997135079331,51.63225854371172,-0.1277625393853033,Cockfosters,9408.353718182005,51.65152862765704,-0.14916314678277617,Loughton,9579.107233816956,51.64131224348847,0.05533810169999307,Buckhurst Hill,9823.757662993221,51.625982897027,0.04682407515656278,9001.544439360883,0.22869170257250857,2,0.8,0.5143458512862543
51.39434066800347,-0.18668514805693126,Morden,1392.1477341827583,51.40253820130652,-0.19475485350439264,South Wimbledon,3045.407300838964,51.41498929257676,-0.19330652029319118,Colliers Wood,3531.6860257942194,51.41815971696416,-0.17805799608697154,Wimbledon,4308.969126950424,51.42143496760067,-0.2065150560922177,Tooting Broadway,5096.575500686483,51.42767600459317,-0.16838983681417344,2843.9582658303107,0.04874510898439036,2,0.8,0.4243725544921952
51.3583920605826,-0.18810510190675817,Morden,6412.128753667697,51.40253820130652,-0.19475485350439264,South Wimbledon,8197.87149557991,51.41498929257676,-0.19330652029319118,Colliers Wood,8690.506744110135,51.41815971696416,-0.17805799608697154,Wimbledon,9267.342322998027,51.42143496760067,-0.2065150560922177,Tooting Broadway,10176.497000217234,51.42767600459317,-0.16838983681417344,8344.781512540705,0.2094987512851551,2,0.8,0.5047493756425776
51.654960588529505,-0.17630204780652345,High Barnet,1730.425887856474,51.65052191222786,-0.19416624688190223,Cockfosters,2491.193385332442,51.65152862765704,-0.14916314678277617,Totteridge & Whetstone,3534.298271276758,51.63058779485697,-0.1792054604098072,Oakwood,4198.570925559867,51.64733362819432,-0.13126893872170828,Woodside Park,5396.505055919916,51.61808637995582,-0.1855114363532535,2966.075011332185,0.05231379511461304,2,0.8,0.42615689755730657
51.53901223683231,-0.23862099341653675,Willesden Junction,1096.0882288640582,51.53240375197415,-0.2445731603163596,Kensal Green,1765.373249878319,51.530571777558116,-0.2244787816465951,Harlesden,1831.6534385667003,51.5366984829526,-0.2585901442236528,Dollis Hill,1873.0293232994168,51.55196194099086,-0.23904076572437893,Willesden Green,2073.904920135732,51.54937241454188,-0.22271672855408042,1644.2937349498682,0.013686639691926197,2,0.8,0.4068433198459631
51.374056787974574,-0.0438037063485547,LEWISHAM - DLR,13515.907521704883,51.46565346553587,-0.014083062226242563,Tooting Broadway,13679.191901828704,51.42767600459317,-0.16838983681417344,Colliers Wood,13717.822910279408,51.41815971696416,-0.17805799608697154,Tooting Bec,13746.842309982425,51.43589927439103,-0.15923362533504307,ELVERSON ROAD - DLR,13908.802613209356,51.46869615376942,-0.016384302059126953,13712.55365562834,0.3663641665769379,2,0.8,0.583182083288469
51.60957546680895,-0.1492364781835167,Arnos Grove,1764.693808397101,51.61645247794506,-0.1330451742909319,Bounds Green,2270.8251092003375,51.60706378685743,-0.12434197787111509,Woodside Park,3490.1297625759776,51.61808637995582,-0.1855114363532535,West Finchley,3521.167381083191,51.60948689407505,-0.18834268491450493,East Finchley,3541.2185145579947,51.58715402026014,-0.1650441219039346,2688.248923031269,0.044194727546453184,2,0.8,0.4220973637732266
51.56976579289346,0.08002815565801887,Newbury Park,1238.0393981612226,51.57570573751538,0.08992082990646201,Gants Hill,1585.1201118970969,51.57653500920319,0.06619413225561141,Seven Kings,1673.1022023129806,51.56394753983007,0.09607290430467301,Ilford,1850.4312183707746,51.55901595033399,0.06889387475453736,Barkingside,2431.656247101943,51.58570377518845,0.08862520423436726,1673.3910279200386,0.014536966200570985,2,0.8,0.4072684831002855
51.548428722584084,-0.2671032639428895,Stonebridge Park,1043.073415731018,51.54419264973252,-0.27646679490996795,Neasden,1677.907454689248,51.554426400499004,-0.2511708953836603,Harlesden,1861.8990842122191,51.5366984829526,-0.2585901442236528,Wembley Park,2505.563063582832,51.56376083873252,-0.28005006150968614,Dollis Hill,2581.0857072912045,51.55196194099086,-0.23904076572437893,1737.1259436074795,0.016399527380775304,3,0.6,0.30819976369038765
51.562525709040536,-0.021297928924878508,Leyton,1662.7529950675753,51.55660356521063,-0.00548715538242508,STRATFORD INTERNATIONAL - DLR,2770.6582156963464,51.54484702873076,-0.00945375181569676,Leytonstone,2786.183999763511,51.568320494028455,0.008183219874044318,Walthamstow Central,2978.2889956757963,51.58311960662003,-0.0215170203946605,Stratford,3422.1799245976335,51.54143718776305,-0.004077736594981249,2565.1209813738806,0.04059649066395418,4,0.4,0.22029824533197712
51.36760045191057,-0.20210779212587834,Morden,5095.849744419216,51.40253820130652,-0.19475485350439264,South Wimbledon,6898.855120641089,51.41498929257676,-0.19330652029319118,Colliers Wood,7628.099455530341,51.41815971696416,-0.17805799608697154,Wimbledon,7795.033898118286,51.42143496760067,-0.2065150560922177,Tooting Broadway,9207.245430104394,51.42767600459317,-0.16838983681417344,7050.3874053003565,0.17167194646353717,2,0.8,0.48583597323176864
51.59871215356988,-0.03416467471628853,Blackhorse Road,1849.25565862008,51.586840594392974,-0.041793873795219,Walthamstow Central,2526.4187733242184,51.58311960662003,-0.0215170203946605,Tottenham Hale,2804.0710732923067,51.588048703622064,-0.06016465065370944,Seven Sisters,4103.145591978017,51.58339794718637,-0.0725100279127818,South Woodford,5628.95205970149,51.591892453017074,0.027362518469825348,2916.18634983734,0.05085587078490434,2,0.8,0.4254279353924522
51.602564509820674,-0.2794832038903224,Queensbury,1353.6202872866713,51.59419745209295,-0.2862217775472735,Burnt Oak,1395.4065774529429,51.602834176714175,-0.26399369483295404,Canons Park,1558.6961060029166,51.60770907048488,-0.29469410620588665,Edgware,1652.278725035342,51.61360827412279,-0.27477777123740055,Kingsbury,2592.989840979026,51.584641087244194,-0.2786447440288867,1619.255691451582,0.012954938906804353,2,0.8,0.4064774694534022
51.46090686249019,0.1326585107880091,Abbey Wood,4497.840096579225,51.491073973350574,0.12054450171194857,Woolwich,7048.510925799293,51.491667870973096,0.07211914694673671,WOOLWICH ARSENAL - DLR,7132.805848133391,51.48998499909446,0.06886448006159107,KING GEORGE V - DLR,8702.570451645477,51.5020253612449,0.06229214246817125,GALLIONS REACH - DLR,8864.172906058733,51.508980646475905,0.07175759149661497,6829.458945966053,0.16521563021176078,2,0.8,0.4826078151058804
51.45564726545258,-0.0834995348026946,Brixton,3012.434437277109,51.46266709356466,-0.1148949328839154,Stockwell,4270.122643941859,51.47182845729258,-0.12304218836550214,Clapham North,4391.841165286432,51.46572960060881,-0.12935895070321768,Oval,4600.118356898881,51.48183745351276,-0.1124062491167189,Clapham Common,4942.580579054805,51.46221051259463,-0.13719253566731915,4120.154072201707,0.0860400946550987,2,0.8,0.44302004732754935
51.4390525299442,-0.17052634359810087,Tooting Bec,1117.8713550615662,51.43589927439103,-0.15923362533504307,Tooting Broadway,1656.439162207864,51.42767600459317,-0.16838983681417344,Balham,1742.3006598577454,51.44362737290878,-0.15269122947563088,Wimbledon Park,2680.559996482137,51.434055248289106,-0.19908634010842738,Clapham South,2940.364013059005,51.45323695245536,-0.14721241263243376,1795.0962109672735,0.018093625010399912,2,0.8,0.4090468125052
51.4631906244171,0.0031951201805222734,LEWISHAM - DLR,1600.874843973807,51.46565346553587,-0.014083062226242563,ELVERSON ROAD - DLR,1939.517841855366,51.46869615376942,-0.016384302059126953,GREENWICH - DLR,2631.71404875252,51.47812506248977,-0.0134548920388944,DEPTFORD BRIDGE - DLR,2820.1186911551754,51.4743026334533,-0.02246289169111558,CUTTY SARK - DLR,2967.6312904516903,51.48167303702902,-0.011082584411792822,2260.6072399521836,0.03169751484366307,1,1.0,0.5158487574218316
51.402424177570325,-0.12885697171666602,Colliers Wood,4997.569837616843,51.41815971696416,-0.17805799608697154,Tooting Broadway,5110.133199116981,51.42767600459317,-0.16838983681417344,Tooting Bec,5565.704936398485,51.43589927439103,-0.15923362533504307,Morden,5960.475458939554,51.40253820130652,-0.19475485350439264,South Wimbledon,6105.312990274943,51.41498929257676,-0.19330652029319118,5512.5439542743525,0.1267306849553353,1,1.0,0.5633653424776677
51.56553692144836,-0.20873930876091593,Golders Green,1646.723094715424,51.57228620318889,-0.19402225224523736,Brent Cross,1672.7924658436395,51.576668983672164,-0.21378475842151334,Willesden Green,2655.494727899554,51.54937241454188,-0.22271672855408042,Kilburn,2711.80037547007,51.546953022454446,-0.20471489160119855,Hendon Central,3003.4088294400835,51.58317142482077,-0.2263467398232382,2189.754678523885,0.029626950710785506,2,0.8,0.41481347535539276
51.36715626136154,-0.17339316857147463,Morden,5469.410000909208,51.40253820130652,-0.19475485350439264,South Wimbledon,7147.775626998441,51.41498929257676,-0.19330652029319118,Colliers Wood,7387.547832773565,51.41815971696416,-0.17805799608697154,Wimbledon,8401.577505539686,51.42143496760067,-0.2065150560922177,Tooting Broadway,8763.321818153596,51.42767600459317,-0.16838983681417344,7233.389199728422,0.17701991051955004,2,0.8,0.48850995525977503
51.57797615861142,0.12370202908162392,Chadwell Heath,1497.7561635389166,51.568019572273315,0.12827514956634728,Goodmayes,2061.8197916812837,51.56578721328644,0.11183537935333984,Newbury Park,3061.7152016650834,51.57570573751538,0.08992082990646201,Seven Kings,3211.905035200123,51.56394753983007,0.09607290430467301,Barkingside,3352.2368476203105,51.58570377518845,0.08862520423436726,2393.560566858234,0.03558288446882475,2,0.8,0.4177914422344124
51.45812724109952,-0.24173645143693237,East Putney,2774.847775330277,51.459149587092405,-0.2110636822805433,Putney Bridge,3321.992227949874,51.46825546825846,-0.2087270375114135,Southfields,3688.8303697546376,51.44507985784133,-0.2066534771013345,Parsons Green,4356.400521650206,51.47498535708651,-0.20176352486363486,Kew Gardens,4769.077659088062,51.47699774458654,-0.28504091647405505,3645.0470467840473,0.07215577563716902,1,1.0,0.5360778878185846
51.63489718949419,-0.04705115307822001,Tottenham Hale,6877.183930347144,51.588048703622064,-0.06016465065370944,Blackhorse Road,6965.896733136088,51.586840594392974,-0.041793873795219,Southgate,7273.600658668885,51.63225854371172,-0.1277625393853033,Oakwood,7788.383685943273,51.64733362819432,-0.13126893872170828,Seven Sisters,7792.4534652812135,51.58339794718637,-0.0725100279127818,7318.779567659157,0.1795153211238586,2,0.8,0.4897576605619293
51.48376151963265,-0.15433488815559063,Battersea Power Station,1165.6729088513925,51.47947593806482,-0.1434008238398742,Sloane Square,1253.1772109599801,51.49233693461083,-0.1563353394945677,Pimlico,2014.9038804882393,51.489081972458365,-0.13370871250340682,Victoria,2090.819648479888,51.49640097859263,-0.14308928980094832,South Kensington,2262.773324902478,51.49408858708188,-0.17316504691138462,1627.4114368747335,0.013193278828603048,5,0.19999999999999996,0.1065966394143015
51.39606280396602,-0.3016168343497926,Wimbledon,9350.476489796052,51.42143496760067,-0.2065150560922177,Richmond,9696.59483517352,51.463118722979786,-0.3016691259076597,Morden,9711.38665881224,51.40253820130652,-0.19475485350439264,South Wimbledon,10170.964947301209,51.41498929257676,-0.19330652029319118,Wimbledon Park,10776.702468667363,51.434055248289106,-0.19908634010842738,9917.502913474975,0.25545927068118135,2,0.8,0.5277296353405907
51.602984035806365,-0.30834769815586727,Canons Park,1406.5676748458113,51.60770907048488,-0.29469410620588665,Queensbury,2363.2888709736635,51.59419745209295,-0.2862217775472735,Stanmore,2461.805215122444,51.61971092780402,-0.3032624771028668,Harrow & Wealdstone,2866.2742471024562,51.59204382510434,-0.3348864548890388,Kenton,3181.469649013827,51.58161162102015,-0.31672815541742494,2269.116561451223,0.03194618751739364,2,0.8,0.41597309375869684
51.48838300899262,0.10513113541159737,Abbey Wood,1444.9620744101896,51.491073973350574,0.12054450171194857,Woolwich,3018.019100079091,51.491667870973096,0.07211914694673671,WOOLWICH ARSENAL - DLR,3282.4802849972148,51.48998499909446,0.06886448006159107,GALLIONS REACH - DLR,4236.538044151396,51.508980646475905,0.07175759149661497,KING GEORGE V - DLR,4341.358285025811,51.5020253612449,0.06229214246817125,2786.392419201126,0.04706282996855347,2,0.8,0.42353141498427677
51.41094847286231,-0.09974922604141248,Tooting Bec,6476.168992745744,51.43589927439103,-0.15923362533504307,Tooting Broadway,6661.035949640314,51.42767600459317,-0.16838983681417344,Balham,6725.947165886835,51.44362737290878,-0.15269122947563088,Colliers Wood,7157.558292488288,51.41815971696416,-0.17805799608697154,Clapham South,7470.212884822505,51.45323695245536,-0.14721241263243376,6879.524070458264,0.16667871141859233,1,1.0,0.5833393557092962
51.60570737110579,0.0816705598899622,Hainault,1107.1683970374586,51.6036401975141,0.09350819615879127,Grange Hill,1446.8863461685012,51.61319815416051,0.09232184221334147,Fairlop,1693.6623212813433,51.595558107334746,0.09105309597165903,Chigwell,1812.1178811334707,51.61765286220907,0.0755949749891976,Barkingside,2959.98414443139,51.58570377518845,0.08862520423436726,1626.3014023331914,0.013160839666748636,1,1.0,0.5065804198333743
51.448039493021234,-0.17016715548147865,Balham,1703.217996956666,51.44362737290878,-0.15269122947563088,Tooting Bec,2014.5428113556393,51.43589927439103,-0.15923362533504307,Clapham South,2206.0540732544446,51.45323695245536,-0.14721241263243376,Tooting Broadway,2949.116545201878,51.42767600459317,-0.16838983681417344,Wimbledon Park,3304.5338233322705,51.434055248289106,-0.19908634010842738,2295.1449586114663,0.032706829962915275,2,0.8,0.41635341498145767
51.43242682229937,-0.32904122939513064,Richmond,5080.809498708892,51.463118722979786,-0.3016691259076597,Hounslow East,6399.237351447945,51.47326292270873,-0.35633446056928547,Hounslow Central,6554.264612340005,51.47131979963469,-0.3662939172379908,Osterley,7363.12719476225,51.4812434687809,-0.3522207467968353,Kew Gardens,7572.466483278605,51.47699774458654,-0.28504091647405505,6463.879268754424,0.15453209030742884,2,0.8,0.47726604515371446
51.58480049605416,-0.29458870821384614,Kingsbury,1436.5339390047782,51.584641087244194,-0.2786447440288867,Queensbury,1553.893732867011,51.59419745209295,-0.2862217775472735,Preston Road,1849.6633332587671,51.572014075601594,-0.295129262413792,Kenton,2047.1580221386434,51.58161162102015,-0.31672815541742494,Northwick Park,2304.488833364283,51.57847500401296,-0.31806633884631424,1783.9804091947622,0.01776878170206546,3,0.6,0.3088843908510327
51.51392458792428,-0.36929652844414607,Southall,1328.27455090324,51.50614548639833,-0.3771245451315028,Hanwell,2812.698386503465,51.51178190030973,-0.3383131005158024,West Ealing,4343.807888149102,51.51347049215326,-0.3211587871947293,Greenford,4627.137034263839,51.54259127112355,-0.3465040750206399,Boston Manor,4782.231832202564,51.495219674970095,-0.3255952087308763,2834.7509441305756,0.04847603825939435,3,0.6,0.3242380191296972
51.64663884837595,-0.21999867072064008,High Barnet,2390.8285081966524,51.65052191222786,-0.19416624688190223,Totteridge & Whetstone,4343.005443645668,51.63058779485697,-0.1792054604098072,Woodside Park,5165.433246796739,51.61808637995582,-0.1855114363532535,Mill Hill East,5625.461084127104,51.608233232687525,-0.21006141993144073,West Finchley,6081.338612425943,51.60948689407505,-0.18834268491450493,4221.847504579224,0.08901193885360635,1,1.0,0.5445059694268032
51.600588858332486,-0.1496018795377094,East Finchley,2389.4132469007827,51.58715402026014,-0.1650441219039346,Bounds Green,2459.8989732958976,51.60706378685743,-0.12434197787111509,Arnos Grove,2735.947945026783,51.61645247794506,-0.1330451742909319,Highgate,3301.301817040399,51.57784395375154,-0.14646788226539453,Wood Green,3607.6014298136006,51.5974714659873,-0.10985901912398979,2823.8363217662495,0.048157074129715746,2,0.8,0.4240785370648579
51.410714574874234,-0.08537908497700168,Tooting Bec,7605.802938660182,51.43589927439103,-0.15923362533504307,Balham,7725.420376529799,51.44362737290878,-0.15269122947563088,Tooting Broadway,7896.240902557339,51.42767600459317,-0.16838983681417344,Brixton,7972.491073224081,51.46266709356466,-0.1148949328839154,Clapham South,8309.771896932265,51.45323695245536,-0.14721241263243376,7894.710481202445,0.19634607316102995,2,0.8,0.498173036580515
51.45791060945105,-0.2273503539722503,East Putney,1482.1739813605443,51.459149587092405,-0.2110636822805433,Putney Bridge,2251.1657443265117,51.46825546825846,-0.2087270375114135,Southfields,2634.2947712730947,51.44507985784133,-0.2066534771013345,Parsons Green,3381.968287488209,51.47498535708651,-0.20176352486363486,Wimbledon Park,4292.226370741025,51.434055248289106,-0.19908634010842738,2466.4899171481143,0.03771413976715444,1,1.0,0.5188570698835773
51.41118060985087,-0.11411955984301377,Tooting Bec,5423.402189306386,51.43589927439103,-0.15923362533504307,Tooting Broadway,5456.022310904743,51.42767600459317,-0.16838983681417344,Balham,5845.905453049705,51.44362737290878,-0.15269122947563088,Colliers Wood,5869.127690315299,51.41815971696416,-0.17805799608697154,Clapham South,6777.599288359997,51.45323695245536,-0.14721241263243376,5836.63729606851,0.13620184641648458,1,1.0,0.5681009232082423
51.51412395619375,-0.38370131688833337,Southall,1297.3986668383852,51.50614548639833,-0.3771245451315028,Hayes & Harlington,3596.3833553746076,51.50303632210459,-0.4193768852119428,Hanwell,4109.264911267937,51.51178190030973,-0.3383131005158024,Northolt,5119.385500102618,51.548259260589994,-0.36865042407239057,Greenford,5310.593058812792,51.54259127112355,-0.3465040750206399,2983.611172609612,0.05282626418894765,2,0.8,0.42641313209447385
51.60339646721102,-0.33721288602361066,Harrow & Wealdstone,1654.9934293211275,51.59204382510434,-0.3348864548890388,Harrow-on-the-Hill,3468.2027426828395,51.57941460314498,-0.3367522322346986,North Harrow,3513.973759489147,51.58494710527484,-0.3626047009909967,Kenton,3650.815125759996,51.58161162102015,-0.31672815541742494,West Harrow,3737.886528718581,51.57956661616709,-0.35329028029996584,2909.368204229667,0.05065662029256651,2,0.8,0.42532831014628325
51.58351082124934,-0.20803256144032153,Brent Cross,1116.9219780792102,51.576668983672164,-0.21378475842151334,Hendon Central,1650.6810381112473,51.58317142482077,-0.2263467398232382,Golders Green,2056.2950495036353,51.57228620318889,-0.19402225224523736,Finchley Central,2879.2940032356364,51.60093175153773,-0.19255484880487297,Mill Hill East,3579.8071221379105,51.608233232687525,-0.21006141993144073,1912.7101837764892,0.021530724089315282,1,1.0,0.5107653620446576
51.4140381152969,-0.30095077697199957,Richmond,7097.5892216894745,51.463118722979786,-0.3016691259076597,Wimbledon,8605.416968322357,51.42143496760067,-0.2065150560922177,Kew Gardens,9217.101402362025,51.47699774458654,-0.28504091647405505,Southfields,9633.665926092664,51.44507985784133,-0.2066534771013345,Wimbledon Park,9653.310303662836,51.434055248289106,-0.19908634010842738,8726.204294212472,0.22064528311507592,1,1.0,0.610322641557538
51.45517342981098,-0.054731662554532004,LEWISHAM - DLR,3972.573014753872,51.46565346553587,-0.014083062226242563,ELVERSON ROAD - DLR,3977.9779102911875,51.46869615376942,-0.016384302059126953,DEPTFORD BRIDGE - DLR,4018.560545249303,51.4743026334533,-0.02246289169111558,GREENWICH - DLR,4991.714130336527,51.47812506248977,-0.0134548920388944,CUTTY SARK - DLR,5498.0927291088365,51.48167303702902,-0.011082584411792822,4408.515690468159,0.09446704792319292,1,1.0,0.5472335239615964
51.41993511744052,-0.09937651962135834,Tooting Bec,5882.984887462853,51.43589927439103,-0.15923362533504307,Balham,5913.011519126467,51.44362737290878,-0.15269122947563088,Brixton,6336.6578091758365,51.46266709356466,-0.1148949328839154,Tooting Broadway,6338.9981552828,51.42767600459317,-0.16838983681417344,Clapham South,6471.8633005196725,51.45323695245536,-0.14721241263243376,6179.088473267363,0.14620948919573973,2,0.8,0.4731047445978699
51.36909972130051,-0.3026146296127538,Morden,10891.46550011957,51.40253820130652,-0.19475485350439264,Wimbledon,11526.00211286431,51.42143496760067,-0.2065150560922177,South Wimbledon,11909.091970224968,51.41498929257676,-0.19330652029319118,Wimbledon Park,13263.245852937118,51.434055248289106,-0.19908634010842738,Colliers Wood,13315.40594740469,51.41815971696416,-0.17805799608697154,12105.30291951039,0.31939457705666796,2,0.8,0.559697288528334
51.626387877959374,-0.07631267506508443,Southgate,4707.81017757609,51.63225854371172,-0.1277625393853033,Bounds Green,5148.41923825595,51.60706378685743,-0.12434197787111509,Wood Green,5158.490679887604,51.5974714659873,-0.10985901912398979,Arnos Grove,5305.230731989335,51.61645247794506,-0.1330451742909319,Tottenham Hale,5731.959953104951,51.588048703622064,-0.06016465065370944,5189.649930408623,0.11729457183452068,2,0.8,0.45864728591726034
51.56766424142346,0.19537065731807518,Romford,1556.7267217081228,51.57468932135223,0.18228349307035963,Gidea Park,2300.2446989798414,51.58205913427199,0.20622610724443255,Elm Park,2612.1371549030996,51.549719886941844,0.1986662037147443,Hornchurch,2907.862945849127,51.55404895710733,0.21910684007400003,Upminster Bridge,3880.3088815493975,51.558496054141195,0.23582667980199254,2425.3657285613513,0.036512344543877785,2,0.8,0.4182561722719389
51.60104030488332,-0.17846310651613329,Finchley Central,1269.1596724307312,51.60093175153773,-0.19255484880487297,West Finchley,1511.1197980949325,51.60948689407505,-0.18834268491450493,East Finchley,2343.8084329210897,51.58715402026014,-0.1650441219039346,Woodside Park,2545.457809236832,51.61808637995582,-0.1855114363532535,Mill Hill East,3029.5870592860083,51.608233232687525,-0.21006141993144073,1923.6136987176487,0.02184936362053825,1,1.0,0.5109246818102692
51.45979677360306,-0.35683154568277203,Hounslow Central,1872.6733337186722,51.47131979963469,-0.3662939172379908,Hounslow East,1947.775615454844,51.47326292270873,-0.35633446056928547,Osterley,3129.1101151843586,51.4812434687809,-0.3522207467968353,Hounslow West,3292.0396348852264,51.47361867347103,-0.38579398315426044,Richmond,5005.935306575499,51.463118722979786,-0.3016691259076597,2673.0710320109947,0.04375117552623289,2,0.8,0.42187558776311646
51.444972011567124,0.01678849247050469,LEWISHAM - DLR,4089.603276039639,51.46565346553587,-0.014083062226242563,ELVERSON ROAD - DLR,4555.54391524898,51.46869615376942,-0.016384302059126953,GREENWICH - DLR,5518.226494977788,51.47812506248977,-0.0134548920388944,DEPTFORD BRIDGE - DLR,5528.6076625127125,51.4743026334533,-0.02246289169111558,CUTTY SARK - DLR,5874.393456965168,51.48167303702902,-0.011082584411792822,5018.263451362038,0.11228604865313718,1,1.0,0.5561430243265686
51.559480580639544,0.15169460602990897,Chadwell Heath,2445.662262664098,51.568019572273315,0.12827514956634728,Dagenham East,2562.628630535526,51.54416043622838,0.16597604681459355,Dagenham Heathway,2610.7107271558953,51.54161732780605,0.14751917346847765,Romford,3526.919095438448,51.57468932135223,0.18228349307035963,Becontree,3532.7441975197803,51.54034470776378,0.1273417848283317,2859.187388039421,0.04919015816236967,2,0.8,0.4245950790811849
51.5147114514676,-0.4269166656697477,Hayes & Harlington,1820.190809359139,51.50303632210459,-0.4193768852119428,West Drayton,4104.907913398678,51.509888266756654,-0.47175014048199965,Southall,4660.475660004883,51.50614548639833,-0.3771245451315028,Hillingdon,6024.856625798085,51.55394931648672,-0.44938394891092626,Uxbridge,6481.068061962558,51.54646222722115,-0.4776347848292753,3765.4890830848863,0.0756755208013241,3,0.6,0.33783776040066205
51.56464226744059,-0.15106158996919414,Archway,1443.018390355997,51.56453819250787,-0.13505202452388373,Tufnell Park,1600.224448318172,51.55684430975304,-0.13846565572304778,Highgate,1953.4965958947087,51.57784395375154,-0.14646788226539453,Kentish Town,2273.7187246607295,51.55029387744979,-0.1407479399821426,Belsize Park,2404.233493116663,51.55032570077621,-0.16462098681641185,1861.817455107387,0.020043457341547076,1,1.0,0.5100217286707736
51.46732946100165,-0.255780105960502,Kew Gardens,2989.6064815384484,51.47699774458654,-0.28504091647405505,Gunnersbury,3939.171458864513,51.491741910939425,-0.2751361823945699,Turnham Green,3996.804047570139,51.4949578319235,-0.2545503301237331,Stamford Brook,4086.060648278587,51.4949181050598,-0.24600122518353934,Chiswick Park,4118.532076616907,51.49466748590177,-0.26857152550054486,3770.4773640296694,0.07582129613252983,2,0.8,0.43791064806626495
51.523505368138885,-0.4121988601620475,Hayes & Harlington,3029.9192075609103,51.50303632210459,-0.4193768852119428,Southall,4039.2955310008865,51.50614548639833,-0.3771245451315028,South Ruislip,4970.834644947599,51.55686021118094,-0.39886613068870685,Northolt,5313.813895676806,51.548259260589994,-0.36865042407239057,Ruislip Gardens,5391.071931855039,51.56077549009729,-0.4107169346271762,4338.531056450004,0.09242184771970842,2,0.8,0.4462109238598542
51.55128046967638,0.10803381386974605,Upney,1958.551766585621,51.53835457119145,0.10155366360748233,Seven Kings,2125.69725088157,51.56394753983007,0.09607290430467301,Goodmayes,2125.785925853119,51.56578721328644,0.11183537935333984,Becontree,2352.130753927457,51.54034470776378,0.1273417848283317,Barking,3003.8880870322637,51.539885097485445,0.08018208014455507,2262.9781627395623,0.03176680164976304,3,0.6,0.31588340082488153
51.46294392821625,0.017580775754170667,LEWISHAM - DLR,2886.9473493063037,51.46565346553587,-0.014083062226242563,ELVERSON ROAD - DLR,3178.777866500838,51.46869615376942,-0.016384302059126953,GREENWICH - DLR,3560.5179422525152,51.47812506248977,-0.0134548920388944,CUTTY SARK - DLR,3746.684549337543,51.48167303702902,-0.011082584411792822,DEPTFORD BRIDGE - DLR,3972.3843857637753,51.4743026334533,-0.02246289169111558,3423.551720392862,0.06568289351152119,1,1.0,0.5328414467557606
51.43672012124178,-0.02673954078918342,LEWISHAM - DLR,4337.632507402962,51.46565346553587,-0.014083062226242563,ELVERSON ROAD - DLR,4717.8870711523705,51.46869615376942,-0.016384302059126953,DEPTFORD BRIDGE - DLR,5448.672349896114,51.4743026334533,-0.02246289169111558,GREENWICH - DLR,6106.839112667497,51.47812506248977,-0.0134548920388944,CUTTY SARK - DLR,6652.931406234136,51.48167303702902,-0.011082584411792822,5318.632563029443,0.12106390363403594,1,1.0,0.560531951817018
